timestamp,q[0],q[1],q[2],q[3],delta_q_reset[0],delta_q_reset[1],delta_q_reset[2],delta_q_reset[3],quat_reset_counter
11792577,0.15798667,-0.00043309949,-0.0063522332,0.98742074,0.9999991,1.3382627e-09,-2.2368347e-10,0.0013346693,2
11848543,0.1604861,-0.0011416598,-0.0071566645,0.9870115,0.9999991,1.3382627e-09,-2.2368347e-10,0.0013346693,2
11897343,0.1629501,-0.0010755474,-0.011515321,0.98656654,0.9999991,1.3382627e-09,-2.2368347e-10,0.0013346693,2
11953346,0.16511926,-0.0009044435,-0.014548008,0.98616594,0.9999991,1.3382627e-09,-2.2368347e-10,0.0013346693,2
12005387,0.16409576,-0.0011368324,-0.014699454,0.98633426,0.9999991,1.3382627e-09,-2.2368347e-10,0.0013346693,2
12057349,0.16591501,-0.0013051324,-0.011286425,0.9860747,0.9999991,1.3382627e-09,-2.2368347e-10,0.0013346693,2
12109347,0.16657776,-0.0014161795,-0.0074037053,0.9859996,0.9999991,1.3382627e-09,-2.2368347e-10,0.0013346693,2
12161377,0.16532691,-0.00086245494,-0.0081829345,0.98620456,0.9999991,1.3382627e-09,-2.2368347e-10,0.0013346693,2
12213346,0.16606538,-6.891565e-05,-0.0070272326,0.9860897,0.9999991,1.3382627e-09,-2.2368347e-10,0.0013346693,2
12265387,0.1691785,-0.00019081801,-0.00890501,0.9855452,0.9999991,1.3382627e-09,-2.2368347e-10,0.0013346693,2
12317350,0.1696382,-0.00053410744,-0.01033302,0.9854521,0.9999991,1.3382627e-09,-2.2368347e-10,0.0013346693,2
12369348,0.17099805,-0.00022369403,-0.009428243,0.98522633,0.9999991,1.3382627e-09,-2.2368347e-10,0.0013346693,2
12421402,0.17231683,-0.00011703348,-0.009497834,0.9849958,0.9999991,1.3382627e-09,-2.2368347e-10,0.0013346693,2
12474146,0.1718152,0.00085017167,-0.009862099,0.9850795,0.9999991,1.3382627e-09,-2.2368347e-10,0.0013346693,2
12526146,0.16999377,0.0007174854,-0.008109837,0.9854115,0.9999991,1.3382627e-09,-2.2368347e-10,0.0013346693,2
12578145,0.17183536,0.0007362562,-0.0046952534,0.9851142,0.9999991,1.3382627e-09,-2.2368347e-10,0.0013346693,2
12630149,0.17354093,0.0008273208,-0.0058007,0.9848092,0.9999991,1.3382627e-09,-2.2368347e-10,0.0013346693,2
12682143,0.17460845,0.002180975,-0.010358697,0.9845811,0.9999991,1.3382627e-09,-2.2368347e-10,0.0013346693,2
12734149,0.17734838,0.0025022326,-0.01116965,0.98408157,0.9999991,1.3382627e-09,-2.2368347e-10,0.0013346693,2
12786192,0.17960817,0.0025505207,-0.0108171,0.9836755,0.9999991,1.3382627e-09,-2.2368347e-10,0.0013346693,2
12838143,0.1812554,0.0019546954,-0.009177774,0.9833913,0.9999991,1.3382627e-09,-2.2368347e-10,0.0013346693,2
12890143,0.18167715,0.0022146143,-0.005307702,0.98334146,0.9999991,1.3382627e-09,-2.2368347e-10,0.0013346693,2
12942943,0.18587117,0.0022862125,-0.005512702,0.9825561,0.9999991,1.3382627e-09,-2.2368347e-10,0.0013346693,2
12995001,0.18840772,0.004247521,-0.007319179,0.9820545,0.9999991,1.3382627e-09,-2.2368347e-10,0.0013346693,2
13046946,0.19389789,0.002769562,-0.01098094,0.9809564,0.9999991,1.3382627e-09,-2.2368347e-10,0.0013346693,2
13098943,0.19828923,0.0017567718,-0.011025582,0.98007995,0.9999991,1.3382627e-09,-2.2368347e-10,0.0013346693,2
13150946,0.20207499,0.0011705086,-0.011384198,0.97930324,0.9999991,1.3382627e-09,-2.2368347e-10,0.0013346693,2
13202943,0.20095624,0.0024251011,-0.011740109,0.9795269,0.9999991,1.3382627e-09,-2.2368347e-10,0.0013346693,2
13254953,0.20188488,0.0025774264,-0.010410561,0.9793506,0.9999991,1.3382627e-09,-2.2368347e-10,0.0013346693,2
13306943,0.20126627,0.0032210383,-0.0073358626,0.97950387,0.9999991,1.3382627e-09,-2.2368347e-10,0.0013346693,2
13358943,0.20345564,0.0023197138,-0.006562647,0.9790595,0.9999991,1.3382627e-09,-2.2368347e-10,0.0013346693,2
13410943,0.20397048,0.001337021,-0.008386498,0.9789403,0.9999991,1.3382627e-09,-2.2368347e-10,0.0013346693,2
13463753,0.20352335,0.0013024507,-0.010095137,0.9790172,0.9999991,1.3382627e-09,-2.2368347e-10,0.0013346693,2
13515746,0.20572545,0.00092527445,-0.010739867,0.97855043,0.9999991,1.3382627e-09,-2.2368347e-10,0.0013346693,2
13567762,0.20673203,0.0011467083,-0.007696428,0.97836673,0.9999991,1.3382627e-09,-2.2368347e-10,0.0013346693,2
13619750,0.208803,0.001342777,-0.0067776493,0.9779333,0.9999991,1.3382627e-09,-2.2368347e-10,0.0013346693,2
13671770,0.20419021,0.0014927932,-0.009173925,0.9788871,0.9999991,1.3382627e-09,-2.2368347e-10,0.0013346693,2
13723764,0.20423427,0.0020375403,-0.009213684,0.97887653,0.9999991,1.3382627e-09,-2.2368347e-10,0.0013346693,2
13775749,0.20411883,0.0003069936,-0.0067339996,0.9789229,0.9999991,1.3382627e-09,-2.2368347e-10,0.0013346693,2
13827758,0.20438534,-0.00057889655,-0.005645938,0.978874,0.9999991,1.3382627e-09,-2.2368347e-10,0.0013346693,2
13880547,0.20574424,-0.00046271103,-0.007255752,0.97857887,0.9999991,1.3382627e-09,-2.2368347e-10,0.0013346693,2
13932543,0.20719655,0.00097309414,-0.010053012,0.9782472,0.9999991,1.3382627e-09,-2.2368347e-10,0.0013346693,2
13984543,0.20380805,0.001128012,-0.010157513,0.97895753,0.9999991,1.3382627e-09,-2.2368347e-10,0.0013346693,2
14036543,0.20378177,0.0014201829,-0.008166649,0.97898126,0.9999991,1.3382627e-09,-2.2368347e-10,0.0013346693,2
14088554,0.20665133,0.0009006388,-0.0064482344,0.978393,0.9999991,1.3382627e-09,-2.2368347e-10,0.0013346693,2
14144547,0.20440386,0.000795072,-0.0074934773,0.97885764,0.9999991,1.3382627e-09,-2.2368347e-10,0.0013346693,2
14196546,0.20490754,0.0006037079,-0.008004439,0.9787485,0.9999991,1.3382627e-09,-2.2368347e-10,0.0013346693,2
14248554,0.20447583,0.0006317362,-0.009100077,0.97882915,0.9999991,1.3382627e-09,-2.2368347e-10,0.0013346693,2
14300543,0.20174456,0.0011720215,-0.0096897,0.9793896,0.9999991,1.3382627e-09,-2.2368347e-10,0.0013346693,2
14352543,0.2002598,0.0020766684,-0.009868631,0.97969097,0.9999991,1.3382627e-09,-2.2368347e-10,0.0013346693,2
14404543,0.19520348,0.0015934304,-0.010005222,0.9807105,0.9999991,1.3382627e-09,-2.2368347e-10,0.0013346693,2
14456555,0.19262831,0.001722058,-0.008507625,0.9812335,0.9999991,1.3382627e-09,-2.2368347e-10,0.0013346693,2
14508543,0.19608088,0.00070626405,-0.0047727386,0.98057586,0.9999991,1.3382627e-09,-2.2368347e-10,0.0013346693,2
14560551,0.19505616,0.00042028003,-0.005396734,0.9807772,0.9999991,1.3382627e-09,-2.2368347e-10,0.0013346693,2
14612543,0.19462645,0.000932581,-0.008617634,0.98083913,0.9999991,1.3382627e-09,-2.2368347e-10,0.0013346693,2
14665354,0.19752896,0.0015876077,-0.009377777,0.9802509,0.9999991,1.3382627e-09,-2.2368347e-10,0.0013346693,2
14717343,0.19519372,0.00097549614,-0.00866105,0.980726,0.9999991,1.3382627e-09,-2.2368347e-10,0.0013346693,2
14770143,0.19735113,0.00077397993,-0.0071325838,0.9803066,0.9999991,1.3382627e-09,-2.2368347e-10,0.0013346693,2
14822145,0.19714911,0.0004916649,-0.0067655463,0.98035,0.9999991,1.3382627e-09,-2.2368347e-10,0.0013346693,2
14874178,0.19590779,0.0005116217,-0.007840788,0.9805909,0.9999991,1.3382627e-09,-2.2368347e-10,0.0013346693,2
14926143,0.19545041,0.0010378656,-0.006562672,0.98069113,0.9999991,1.3382627e-09,-2.2368347e-10,0.0013346693,2
14978165,0.19837654,0.0010060231,-0.0061829626,0.98010594,0.9999991,1.3382627e-09,-2.2368347e-10,0.0013346693,2
15030150,0.19727404,0.0006465337,-0.0071247364,0.98032236,0.9999991,1.3382627e-09,-2.2368347e-10,0.0013346693,2
15082143,0.2020399,-0.00010518117,-0.007915549,0.9793454,0.9999991,1.3382627e-09,-2.2368347e-10,0.0013346693,2
15134147,0.20208964,0.00016445392,-0.009468024,0.9793213,0.9999991,1.3382627e-09,-2.2368347e-10,0.0013346693,2
15186143,0.19927725,0.0005994969,-0.010200041,0.9798899,0.9999991,1.3382627e-09,-2.2368347e-10,0.0013346693,2
15238143,0.20062254,0.0014002796,-0.008016447,0.9796348,0.9999991,1.3382627e-09,-2.2368347e-10,0.0013346693,2
15290152,0.2027334,0.0013375272,-0.005249813,0.97921896,0.9999991,1.3382627e-09,-2.2368347e-10,0.0013346693,2
15342146,0.20410758,0.0011173704,-0.0048175068,0.97893596,0.9999991,1.3382627e-09,-2.2368347e-10,0.0013346693,2
15394151,0.20408666,0.0012081105,-0.00715023,0.97892606,0.9999991,1.3382627e-09,-2.2368347e-10,0.0013346693,2
15446143,0.20810983,0.0011514634,-0.007415863,0.9780767,0.9999991,1.3382627e-09,-2.2368347e-10,0.0013346693,2
15498146,0.20935215,0.0013524018,-0.0075625135,0.97781014,0.9999991,1.3382627e-09,-2.2368347e-10,0.0013346693,2
15550147,0.2136593,0.00068858685,-0.0069784024,0.9768832,0.9999991,1.3382627e-09,-2.2368347e-10,0.0013346693,2
15602176,0.21653862,0.0014808275,-0.0072952234,0.97624576,0.9999991,1.3382627e-09,-2.2368347e-10,0.0013346693,2
15654143,0.2170996,0.00076493394,-0.00885254,0.9761091,0.9999991,1.3382627e-09,-2.2368347e-10,0.0013346693,2
15706146,0.22222848,0.0004309768,-0.007844997,0.974963,0.9999991,1.3382627e-09,-2.2368347e-10,0.0013346693,2
15758956,0.22629635,-0.0021051054,-0.0047561172,0.9740447,0.9999991,1.3382627e-09,-2.2368347e-10,0.0013346693,2
15810943,0.22723047,-0.002525124,-0.00018297076,0.9738378,0.9999991,1.3382627e-09,-2.2368347e-10,0.0013346693,2
15862943,0.2365575,-0.00044796892,-0.0023721384,0.97161454,0.9999991,1.3382627e-09,-2.2368347e-10,0.0013346693,2
15914943,0.24278615,0.0009491474,-0.0060733147,0.9700604,0.9999991,1.3382627e-09,-2.2368347e-10,0.0013346693,2
15966967,0.24448526,0.0001956926,-0.010322522,0.96959805,0.9999991,1.3382627e-09,-2.2368347e-10,0.0013346693,2
16018943,0.24347316,-0.0012655155,-0.012360444,0.96982807,0.9999991,1.3382627e-09,-2.2368347e-10,0.0013346693,2
16070943,0.2447332,-0.0018269365,-0.009086719,0.96954626,0.9999991,1.3382627e-09,-2.2368347e-10,0.0013346693,2
16122946,0.24642898,-0.0028581128,-0.007321675,0.969129,0.9999991,1.3382627e-09,-2.2368347e-10,0.0013346693,2
16174943,0.24628046,-0.0027528713,-0.00429812,0.96918523,0.9999991,1.3382627e-09,-2.2368347e-10,0.0013346693,2
16227745,0.2500757,-0.0008763681,-0.0037520118,0.9682186,0.9999991,1.3382627e-09,-2.2368347e-10,0.0013346693,2
16279743,0.25252137,-0.000976574,-0.0063561546,0.96756995,0.9999991,1.3382627e-09,-2.2368347e-10,0.0013346693,2
16331747,0.25307822,-0.0020897037,-0.008857434,0.96740305,0.9999991,1.3382627e-09,-2.2368347e-10,0.0013346693,2
16383746,0.2532932,-0.0022117228,-0.010465036,0.9673305,0.9999991,1.3382627e-09,-2.2368347e-10,0.0013346693,2
16435743,0.253836,-0.0026146802,-0.010067881,0.96719134,0.9999991,1.3382627e-09,-2.2368347e-10,0.0013346693,2
16487743,0.25169182,-0.0025181805,-0.010655668,0.96774554,0.9999991,1.3382627e-09,-2.2368347e-10,0.0013346693,2
16539743,0.24978988,-0.0022326296,-0.010392427,0.9682418,0.9999991,1.3382627e-09,-2.2368347e-10,0.0013346693,2
16591743,0.24798347,-0.0014683878,-0.012997296,0.96867603,0.9999991,1.3382627e-09,-2.2368347e-10,0.0013346693,2
16643743,0.24299827,-0.001741593,-0.013856641,0.96992624,0.9999991,1.3382627e-09,-2.2368347e-10,0.0013346693,2
16695743,0.24130972,-0.001346756,-0.010381864,0.97039175,0.9999991,1.3382627e-09,-2.2368347e-10,0.0013346693,2
16747743,0.23855048,9.405823e-05,-0.00528211,0.97111577,0.9999991,1.3382627e-09,-2.2368347e-10,0.0013346693,2
16799743,0.23768517,0.00012779809,0.00071869045,0.97134197,0.9999991,1.3382627e-09,-2.2368347e-10,0.0013346693,2
16852546,0.23737249,3.3787965e-05,-0.001160742,0.9714181,0.9999991,1.3382627e-09,-2.2368347e-10,0.0013346693,2
16904543,0.23641331,0.00017537537,-0.004715215,0.9716411,0.9999991,1.3382627e-09,-2.2368347e-10,0.0013346693,2
16956552,0.23775603,-6.4942906e-05,-0.0072700703,0.9712978,0.9999991,1.3382627e-09,-2.2368347e-10,0.0013346693,2
17008543,0.23593704,-0.0019366188,-0.010438877,0.9717104,0.9999991,1.3382627e-09,-2.2368347e-10,0.0013346693,2
17060543,0.23851399,-0.0007781273,-0.009017559,0.97109693,0.9999991,1.3382627e-09,-2.2368347e-10,0.0013346693,2
17112543,0.23760861,-0.0012309359,-0.004714777,0.9713488,0.9999991,1.3382627e-09,-2.2368347e-10,0.0013346693,2
17164546,0.23506464,-0.00095376535,-0.003263984,0.9719738,0.9999991,1.3382627e-09,-2.2368347e-10,0.0013346693,2
17216543,0.23607118,-0.00067720073,-0.003784592,0.9717282,0.9999991,1.3382627e-09,-2.2368347e-10,0.0013346693,2
17268543,0.2360491,-0.0001213769,-0.006224351,0.97172123,0.9999991,1.3382627e-09,-2.2368347e-10,0.0013346693,2
17320543,0.23748724,-0.0017869573,-0.008685709,0.97135025,0.9999991,1.3382627e-09,-2.2368347e-10,0.0013346693,2
17372543,0.23826936,-0.00095601386,-0.0076989424,0.97116816,0.9999991,1.3382627e-09,-2.2368347e-10,0.0013346693,2
17425431,0.23993774,-0.0014032222,-0.0055036074,0.9707717,0.9999991,1.3382627e-09,-2.2368347e-10,0.0013346693,2
17477346,0.23846947,-0.0007159943,-0.0052325637,0.9711357,0.9999991,1.3382627e-09,-2.2368347e-10,0.0013346693,2
17529343,0.2402822,-0.00014836331,-0.005077057,0.97068983,0.9999991,1.3382627e-09,-2.2368347e-10,0.0013346693,2
17581343,0.24334984,-0.00048486426,-0.0056227,0.96992224,0.9999991,1.3382627e-09,-2.2368347e-10,0.0013346693,2
17633343,0.24672912,-0.0018657047,-0.0068339207,0.9690587,0.9999991,1.3382627e-09,-2.2368347e-10,0.0013346693,2
17685390,0.2509062,-0.0023291516,-0.0074186437,0.96798027,0.9999991,1.3382627e-09,-2.2368347e-10,0.0013346693,2
17737356,0.25220838,-0.0012564572,-0.007457643,0.9676434,0.9999991,1.3382627e-09,-2.2368347e-10,0.0013346693,2
17789361,0.25086573,-0.0007165478,-0.009443043,0.9679756,0.9999991,1.3382627e-09,-2.2368347e-10,0.0013346693,2
17842158,0.25217265,0.0006177734,-0.0056107193,0.96766585,0.9999991,1.3382627e-09,-2.2368347e-10,0.0013346693,2
17894153,0.25673908,0.00040160038,-0.003554246,0.9664742,0.9999991,1.3382627e-09,-2.2368347e-10,0.0013346693,2
17946148,0.25716045,-9.260793e-05,-0.0037244565,0.9663615,0.9999991,1.3382627e-09,-2.2368347e-10,0.0013346693,2
17998174,0.26090226,0.00028312695,-0.0065148515,0.96534324,0.9999991,1.3382627e-09,-2.2368347e-10,0.0013346693,2
18050153,0.26302585,4.352603e-05,-0.007904792,0.96475637,0.9999991,1.3382627e-09,-2.2368347e-10,0.0013346693,2
18102146,0.26256183,-0.0003319226,-0.0089567,0.9648736,0.9999991,1.3382627e-09,-2.2368347e-10,0.0013346693,2
18154157,0.26564908,-0.00019342153,-0.0061193076,0.96405035,0.9999991,1.3382627e-09,-2.2368347e-10,0.0013346693,2
18206148,0.26790363,0.00029558488,-0.0043299473,0.96343595,0.9999991,1.3382627e-09,-2.2368347e-10,0.0013346693,2
18258158,0.26766872,0.00036378426,-0.004347173,0.96350116,0.9999991,1.3382627e-09,-2.2368347e-10,0.0013346693,2
18310153,0.26901183,0.0005653943,-0.0066619418,0.96311367,0.9999991,1.3382627e-09,-2.2368347e-10,0.0013346693,2
18362188,0.26982242,0.00036440062,-0.007683416,0.9628794,0.9999991,1.3382627e-09,-2.2368347e-10,0.0013346693,2
18414943,0.2711544,-0.00011847485,-0.006710904,0.96251243,0.9999991,1.3382627e-09,-2.2368347e-10,0.0013346693,2
18466943,0.2707852,-0.00021955723,-0.0063026827,0.9626191,0.9999991,1.3382627e-09,-2.2368347e-10,0.0013346693,2
18518943,0.26874426,0.0008081396,-0.006801685,0.9631873,0.9999991,1.3382627e-09,-2.2368347e-10,0.0013346693,2
18570943,0.26838237,0.0004707029,-0.0062366556,0.96329224,0.9999991,1.3382627e-09,-2.2368347e-10,0.0013346693,2
18622943,0.26757568,-0.000362456,-0.006364201,0.9635158,0.9999991,1.3382627e-09,-2.2368347e-10,0.0013346693,2
18674943,0.26943138,4.2009975e-05,-0.0038776998,0.96301186,0.9999991,1.3382627e-09,-2.2368347e-10,0.0013346693,2
18726955,0.27210498,-0.00026825583,-0.0066224267,0.96224475,0.9999991,1.3382627e-09,-2.2368347e-10,0.0013346693,2
18778943,0.26827285,-0.00044440318,-0.009784902,0.9632932,0.9999991,1.3382627e-09,-2.2368347e-10,0.0013346693,2
18830943,0.26561493,-0.0009612635,-0.007524572,0.9640494,0.9999991,1.3382627e-09,-2.2368347e-10,0.0013346693,2
18882969,0.2711001,-0.000828493,-0.0038445361,0.96254313,0.9999991,1.3382627e-09,-2.2368347e-10,0.0013346693,2
18934943,0.26922634,-0.00012167233,-0.004515749,0.9630664,0.9999991,1.3382627e-09,-2.2368347e-10,0.0013346693,2
18986943,0.26627705,0.0006025217,-0.009058687,0.9638538,0.9999991,1.3382627e-09,-2.2368347e-10,0.0013346693,2
19038943,0.26680806,0.0018267732,-0.00807886,0.9637141,0.9999991,1.3382627e-09,-2.2368347e-10,0.0013346693,2
19091743,0.26931366,0.000101880134,-0.008118598,0.9630183,0.9999991,1.3382627e-09,-2.2368347e-10,0.0013346693,2
19143743,0.26554886,0.00094132836,-0.007135252,0.9640706,0.9999991,1.3382627e-09,-2.2368347e-10,0.0013346693,2
19195743,0.27008903,-0.00028556812,-0.0067844046,0.96281147,0.9999991,1.3382627e-09,-2.2368347e-10,0.0013346693,2
19247746,0.2711134,0.0006955867,-0.0072237435,0.96252006,0.9999991,1.3382627e-09,-2.2368347e-10,0.0013346693,2
19299743,0.2658187,0.00043334055,-0.009453182,0.9639766,0.9999991,1.3382627e-09,-2.2368347e-10,0.0013346693,2
19351746,0.26661837,0.0006747568,-0.009154849,0.96375847,0.9999991,1.3382627e-09,-2.2368347e-10,0.0013346693,2
19403743,0.26554024,0.00097430387,-0.0052134404,0.9640852,0.9999991,1.3382627e-09,-2.2368347e-10,0.0013346693,2
19455747,0.2705511,0.000164762,-0.004254377,0.96269625,0.9999991,1.3382627e-09,-2.2368347e-10,0.0013346693,2
19507743,0.26946956,0.00091534905,-0.006019069,0.96298975,0.9999991,1.3382627e-09,-2.2368347e-10,0.0013346693,2
19559743,0.2691698,0.00039596224,-0.009428346,0.96304655,0.9999991,1.3382627e-09,-2.2368347e-10,0.0013346693,2
19612543,0.27187353,-0.00036738152,-0.009222705,0.9622888,0.9999991,1.3382627e-09,-2.2368347e-10,0.0013346693,2
19664549,0.27118903,0.00020605518,-0.007421468,0.9624975,0.9999991,1.3382627e-09,-2.2368347e-10,0.0013346693,2
19716543,0.2715043,-4.4859135e-05,-0.0057916124,0.96241987,0.9999991,1.3382627e-09,-2.2368347e-10,0.0013346693,2
19768543,0.27204517,0.0017773765,-0.0055295536,0.962267,0.9999991,1.3382627e-09,-2.2368347e-10,0.0013346693,2
19821377,0.2709785,0.0003790517,-0.0051802746,0.96257144,0.9999991,1.3382627e-09,-2.2368347e-10,0.0013346693,2
19873396,0.27228484,0.0012442601,-0.0057242145,0.9621989,0.9999991,1.3382627e-09,-2.2368347e-10,0.0013346693,2
19925426,0.27541804,-0.00088433735,-0.0060553746,0.96130514,0.9999991,1.3382627e-09,-2.2368347e-10,0.0013346693,2
19977377,0.2742874,-0.00034379595,-0.0070896833,0.9616216,0.9999991,1.3382627e-09,-2.2368347e-10,0.0013346693,2
20029395,0.27516323,-0.0005757973,-0.008045788,0.9613638,0.9999991,1.3382627e-09,-2.2368347e-10,0.0013346693,2
20081377,0.27603212,8.393873e-05,-0.0073014335,0.9611207,0.9999991,1.3382627e-09,-2.2368347e-10,0.0013346693,2
20133377,0.27637377,0.0005156225,-0.005783847,0.96103275,0.9999991,1.3382627e-09,-2.2368347e-10,0.0013346693,2
20185441,0.2801909,-7.1567236e-05,-0.004834164,0.9599321,0.9999991,1.3382627e-09,-2.2368347e-10,0.0013346693,2
20237377,0.2826452,-0.00048440383,-0.0054565542,0.95920897,0.9999991,1.3382627e-09,-2.2368347e-10,0.0013346693,2
20289395,0.28459415,-0.0008280477,-0.00752058,0.9586182,0.9999991,1.3382627e-09,-2.2368347e-10,0.0013346693,2
20341390,0.2877027,-0.0009675131,-0.0074035535,0.9576907,0.9999991,1.3382627e-09,-2.2368347e-10,0.0013346693,2
20393377,0.29113662,-0.0005571205,-0.00559948,0.956665,0.9999991,1.3382627e-09,-2.2368347e-10,0.0013346693,2
20445451,0.29266834,-0.0008935348,-0.0050792834,0.9562002,0.9999991,1.3382627e-09,-2.2368347e-10,0.0013346693,2
20497377,0.29577616,-0.00013193305,-0.004197882,0.95524806,0.9999991,1.3382627e-09,-2.2368347e-10,0.0013346693,2
20549402,0.29852855,-0.00050918653,-0.0044145486,0.95439047,0.9999991,1.3382627e-09,-2.2368347e-10,0.0013346693,2
20601377,0.30075574,-0.0012864931,-0.0063310973,0.9536793,0.9999991,1.3382627e-09,-2.2368347e-10,0.0013346693,2
20653420,0.30305913,-0.0017142242,-0.006358246,0.95294905,0.9999991,1.3382627e-09,-2.2368347e-10,0.0013346693,2
20706143,0.3051421,-0.0015802608,-0.006146269,0.9522857,0.9999991,1.3382627e-09,-2.2368347e-10,0.0013346693,2
20758143,0.30605385,-0.0011068855,-0.00588229,0.9519954,0.9999991,1.3382627e-09,-2.2368347e-10,0.0013346693,2
20810149,0.30795768,-0.0010095543,-0.0053271693,0.9513846,0.9999991,1.3382627e-09,-2.2368347e-10,0.0013346693,2
20862143,0.30969912,-0.00096057804,-0.0051751016,0.95082,0.9999991,1.3382627e-09,-2.2368347e-10,0.0013346693,2
20914143,0.3112176,-0.0014690439,-0.0064319107,0.9503158,0.9999991,1.3382627e-09,-2.2368347e-10,0.0013346693,2
20966150,0.31200063,-0.001933019,-0.007767795,0.95004815,0.9999991,1.3382627e-09,-2.2368347e-10,0.0013346693,2
21018143,0.31535167,-0.0023026965,-0.0075767543,0.9489418,0.9999991,1.3382627e-09,-2.2368347e-10,0.0013346693,2
21070143,0.31427014,-0.0020304464,-0.0067673284,0.9493074,0.9999991,1.3382627e-09,-2.2368347e-10,0.0013346693,2
21122943,0.3160405,-0.0030512735,-0.0071151354,0.9487142,0.9999991,1.3382627e-09,-2.2368347e-10,0.0013346693,2
21174943,0.31792754,-0.002527488,-0.0049455445,0.94809884,0.9999991,1.3382627e-09,-2.2368347e-10,0.0013346693,2
21226946,0.3147331,-0.0031581656,-0.006378056,0.94915354,0.9999991,1.3382627e-09,-2.2368347e-10,0.0013346693,2
21278943,0.3152475,-0.0017866347,-0.004957772,0.9489949,0.9999991,1.3382627e-09,-2.2368347e-10,0.0013346693,2
21330943,0.31886372,-0.0020339862,-0.005186372,0.94778425,0.9999991,1.3382627e-09,-2.2368347e-10,0.0013346693,2
21382943,0.31482032,-0.0018706536,-0.0057932716,0.9491318,0.9999991,1.3382627e-09,-2.2368347e-10,0.0013346693,2
21434943,0.31959125,-0.0024232354,-0.0053194407,0.94753754,0.9999991,1.3382627e-09,-2.2368347e-10,0.0013346693,2
21486956,0.31646878,-0.0022918251,-0.0071245898,0.94857347,0.9999991,1.3382627e-09,-2.2368347e-10,0.0013346693,2
21538946,0.3175378,-0.0030405496,-0.0075917807,0.94821036,0.9999991,1.3382627e-09,-2.2368347e-10,0.0013346693,2
21590943,0.3156282,-0.00350278,-0.007197285,0.94884926,0.9999991,1.3382627e-09,-2.2368347e-10,0.0013346693,2
21642943,0.3141956,-0.0028033627,-0.004151788,0.94934505,0.9999991,1.3382627e-09,-2.2368347e-10,0.0013346693,2
21694980,0.3202874,-0.0027062406,-0.003548093,0.9473099,0.9999991,1.3382627e-09,-2.2368347e-10,0.0013346693,2
21746943,0.31577134,-0.0019577376,-0.0056226477,0.9488167,0.9999991,1.3382627e-09,-2.2368347e-10,0.0013346693,2
21798963,0.3169588,-0.0025992463,-0.008098249,0.94840115,0.9999991,1.3382627e-09,-2.2368347e-10,0.0013346693,2
21847743,0.3194788,-0.0030204037,-0.006355935,0.94756734,0.9999991,1.3382627e-09,-2.2368347e-10,0.0013346693,2
21903743,0.31913406,-0.0029596107,-0.005974042,0.9476862,0.9999991,1.3382627e-09,-2.2368347e-10,0.0013346693,2
21955745,0.3205449,-0.0025983255,-0.0045172377,0.9472191,0.9999991,1.3382627e-09,-2.2368347e-10,0.0013346693,2
22007743,0.32027674,-0.0016760406,-0.0053207604,0.94730765,0.9999991,1.3382627e-09,-2.2368347e-10,0.0013346693,2
22059746,0.32049596,-0.0017653352,-0.0054383157,0.94723266,0.9999991,1.3382627e-09,-2.2368347e-10,0.0013346693,2
22111743,0.32104325,-0.001572314,-0.0051946244,0.94704896,0.9999991,1.3382627e-09,-2.2368347e-10,0.0013346693,2
22163743,0.32461497,-0.002574907,-0.0058097066,0.94582486,0.9999991,1.3382627e-09,-2.2368347e-10,0.0013346693,2
22215788,0.32411277,-0.002633807,-0.0060576075,0.94599545,0.9999991,1.3382627e-09,-2.2368347e-10,0.0013346693,2
22267743,0.32472688,-0.0023060371,-0.0064495676,0.945783,0.9999991,1.3382627e-09,-2.2368347e-10,0.0013346693,2
22319762,0.32530925,-0.0022624389,-0.0059160846,0.9455865,0.9999991,1.3382627e-09,-2.2368347e-10,0.0013346693,2
22372543,0.32567295,-0.0020571782,-0.005276736,0.9454656,0.9999991,1.3382627e-09,-2.2368347e-10,0.0013346693,2
22424543,0.32965747,-0.0028117958,-0.00509252,0.9440827,0.9999991,1.3382627e-09,-2.2368347e-10,0.0013346693,2
22476550,0.32636788,-0.0025433616,-0.0071554133,0.9452123,0.9999991,1.3382627e-09,-2.2368347e-10,0.0013346693,2
22528543,0.3299132,-0.0031362418,-0.0071302885,0.9439792,0.9999991,1.3382627e-09,-2.2368347e-10,0.0013346693,2
22580543,0.329673,-0.0026904738,-0.0072634374,0.9440634,0.9999991,1.3382627e-09,-2.2368347e-10,0.0013346693,2
22632543,0.32883167,-0.0030073435,-0.006782648,0.9443594,0.9999991,1.3382627e-09,-2.2368347e-10,0.0013346693,2
22684543,0.33202583,-0.0024678698,-0.005774887,0.9432494,0.9999991,1.3382627e-09,-2.2368347e-10,0.0013346693,2
22736591,0.3307813,-0.0024633869,-0.0062857927,0.9436833,0.9999991,1.3382627e-09,-2.2368347e-10,0.0013346693,2
22788543,0.33198994,-0.0024080016,-0.006267131,0.9432591,0.9999991,1.3382627e-09,-2.2368347e-10,0.0013346693,2
22840573,0.334568,-0.0024567314,-0.0050634895,0.94235486,0.9999991,1.3382627e-09,-2.2368347e-10,0.0013346693,2
22893357,0.33211187,-0.002771742,-0.007359503,0.94320726,0.9999991,1.3382627e-09,-2.2368347e-10,0.0013346693,2
22945372,0.33432856,-0.0025098475,-0.0062444033,0.9424326,0.9999991,1.3382627e-09,-2.2368347e-10,0.0013346693,2
22997364,0.3354985,-0.0026945134,-0.0068019605,0.9420123,0.9999991,1.3382627e-09,-2.2368347e-10,0.0013346693,2
23049357,0.33460897,-0.0030613085,-0.0060736397,0.94233257,0.9999991,1.3382627e-09,-2.2368347e-10,0.0013346693,2
23101358,0.33771488,-0.0029232376,-0.0066656107,0.9412204,0.9999991,1.3382627e-09,-2.2368347e-10,0.0013346693,2
23153358,0.33500814,-0.0035463206,-0.0066703116,0.94218504,0.9999991,1.3382627e-09,-2.2368347e-10,0.0013346693,2
23205388,0.33776692,-0.0023067014,-0.005363998,0.94121164,0.9999991,1.3382627e-09,-2.2368347e-10,0.0013346693,2
23257405,0.3365092,-0.0033321928,-0.007327038,0.94164586,0.9999991,1.3382627e-09,-2.2368347e-10,0.0013346693,2
23309360,0.33558038,-0.0020000283,-0.007410114,0.94198036,0.9999991,1.3382627e-09,-2.2368347e-10,0.0013346693,2
23361389,0.33859164,-0.0030292694,-0.007907878,0.9408954,0.9999991,1.3382627e-09,-2.2368347e-10,0.0013346693,2
23414143,0.33739728,-0.0032188012,-0.007130694,0.9413299,0.9999991,1.3382627e-09,-2.2368347e-10,0.0013346693,2
23466143,0.33948952,-0.0030719393,-0.0058496837,0.9405867,0.9999991,1.3382627e-09,-2.2368347e-10,0.0013346693,2
23518143,0.34016946,-0.003593971,-0.0062261824,0.94033664,0.9999991,1.3382627e-09,-2.2368347e-10,0.0013346693,2
23570145,0.34030104,-0.0016652364,-0.0062578283,0.94029427,0.9999991,1.3382627e-09,-2.2368347e-10,0.0013346693,2
23622143,0.3444766,-0.0033451824,-0.006184095,0.9387687,0.9999991,1.3382627e-09,-2.2368347e-10,0.0013346693,2
23674143,0.34447524,-0.0023074083,-0.0061927596,0.93877214,0.9999991,1.3382627e-09,-2.2368347e-10,0.0013346693,2
23726143,0.34853044,-0.003507577,-0.006295327,0.9372698,0.9999991,1.3382627e-09,-2.2368347e-10,0.0013346693,2
23778178,0.34840772,-0.0035870478,-0.006554214,0.9373133,0.9999991,1.3382627e-09,-2.2368347e-10,0.0013346693,2
23830143,0.35195923,-0.0037418508,-0.005650753,0.9359908,0.9999991,1.3382627e-09,-2.2368347e-10,0.0013346693,2
23882158,0.35542706,-0.0036264719,-0.0063684867,0.93467534,0.9999991,1.3382627e-09,-2.2368347e-10,0.0013346693,2
23934946,0.3535021,-0.0038178267,-0.0070209824,0.9353996,0.9999991,1.3382627e-09,-2.2368347e-10,0.0013346693,2
23986943,0.35852256,-0.0028068838,-0.0070345774,0.93349034,0.9999991,1.3382627e-09,-2.2368347e-10,0.0013346693,2
24038965,0.3591596,-0.0023100346,-0.0051579596,0.9332591,0.9999991,1.3382627e-09,-2.2368347e-10,0.0013346693,2
24087746,0.3625429,-0.0027710497,-0.005159079,0.9319488,0.9999991,1.3382627e-09,-2.2368347e-10,0.0013346693,2
24139743,0.36673352,-0.002561362,-0.004544304,0.9303115,0.9999991,1.3382627e-09,-2.2368347e-10,0.0013346693,2
24191749,0.3686649,-0.0034087817,-0.007483924,0.929526,0.9999991,1.3382627e-09,-2.2368347e-10,0.0013346693,2
24243743,0.37172288,-0.003552437,-0.008625419,0.92829686,0.9999991,1.3382627e-09,-2.2368347e-10,0.0013346693,2
24295743,0.37293974,-0.003256604,-0.00695659,0.92782384,0.9999991,1.3382627e-09,-2.2368347e-10,0.0013346693,2
24347743,0.37575406,-0.002810895,-0.0036697686,0.9267079,0.9999991,1.3382627e-09,-2.2368347e-10,0.0013346693,2
24399800,0.37717775,-0.0024887817,-0.006018085,0.92611796,0.9999991,1.3382627e-09,-2.2368347e-10,0.0013346693,2
24451743,0.3789649,-0.001559064,-0.006024483,0.9253902,0.9999991,1.3382627e-09,-2.2368347e-10,0.0013346693,2
24503763,0.38427103,-0.003149822,-0.0073225666,0.923186,0.9999991,1.3382627e-09,-2.2368347e-10,0.0013346693,2
24555746,0.3863994,-0.0034621079,-0.006897767,0.9222994,0.9999991,1.3382627e-09,-2.2368347e-10,0.0013346693,2
24607743,0.38913932,-0.0040494404,-0.007770882,0.92113733,0.9999991,1.3382627e-09,-2.2368347e-10,0.0013346693,2
24659743,0.38958862,-0.003449819,-0.0070452685,0.92095566,0.9999991,1.3382627e-09,-2.2368347e-10,0.0013346693,2
24711743,0.39264742,-0.0031694078,-0.0068250573,0.9196583,0.9999991,1.3382627e-09,-2.2368347e-10,0.0013346693,2
24763747,0.39419332,-0.0031087627,-0.0057068085,0.9190046,0.9999991,1.3382627e-09,-2.2368347e-10,0.0013346693,2
24815743,0.3976713,-0.003420973,-0.0056644003,0.91750413,0.9999991,1.3382627e-09,-2.2368347e-10,0.0013346693,2
24867743,0.3987567,-0.0035159928,-0.0047509256,0.9170378,0.9999991,1.3382627e-09,-2.2368347e-10,0.0013346693,2
24919743,0.4040868,-0.003930332,-0.0071965377,0.914684,0.9999991,1.3382627e-09,-2.2368347e-10,0.0013346693,2
24971743,0.40379876,-0.0041686413,-0.008218702,0.9148015,0.9999991,1.3382627e-09,-2.2368347e-10,0.0013346693,2
25023746,0.40717557,-0.003951515,-0.0058314516,0.9133228,0.9999991,1.3382627e-09,-2.2368347e-10,0.0013346693,2
25075743,0.4097967,-0.0042225095,-0.0062393514,0.91214585,0.9999991,1.3382627e-09,-2.2368347e-10,0.0013346693,2
25128543,0.40595677,-0.0037501852,-0.007846185,0.9138509,0.9999991,1.3382627e-09,-2.2368347e-10,0.0013346693,2
25180543,0.40962833,-0.0028589133,-0.005819956,0.91222954,0.9999991,1.3382627e-09,-2.2368347e-10,0.0013346693,2
25232543,0.4111052,-0.004005573,-0.005891904,0.91156006,0.9999991,1.3382627e-09,-2.2368347e-10,0.0013346693,2
25284543,0.41082728,-0.0042427042,-0.0062825168,0.91168165,0.9999991,1.3382627e-09,-2.2368347e-10,0.0013346693,2
25336543,0.4142117,-0.0041797226,-0.0058574704,0.9101522,0.9999991,1.3382627e-09,-2.2368347e-10,0.0013346693,2
25388543,0.4146234,-0.0047927233,-0.0077799163,0.90994734,0.9999991,1.3382627e-09,-2.2368347e-10,0.0013346693,2
25440546,0.4124638,-0.0037717533,-0.0076704444,0.910934,0.9999991,1.3382627e-09,-2.2368347e-10,0.0013346693,2
25492543,0.4176269,-0.0036433628,-0.005495391,0.90859467,0.9999991,1.3382627e-09,-2.2368347e-10,0.0013346693,2
25544552,0.41721892,-0.0038931891,-0.0054268334,0.90878147,0.9999991,1.3382627e-09,-2.2368347e-10,0.0013346693,2
25596543,0.41605005,-0.0036037366,-0.0062283664,0.9093132,0.9999991,1.3382627e-09,-2.2368347e-10,0.0013346693,2
25648543,0.41890863,-0.0036255096,-0.0063952804,0.9079986,0.9999991,1.3382627e-09,-2.2368347e-10,0.0013346693,2
25701376,0.41822615,-0.003887651,-0.005815384,0.9083161,0.9999991,1.3382627e-09,-2.2368347e-10,0.0013346693,2
25753346,0.41929463,-0.004093847,-0.0061215074,0.90782034,0.9999991,1.3382627e-09,-2.2368347e-10,0.0013346693,2
25805364,0.4203284,-0.004581255,-0.006514698,0.90733707,0.9999991,1.3382627e-09,-2.2368347e-10,0.0013346693,2
25857367,0.41926768,-0.0035327768,-0.006843891,0.90783,0.9999991,1.3382627e-09,-2.2368347e-10,0.0013346693,2
25909357,0.42220578,-0.004444075,-0.0069510425,0.90646255,0.9999991,1.3382627e-09,-2.2368347e-10,0.0013346693,2
25961365,0.42282766,-0.003050816,-0.005946607,0.9061855,0.9999991,1.3382627e-09,-2.2368347e-10,0.0013346693,2
26013367,0.42450127,-0.0038149992,-0.006271033,0.9053977,0.9999991,1.3382627e-09,-2.2368347e-10,0.0013346693,2
26065364,0.42601871,-0.0031561533,-0.0047585955,0.9046963,0.9999991,1.3382627e-09,-2.2368347e-10,0.0013346693,2
26117358,0.42704985,-0.0038937225,-0.006508278,0.9041963,0.9999991,1.3382627e-09,-2.2368347e-10,0.0013346693,2
26169373,0.4284421,-0.00420315,-0.0072708637,0.9035303,0.9999991,1.3382627e-09,-2.2368347e-10,0.0013346693,2
26222143,0.42923597,-0.0036785319,-0.005771473,0.90316653,0.9999991,1.3382627e-09,-2.2368347e-10,0.0013346693,2
26274143,0.43479013,-0.0038440442,-0.004544659,0.90051216,0.9999991,1.3382627e-09,-2.2368347e-10,0.0013346693,2
26326148,0.43380752,-0.003446055,-0.0067707878,0.9009736,0.9999991,1.3382627e-09,-2.2368347e-10,0.0013346693,2
26378143,0.43528315,-0.0040253834,-0.0066583036,0.90026003,0.9999991,1.3382627e-09,-2.2368347e-10,0.0013346693,2
26430143,0.4380979,-0.0042196675,-0.005348509,0.89890146,0.9999991,1.3382627e-09,-2.2368347e-10,0.0013346693,2
26482150,0.43752128,-0.005012413,-0.0060170586,0.899174,0.9999991,1.3382627e-09,-2.2368347e-10,0.0013346693,2
26534146,0.44124007,-0.004669325,-0.0050578136,0.8973628,0.9999991,1.3382627e-09,-2.2368347e-10,0.0013346693,2
26586143,0.4411612,-0.0046004155,-0.006400302,0.89739335,0.9999991,1.3382627e-09,-2.2368347e-10,0.0013346693,2
26638147,0.44171137,-0.0045467876,-0.0062414333,0.897124,0.9999991,1.3382627e-09,-2.2368347e-10,0.0013346693,2
26690943,0.44526213,-0.0039428137,-0.0047425833,0.8953791,0.9999991,1.3382627e-09,-2.2368347e-10,0.0013346693,2
26742943,0.44629258,-0.0048986063,-0.005146809,0.89485896,0.9999991,1.3382627e-09,-2.2368347e-10,0.0013346693,2
26794943,0.44728088,-0.0043489966,-0.0056218156,0.8943654,0.9999991,1.3382627e-09,-2.2368347e-10,0.0013346693,2
26846943,0.44955277,-0.0050198915,-0.007305499,0.89320976,0.9999991,1.3382627e-09,-2.2368347e-10,0.0013346693,2
26898943,0.4492947,-0.004837713,-0.006951575,0.89334345,0.9999991,1.3382627e-09,-2.2368347e-10,0.0013346693,2
26950943,0.45080093,-0.004413538,-0.004790672,0.8926008,0.9999991,1.3382627e-09,-2.2368347e-10,0.0013346693,2
27006966,0.45357075,-0.004664384,-0.0039205253,0.8911994,0.9999991,1.3382627e-09,-2.2368347e-10,0.0013346693,2
27058951,0.45104346,-0.004614672,-0.0052294442,0.8924748,0.9999991,1.3382627e-09,-2.2368347e-10,0.0013346693,2
27110943,0.45480993,-0.00470767,-0.005641449,0.8905583,0.9999991,1.3382627e-09,-2.2368347e-10,0.0013346693,2
27162943,0.454997,-0.004877369,-0.0058242423,0.8904606,0.9999991,1.3382627e-09,-2.2368347e-10,0.0013346693,2
27214943,0.45449233,-0.0048605,-0.0054286686,0.89072084,0.9999991,1.3382627e-09,-2.2368347e-10,0.0013346693,2
27266947,0.45509094,-0.0050958027,-0.0059604403,0.8904105,0.9999991,1.3382627e-09,-2.2368347e-10,0.0013346693,2
27319798,0.45353734,-0.003918432,-0.0054427963,0.89121217,0.9999991,1.3382627e-09,-2.2368347e-10,0.0013346693,2
27371777,0.45515576,-0.004141344,-0.004726686,0.89038974,0.9999991,1.3382627e-09,-2.2368347e-10,0.0013346693,2
27423826,0.4553838,-0.0048172176,-0.0046728714,0.89027,0.9999991,1.3382627e-09,-2.2368347e-10,0.0013346693,2
27475777,0.4572056,-0.0045288526,-0.005002312,0.88933545,0.9999991,1.3382627e-09,-2.2368347e-10,0.0013346693,2
27527791,0.4562781,-0.0054197614,-0.007936184,0.88978535,0.9999991,1.3382627e-09,-2.2368347e-10,0.0013346693,2
27579792,0.45628336,-0.004942864,-0.007624165,0.88978815,0.9999991,1.3382627e-09,-2.2368347e-10,0.0013346693,2
27631786,0.4579462,-0.004369056,-0.006107921,0.88894826,0.9999991,1.3382627e-09,-2.2368347e-10,0.0013346693,2
27683796,0.45744646,-0.0045707207,-0.005684567,0.88920724,0.9999991,1.3382627e-09,-2.2368347e-10,0.0013346693,2
27735777,0.45593658,-0.0040195216,-0.0050901156,0.8899887,0.9999991,1.3382627e-09,-2.2368347e-10,0.0013346693,2
27787780,0.46068516,-0.006169387,-0.004017952,0.8875331,0.9999991,1.3382627e-09,-2.2368347e-10,0.0013346693,2
27840543,0.45807183,-0.0070802458,-0.0032862115,0.88888097,0.9999991,1.3382627e-09,-2.2368347e-10,0.0013346693,2
27892543,0.45513633,-0.005915867,-0.0062260395,0.8903803,0.9999991,1.3382627e-09,-2.2368347e-10,0.0013346693,2
27944604,0.4577326,-0.0043821954,-0.009434557,0.889029,0.9999991,1.3382627e-09,-2.2368347e-10,0.0013346693,2
27996543,0.45120245,-0.0035714954,-0.009205692,0.892367,0.9999991,1.3382627e-09,-2.2368347e-10,0.0013346693,2
28048569,0.45466226,-0.0028470713,-0.0056851055,0.8906413,0.9999991,1.3382627e-09,-2.2368347e-10,0.0013346693,2
28100543,0.45863658,-0.0053812745,-0.0030059083,0.8886026,0.9999991,1.3382627e-09,-2.2368347e-10,0.0013346693,2
28152543,0.45587695,-0.005055283,-0.0041836444,0.89001864,0.9999991,1.3382627e-09,-2.2368347e-10,0.0013346693,2
28204543,0.45830858,-0.0048968806,-0.007161898,0.8887508,0.9999991,1.3382627e-09,-2.2368347e-10,0.0013346693,2
28256543,0.4556743,-0.0043431995,-0.008649709,0.8900939,0.9999991,1.3382627e-09,-2.2368347e-10,0.0013346693,2
28312552,0.45575306,-0.003722341,-0.006159268,0.89007723,0.9999991,1.3382627e-09,-2.2368347e-10,0.0013346693,2
28364586,0.46025774,-0.0046893214,-0.0034974338,0.8877661,0.9999991,1.3382627e-09,-2.2368347e-10,0.0013346693,2
28417343,0.45886454,-0.004225066,-0.0017118355,0.88849455,0.9999991,1.3382627e-09,-2.2368347e-10,0.0013346693,2
28469346,0.4588773,-0.005145577,-0.0062196995,0.888463,0.9999991,1.3382627e-09,-2.2368347e-10,0.0013346693,2
28521345,0.4588113,-0.0041713626,-0.0070827254,0.8884957,0.9999991,1.3382627e-09,-2.2368347e-10,0.0013346693,2
28573343,0.46123382,-0.006382105,-0.007729814,0.887222,0.9999991,1.3382627e-09,-2.2368347e-10,0.0013346693,2
28626143,0.45922336,-0.0055755316,-0.0041294037,0.88829374,0.9999991,1.3382627e-09,-2.2368347e-10,0.0013346693,2
28678143,0.46375245,-0.005321496,-0.0029298298,0.885944,0.9999991,1.3382627e-09,-2.2368347e-10,0.0013346693,2
28730143,0.46325892,-0.0040704207,-0.004900495,0.88620013,0.9999991,1.3382627e-09,-2.2368347e-10,0.0013346693,2
28782143,0.46219838,-0.0044419044,-0.006994435,0.8867379,0.9999991,1.3382627e-09,-2.2368347e-10,0.0013346693,2
28834146,0.46660113,-0.0045757936,-0.005618834,0.88443816,0.9999991,1.3382627e-09,-2.2368347e-10,0.0013346693,2
28886146,0.46733078,-0.00542315,-0.0047916784,0.884053,0.9999991,1.3382627e-09,-2.2368347e-10,0.0013346693,2
28938143,0.4687012,-0.005663317,-0.0043874695,0.8833277,0.9999991,1.3382627e-09,-2.2368347e-10,0.0013346693,2
28990154,0.4696406,-0.005045814,-0.005274428,0.8828276,0.9999991,1.3382627e-09,-2.2368347e-10,0.0013346693,2
29042143,0.469695,-0.005243262,-0.0057510156,0.8827945,0.9999991,1.3382627e-09,-2.2368347e-10,0.0013346693,2
29094143,0.47158635,-0.0049145133,-0.004923197,0.8817925,0.9999991,1.3382627e-09,-2.2368347e-10,0.0013346693,2
29146154,0.473234,-0.0053640283,-0.003724569,0.8809126,0.9999991,1.3382627e-09,-2.2368347e-10,0.0013346693,2
29198146,0.47381872,-0.0055682356,-0.0041410695,0.88059515,0.9999991,1.3382627e-09,-2.2368347e-10,0.0013346693,2
29250143,0.47374526,-0.0057569463,-0.0064079254,0.8806198,0.9999991,1.3382627e-09,-2.2368347e-10,0.0013346693,2
29302143,0.47327474,-0.0055418056,-0.0059046843,0.88087773,0.9999991,1.3382627e-09,-2.2368347e-10,0.0013346693,2
29354143,0.47511148,-0.0049463226,-0.0038804563,0.8799032,0.9999991,1.3382627e-09,-2.2368347e-10,0.0013346693,2
29406191,0.47481948,-0.0060565462,-0.0052076033,0.88004696,0.9999991,1.3382627e-09,-2.2368347e-10,0.0013346693,2
29458143,0.47540495,-0.0053443587,-0.004300923,0.8797403,0.9999991,1.3382627e-09,-2.2368347e-10,0.0013346693,2
29510946,0.47724256,-0.0051315706,-0.00403879,0.87874734,0.9999991,1.3382627e-09,-2.2368347e-10,0.0013346693,2
29562957,0.4738662,-0.005700199,-0.0054113986,0.88056177,0.9999991,1.3382627e-09,-2.2368347e-10,0.0013346693,2
29614967,0.4759738,-0.0050239163,-0.0055606365,0.8794276,0.9999991,1.3382627e-09,-2.2368347e-10,0.0013346693,2
29666952,0.4767586,-0.005517603,-0.004758696,0.8790041,0.9999991,1.3382627e-09,-2.2368347e-10,0.0013346693,2
29718955,0.47590023,-0.005597418,-0.004490856,0.8794701,0.9999991,1.3382627e-09,-2.2368347e-10,0.0013346693,2
29770946,0.4773708,-0.0051311287,-0.0043363683,0.87867624,0.9999991,1.3382627e-09,-2.2368347e-10,0.0013346693,2
29822964,0.47620338,-0.0057260743,-0.006297544,0.879294,0.9999991,1.3382627e-09,-2.2368347e-10,0.0013346693,2
29874961,0.47511953,-0.005220275,-0.005803759,0.87988675,0.9999991,1.3382627e-09,-2.2368347e-10,0.0013346693,2
29926995,0.47953865,-0.004903161,-0.0039748554,0.87749815,0.9999991,1.3382627e-09,-2.2368347e-10,0.0013346693,2
29978958,0.47776437,-0.005596483,-0.0042243013,0.87846005,0.9999991,1.3382627e-09,-2.2368347e-10,0.0013346693,2
30030991,0.47925845,-0.0046536056,-0.004487986,0.87765014,0.9999991,1.3382627e-09,-2.2368347e-10,0.0013346693,2
30079743,0.4791505,-0.0048831603,-0.0055256533,0.8777018,0.9999991,1.3382627e-09,-2.2368347e-10,0.0013346693,2
30135743,0.4777977,-0.0048608743,-0.0051633934,0.8784414,0.9999991,1.3382627e-09,-2.2368347e-10,0.0013346693,2
30187743,0.4801943,-0.0047289515,-0.004583556,0.8771374,0.9999991,1.3382627e-09,-2.2368347e-10,0.0013346693,2
30239758,0.48006424,-0.0055278386,-0.0041007535,0.8772063,0.9999991,1.3382627e-09,-2.2368347e-10,0.0013346693,2
30291743,0.4817182,-0.005092974,-0.0043913624,0.87630045,0.9999991,1.3382627e-09,-2.2368347e-10,0.0013346693,2
30343743,0.48199466,-0.005438186,-0.004850669,0.87614393,0.9999991,1.3382627e-09,-2.2368347e-10,0.0013346693,2
30395743,0.4808003,-0.0052056755,-0.005194349,0.8767993,0.9999991,1.3382627e-09,-2.2368347e-10,0.0013346693,2
30447778,0.48333675,-0.004946125,-0.003676113,0.8754128,0.9999991,1.3382627e-09,-2.2368347e-10,0.0013346693,2
30499743,0.48301768,-0.005057414,-0.0034416162,0.8755893,0.9999991,1.3382627e-09,-2.2368347e-10,0.0013346693,2
30551772,0.48321265,-0.0052170455,-0.004011012,0.8754784,0.9999991,1.3382627e-09,-2.2368347e-10,0.0013346693,2
30604543,0.48295432,-0.005757671,-0.0055705155,0.8756089,0.9999991,1.3382627e-09,-2.2368347e-10,0.0013346693,2
30656550,0.48328373,-0.0060759303,-0.005459044,0.8754257,0.9999991,1.3382627e-09,-2.2368347e-10,0.0013346693,2
30708543,0.48440853,-0.006142955,-0.004619039,0.87480825,0.9999991,1.3382627e-09,-2.2368347e-10,0.0013346693,2
30760543,0.48413613,-0.0059852055,-0.0044625113,0.87496084,0.9999991,1.3382627e-09,-2.2368347e-10,0.0013346693,2
30812543,0.48416916,-0.0056332652,-0.0046859053,0.87494385,0.9999991,1.3382627e-09,-2.2368347e-10,0.0013346693,2
30864543,0.4853054,-0.0052037537,-0.0037747878,0.87432104,0.9999991,1.3382627e-09,-2.2368347e-10,0.0013346693,2
30916543,0.48507285,-0.006274608,-0.005180052,0.87443596,0.9999991,1.3382627e-09,-2.2368347e-10,0.0013346693,2
30968588,0.48522738,-0.006308661,-0.004408242,0.87435424,0.9999991,1.3382627e-09,-2.2368347e-10,0.0013346693,2
31020543,0.48732525,-0.0059933034,-0.0041928114,0.87318987,0.9999991,1.3382627e-09,-2.2368347e-10,0.0013346693,2
31072569,0.48462853,-0.006290508,-0.004911464,0.8746837,0.9999991,1.3382627e-09,-2.2368347e-10,0.0013346693,2
31125383,0.4846398,-0.0059993006,-0.00391675,0.8746846,0.9999991,1.3382627e-09,-2.2368347e-10,0.0013346693,2
31177343,0.4868044,-0.005594819,-0.0019090581,0.87349105,0.9999991,1.3382627e-09,-2.2368347e-10,0.0013346693,2
31229343,0.48764157,-0.0058054323,-0.0038919095,0.87301594,0.9999991,1.3382627e-09,-2.2368347e-10,0.0013346693,2
31281343,0.48678353,-0.006246412,-0.00606735,0.8734792,0.9999991,1.3382627e-09,-2.2368347e-10,0.0013346693,2
31333343,0.48662046,-0.0062314663,-0.006286627,0.87356865,0.9999991,1.3382627e-09,-2.2368347e-10,0.0013346693,2
31385391,0.4871399,-0.0062694475,-0.0051524667,0.87328625,0.9999991,1.3382627e-09,-2.2368347e-10,0.0013346693,2
31437368,0.48706177,-0.0055164974,-0.0034886394,0.87334317,0.9999991,1.3382627e-09,-2.2368347e-10,0.0013346693,2
31489395,0.48783654,-0.00551478,-0.0037251282,0.8729097,0.9999991,1.3382627e-09,-2.2368347e-10,0.0013346693,2
31541351,0.48607516,-0.005171756,-0.0049739345,0.87388754,0.9999991,1.3382627e-09,-2.2368347e-10,0.0013346693,2
31593385,0.4858322,-0.0059145656,-0.0051700557,0.8740168,0.9999991,1.3382627e-09,-2.2368347e-10,0.0013346693,2
31646177,0.48808572,-0.0057373475,-0.0039643105,0.8727679,0.9999991,1.3382627e-09,-2.2368347e-10,0.0013346693,2
31698177,0.48615918,-0.005969982,-0.0045230254,0.87383825,0.9999991,1.3382627e-09,-2.2368347e-10,0.0013346693,2
31750192,0.48509526,-0.0053360015,-0.0047521167,0.8744321,0.9999991,1.3382627e-09,-2.2368347e-10,0.0013346693,2
31802181,0.48499027,-0.004582147,-0.004037511,0.8744982,0.9999991,1.3382627e-09,-2.2368347e-10,0.0013346693,2
31854196,0.48433524,-0.0051572043,-0.003817969,0.87485904,0.9999991,1.3382627e-09,-2.2368347e-10,0.0013346693,2
31910143,0.48540166,-0.0051832865,-0.0030524107,0.87427056,0.9999991,1.3382627e-09,-2.2368347e-10,0.0013346693,2
31962149,0.48522112,-0.00586852,-0.0048357504,0.8743585,0.9999991,1.3382627e-09,-2.2368347e-10,0.0013346693,2
32014143,0.4837768,-0.005745344,-0.005028699,0.87515813,0.9999991,1.3382627e-09,-2.2368347e-10,0.0013346693,2
32066143,0.48408914,-0.005270417,-0.0050765616,0.8749881,0.9999991,1.3382627e-09,-2.2368347e-10,0.0013346693,2
32118185,0.48384395,-0.005166869,-0.0037818071,0.87513083,0.9999991,1.3382627e-09,-2.2368347e-10,0.0013346693,2
32170943,0.48583227,-0.0051847813,-0.0035620183,0.87402946,0.9999991,1.3382627e-09,-2.2368347e-10,0.0013346693,2
32222943,0.4851804,-0.005896751,-0.0042908285,0.87438375,0.9999991,1.3382627e-09,-2.2368347e-10,0.0013346693,2
32274943,0.4842702,-0.0053951573,-0.005304296,0.8748859,0.9999991,1.3382627e-09,-2.2368347e-10,0.0013346693,2
32326943,0.48711488,-0.0054791654,-0.0042064325,0.8733106,0.9999991,1.3382627e-09,-2.2368347e-10,0.0013346693,2
32378946,0.48571834,-0.005141787,-0.003722634,0.87409246,0.9999991,1.3382627e-09,-2.2368347e-10,0.0013346693,2
32430943,0.486519,-0.005226169,-0.0044953516,0.87364286,0.9999991,1.3382627e-09,-2.2368347e-10,0.0013346693,2
32482943,0.4866319,-0.005531298,-0.0047654524,0.87357664,0.9999991,1.3382627e-09,-2.2368347e-10,0.0013346693,2
32534943,0.48574424,-0.0055814353,-0.0054499353,0.87406623,0.9999991,1.3382627e-09,-2.2368347e-10,0.0013346693,2
32586943,0.48795795,-0.005873115,-0.0043300646,0.87283665,0.9999991,1.3382627e-09,-2.2368347e-10,0.0013346693,2
32638943,0.48834634,-0.0049723824,-0.0032345173,0.8726298,0.9999991,1.3382627e-09,-2.2368347e-10,0.0013346693,2
32691743,0.48806036,-0.0041508526,-0.0031166007,0.87279445,0.9999991,1.3382627e-09,-2.2368347e-10,0.0013346693,2
32743743,0.4876269,-0.0032054086,-0.0034507643,0.8730395,0.9999991,1.3382627e-09,-2.2368347e-10,0.0013346693,2
32795746,0.4863793,-0.0034202433,-0.0038702718,0.8737325,0.9999991,1.3382627e-09,-2.2368347e-10,0.0013346693,2
32847746,0.489069,-0.0052926005,-0.0038231814,0.8722207,0.9999991,1.3382627e-09,-2.2368347e-10,0.0013346693,2
32899752,0.49003112,-0.0059499424,-0.004841992,0.87167114,0.9999991,1.3382627e-09,-2.2368347e-10,0.0013346693,2
32951743,0.4908793,-0.006552572,-0.0045999,0.8711908,0.9999991,1.3382627e-09,-2.2368347e-10,0.0013346693,2
33003746,0.489655,-0.0059408513,-0.006042384,0.87187517,0.9999991,1.3382627e-09,-2.2368347e-10,0.0013346693,2
33055746,0.488165,-0.0046752268,-0.004006739,0.8727296,0.9999991,1.3382627e-09,-2.2368347e-10,0.0013346693,2
33107743,0.49048525,-0.004022481,-0.0018576826,0.87143826,0.9999991,1.3382627e-09,-2.2368347e-10,0.0013346693,2
33159743,0.4923448,-0.004702179,-0.0018104312,0.8703857,0.9999991,1.3382627e-09,-2.2368347e-10,0.0013346693,2
33211743,0.49198788,-0.0059922496,-0.0044180425,0.87057024,0.9999991,1.3382627e-09,-2.2368347e-10,0.0013346693,2
33263743,0.49247128,-0.006535244,-0.006483639,0.8702801,0.9999991,1.3382627e-09,-2.2368347e-10,0.0013346693,2
33316543,0.4925609,-0.0060544177,-0.0055968366,0.870239,0.9999991,1.3382627e-09,-2.2368347e-10,0.0013346693,2
33368543,0.4928801,-0.005082052,-0.0031629878,0.8700767,0.9999991,1.3382627e-09,-2.2368347e-10,0.0013346693,2
33420546,0.4942784,-0.0047419625,-0.0014283389,0.8692896,0.9999991,1.3382627e-09,-2.2368347e-10,0.0013346693,2
33472543,0.49474645,-0.0050923927,-0.0027716146,0.869018,0.9999991,1.3382627e-09,-2.2368347e-10,0.0013346693,2
33524545,0.4957242,-0.006106422,-0.004264858,0.8684481,0.9999991,1.3382627e-09,-2.2368347e-10,0.0013346693,2
33576543,0.4944509,-0.00673135,-0.006092179,0.86915827,0.9999991,1.3382627e-09,-2.2368347e-10,0.0013346693,2
33628546,0.4953332,-0.006351817,-0.0045333654,0.868668,0.9999991,1.3382627e-09,-2.2368347e-10,0.0013346693,2
33680543,0.4927693,-0.0062587964,-0.005046429,0.87012285,0.9999991,1.3382627e-09,-2.2368347e-10,0.0013346693,2
33732552,0.49246344,-0.0048345253,-0.0034397852,0.870313,0.9999991,1.3382627e-09,-2.2368347e-10,0.0013346693,2
33784543,0.4949684,-0.004842154,-0.003067843,0.868892,0.9999991,1.3382627e-09,-2.2368347e-10,0.0013346693,2
33836548,0.49370757,-0.0052226004,-0.0028348453,0.8696077,0.9999991,1.3382627e-09,-2.2368347e-10,0.0013346693,2
33889390,0.4955981,-0.0051528593,-0.0030327607,0.86853147,0.9999991,1.3382627e-09,-2.2368347e-10,0.0013346693,2
33941389,0.49291787,-0.0058067483,-0.0051141074,0.8700415,0.9999991,1.3382627e-09,-2.2368347e-10,0.0013346693,2
33993382,0.49340245,-0.005351316,-0.0049222247,0.8697708,0.9999991,1.3382627e-09,-2.2368347e-10,0.0013346693,2
34045394,0.4942773,-0.0054209563,-0.0039921817,0.8692783,0.9999991,1.3382627e-09,-2.2368347e-10,0.0013346693,2
34097383,0.49296263,-0.0050615906,-0.0031649722,0.8700301,0.9999991,1.3382627e-09,-2.2368347e-10,0.0013346693,2
34149382,0.4951482,-0.004706082,-0.0027973726,0.86879134,0.9999991,1.3382627e-09,-2.2368347e-10,0.0013346693,2
34201386,0.49319544,-0.004893594,-0.003642185,0.8698972,0.9999991,1.3382627e-09,-2.2368347e-10,0.0013346693,2
34253383,0.4950579,-0.0045347023,-0.0037328047,0.8688402,0.9999991,1.3382627e-09,-2.2368347e-10,0.0013346693,2
34305401,0.4950437,-0.0051249363,-0.0038758211,0.8688444,0.9999991,1.3382627e-09,-2.2368347e-10,0.0013346693,2
34357384,0.4945336,-0.0052334797,-0.004493075,0.86913127,0.9999991,1.3382627e-09,-2.2368347e-10,0.0013346693,2
34409386,0.49573126,-0.005387641,-0.0041191466,0.86844945,0.9999991,1.3382627e-09,-2.2368347e-10,0.0013346693,2
34458146,0.4958596,-0.0052964794,-0.0028592024,0.8683819,0.9999991,1.3382627e-09,-2.2368347e-10,0.0013346693,2
34514143,0.49608248,-0.005254079,-0.0026314093,0.8682555,0.9999991,1.3382627e-09,-2.2368347e-10,0.0013346693,2
34566143,0.49576154,-0.0050351336,-0.0041842256,0.868434,0.9999991,1.3382627e-09,-2.2368347e-10,0.0013346693,2
34618143,0.4957104,-0.004786669,-0.0041035516,0.86846507,0.9999991,1.3382627e-09,-2.2368347e-10,0.0013346693,2
34670150,0.49585742,-0.004771993,-0.003557312,0.8683836,0.9999991,1.3382627e-09,-2.2368347e-10,0.0013346693,2
34722143,0.49659303,-0.0047236993,-0.0030076073,0.8679656,0.9999991,1.3382627e-09,-2.2368347e-10,0.0013346693,2
34774143,0.49629188,-0.0047812345,-0.0038205378,0.86813414,0.9999991,1.3382627e-09,-2.2368347e-10,0.0013346693,2
34826150,0.49645784,-0.0046657124,-0.0038926492,0.86803955,0.9999991,1.3382627e-09,-2.2368347e-10,0.0013346693,2
34878943,0.49659634,-0.0047305627,-0.0038819006,0.8679601,0.9999991,1.3382627e-09,-2.2368347e-10,0.0013346693,2
34930943,0.49737528,-0.004715088,-0.0034050902,0.8675161,0.9999991,1.3382627e-09,-2.2368347e-10,0.0013346693,2
34982946,0.49725786,-0.004837866,-0.0036983113,0.8675815,0.9999991,1.3382627e-09,-2.2368347e-10,0.0013346693,2
35034943,0.49752173,-0.00476309,-0.00387589,0.86742985,0.9999991,1.3382627e-09,-2.2368347e-10,0.0013346693,2
35086945,0.49779874,-0.004693496,-0.0037445456,0.8672719,0.9999991,1.3382627e-09,-2.2368347e-10,0.0013346693,2
35138947,0.4981362,-0.0047707865,-0.0034112034,0.86707896,0.9999991,1.3382627e-09,-2.2368347e-10,0.0013346693,2
35190943,0.4983852,-0.0049321116,-0.003575728,0.86693436,0.9999991,1.3382627e-09,-2.2368347e-10,0.0013346693,2
35242943,0.49860528,-0.0050452906,-0.003901728,0.8668057,0.9999991,1.3382627e-09,-2.2368347e-10,0.0013346693,2
35294943,0.49834228,-0.004993902,-0.0039784582,0.8669569,0.9999991,1.3382627e-09,-2.2368347e-10,0.0013346693,2
35346943,0.49879476,-0.004919165,-0.0043714414,0.86669517,0.9999991,1.3382627e-09,-2.2368347e-10,0.0013346693,2
35398943,0.49864095,-0.0047812695,-0.00399197,0.86678624,0.9999991,1.3382627e-09,-2.2368347e-10,0.0013346693,2
35450943,0.49948737,-0.004832448,-0.0036292982,0.8663001,0.9999991,1.3382627e-09,-2.2368347e-10,0.0013346693,2
35502946,0.4998817,-0.00503846,-0.0030968974,0.8660736,0.9999991,1.3382627e-09,-2.2368347e-10,0.0013346693,2
35555746,0.5000225,-0.005349806,-0.0034758628,0.865989,0.9999991,1.3382627e-09,-2.2368347e-10,0.0013346693,2
35608632,0.50008243,-0.0054389313,-0.0036886737,0.86595285,0.9999991,1.3382627e-09,-2.2368347e-10,0.0013346693,2
35660577,0.5003149,-0.0054543437,-0.0039818487,0.86581725,0.9999991,1.3382627e-09,-2.2368347e-10,0.0013346693,2
35712606,0.50037014,-0.005284799,-0.0036706424,0.8657877,0.9999991,1.3382627e-09,-2.2368347e-10,0.0013346693,2
35764592,0.500492,-0.0051923417,-0.0038630567,0.865717,0.9999991,1.3382627e-09,-2.2368347e-10,0.0013346693,2
35816577,0.5010067,-0.0052463748,-0.0036564122,0.8654198,0.9999991,1.3382627e-09,-2.2368347e-10,0.0013346693,2
35868577,0.50112545,-0.0054502003,-0.0036644568,0.8653497,0.9999991,1.3382627e-09,-2.2368347e-10,0.0013346693,2
35920600,0.50154686,-0.005694683,-0.003720386,0.8651038,0.9999991,1.3382627e-09,-2.2368347e-10,0.0013346693,2
35972577,0.5015486,-0.005802488,-0.0040684654,0.86510056,0.9999991,1.3382627e-09,-2.2368347e-10,0.0013346693,2
36024603,0.5017423,-0.0056942618,-0.0039427266,0.8649894,0.9999991,1.3382627e-09,-2.2368347e-10,0.0013346693,2
36076590,0.50182766,-0.0056301076,-0.003939109,0.8649404,0.9999991,1.3382627e-09,-2.2368347e-10,0.0013346693,2
36128589,0.50224584,-0.0055469847,-0.0037975712,0.8646987,0.9999991,1.3382627e-09,-2.2368347e-10,0.0013346693,2
36180603,0.50228053,-0.005732634,-0.0038408895,0.8646772,0.9999991,1.3382627e-09,-2.2368347e-10,0.0013346693,2
36232577,0.50269616,-0.0059016272,-0.0039799856,0.8644339,0.9999991,1.3382627e-09,-2.2368347e-10,0.0013346693,2
36284596,0.50272197,-0.0060617523,-0.0041678837,0.8644169,0.9999991,1.3382627e-09,-2.2368347e-10,0.0013346693,2
36336577,0.502844,-0.006039793,-0.0042160754,0.8643458,0.9999991,1.3382627e-09,-2.2368347e-10,0.0013346693,2
36388577,0.5030847,-0.00594606,-0.00395056,0.8642077,0.9999991,1.3382627e-09,-2.2368347e-10,0.0013346693,2
36440598,0.50337094,-0.005871185,-0.003934798,0.8640415,0.9999991,1.3382627e-09,-2.2368347e-10,0.0013346693,2
36492577,0.50349975,-0.005884708,-0.0037956857,0.8639671,0.9999991,1.3382627e-09,-2.2368347e-10,0.0013346693,2
36544577,0.50368017,-0.0060120802,-0.00405234,0.86385983,0.9999991,1.3382627e-09,-2.2368347e-10,0.0013346693,2
36596625,0.5039002,-0.0061512548,-0.0040921043,0.86373025,0.9999991,1.3382627e-09,-2.2368347e-10,0.0013346693,2
36648577,0.5039772,-0.0061652157,-0.004284477,0.8636845,0.9999991,1.3382627e-09,-2.2368347e-10,0.0013346693,2
36701343,0.50421613,-0.0060991934,-0.0039684805,0.8635469,0.9999991,1.3382627e-09,-2.2368347e-10,0.0013346693,2
36753343,0.504445,-0.0060517574,-0.004040619,0.86341316,0.9999991,1.3382627e-09,-2.2368347e-10,0.0013346693,2
36805396,0.5044891,-0.0060739038,-0.0039087753,0.8633878,0.9999991,1.3382627e-09,-2.2368347e-10,0.0013346693,2
36857381,0.504711,-0.0061613927,-0.004172424,0.86325634,0.9999991,1.3382627e-09,-2.2368347e-10,0.0013346693,2
36909343,0.5048588,-0.0062384675,-0.0041446965,0.86316955,0.9999991,1.3382627e-09,-2.2368347e-10,0.0013346693,2
36961343,0.50491935,-0.006341049,-0.0043601,0.86313236,0.9999991,1.3382627e-09,-2.2368347e-10,0.0013346693,2
37013343,0.5053365,-0.006259458,-0.004054865,0.86289024,0.9999991,1.3382627e-09,-2.2368347e-10,0.0013346693,2
37065383,0.5053167,-0.006226677,-0.004032187,0.86290216,0.9999991,1.3382627e-09,-2.2368347e-10,0.0013346693,2
37117388,0.50565857,-0.0061967396,-0.003945553,0.8627024,0.9999991,1.3382627e-09,-2.2368347e-10,0.0013346693,2
37170143,0.50576615,-0.0062684305,-0.004126938,0.8626381,0.9999991,1.3382627e-09,-2.2368347e-10,0.0013346693,2
37222143,0.50602436,-0.006282527,-0.004090391,0.8624866,0.9999991,1.3382627e-09,-2.2368347e-10,0.0013346693,2
37274143,0.5061702,-0.0062821344,-0.004049607,0.86240125,0.9999991,1.3382627e-09,-2.2368347e-10,0.0013346693,2
37326146,0.50643915,-0.006225227,-0.0040044854,0.86224395,0.9999991,1.3382627e-09,-2.2368347e-10,0.0013346693,2
37378143,0.5064009,-0.006211317,-0.003946613,0.8622668,0.9999991,1.3382627e-09,-2.2368347e-10,0.0013346693,2
37430152,0.50660986,-0.0062654354,-0.0041406197,0.86214274,0.9999991,1.3382627e-09,-2.2368347e-10,0.0013346693,2
37482143,0.50662816,-0.0063971975,-0.004252663,0.8621305,0.9999991,1.3382627e-09,-2.2368347e-10,0.0013346693,2
37534143,0.5068682,-0.0064733876,-0.0044303704,0.8619878,0.9999991,1.3382627e-09,-2.2368347e-10,0.0013346693,2
37586181,0.5070073,-0.006372933,-0.0041594617,0.8619082,0.9999991,1.3382627e-09,-2.2368347e-10,0.0013346693,2
37638187,0.50717,-0.0062540025,-0.0040253,0.861814,0.9999991,1.3382627e-09,-2.2368347e-10,0.0013346693,2
37690143,0.50748456,-0.006146361,-0.0038719806,0.86163026,0.9999991,1.3382627e-09,-2.2368347e-10,0.0013346693,2
37742943,0.5076029,-0.006097865,-0.0039882814,0.8615603,0.9999991,1.3382627e-09,-2.2368347e-10,0.0013346693,2
37794946,0.50765014,-0.006128471,-0.0038979342,0.8615328,0.9999991,1.3382627e-09,-2.2368347e-10,0.0013346693,2
37846943,0.5079158,-0.0061999923,-0.0040797223,0.8613748,0.9999991,1.3382627e-09,-2.2368347e-10,0.0013346693,2
37898943,0.50799596,-0.0062246756,-0.003971137,0.8613278,0.9999991,1.3382627e-09,-2.2368347e-10,0.0013346693,2
37950943,0.5081658,-0.0061945287,-0.00404628,0.8612275,0.9999991,1.3382627e-09,-2.2368347e-10,0.0013346693,2
38002943,0.5082968,-0.0061363457,-0.0038427038,0.8611515,0.9999991,1.3382627e-09,-2.2368347e-10,0.0013346693,2
38054943,0.50832474,-0.0061082956,-0.004087842,0.86113423,0.9999991,1.3382627e-09,-2.2368347e-10,0.0013346693,2
38106943,0.5086203,-0.0060831252,-0.0038851113,0.86096066,0.9999991,1.3382627e-09,-2.2368347e-10,0.0013346693,2
38158980,0.5086425,-0.0061089518,-0.0038766149,0.86094743,0.9999991,1.3382627e-09,-2.2368347e-10,0.0013346693,2
38210943,0.5089946,-0.0061284835,-0.0037944966,0.8607396,0.9999991,1.3382627e-09,-2.2368347e-10,0.0013346693,2
38262963,0.50893515,-0.00611537,-0.0040098866,0.86077374,0.9999991,1.3382627e-09,-2.2368347e-10,0.0013346693,2
38315743,0.5091125,-0.006042644,-0.003854089,0.8606702,0.9999991,1.3382627e-09,-2.2368347e-10,0.0013346693,2
38367743,0.50920844,-0.0059857466,-0.0038663277,0.86061376,0.9999991,1.3382627e-09,-2.2368347e-10,0.0013346693,2
38419743,0.5093412,-0.005939142,-0.0038179294,0.86053574,0.9999991,1.3382627e-09,-2.2368347e-10,0.0013346693,2
38471743,0.5093468,-0.005950674,-0.0038710441,0.86053205,0.9999991,1.3382627e-09,-2.2368347e-10,0.0013346693,2
38523743,0.50968206,-0.0059321662,-0.0038187609,0.860334,0.9999991,1.3382627e-09,-2.2368347e-10,0.0013346693,2
38575743,0.50970125,-0.0059039746,-0.0037284766,0.86032313,0.9999991,1.3382627e-09,-2.2368347e-10,0.0013346693,2
38627743,0.50996673,-0.0058260765,-0.003741871,0.8601663,0.9999991,1.3382627e-09,-2.2368347e-10,0.0013346693,2
38679788,0.50993896,-0.005747054,-0.0036993304,0.8601835,0.9999991,1.3382627e-09,-2.2368347e-10,0.0013346693,2
38731743,0.5102313,-0.0056598675,-0.0037032117,0.86001074,0.9999991,1.3382627e-09,-2.2368347e-10,0.0013346693,2
38783759,0.5102083,-0.005606116,-0.0035453697,0.8600253,0.9999991,1.3382627e-09,-2.2368347e-10,0.0013346693,2
38836543,0.51046956,-0.005663128,-0.0036997877,0.85986924,0.9999991,1.3382627e-09,-2.2368347e-10,0.0013346693,2
38886149,0.5105306,-0.0056829727,-0.0036773458,0.85983294,0.9999991,1.3382627e-09,-2.2368347e-10,0.0013346693,2
38938145,0.5107152,-0.005672638,-0.003820913,0.85972285,0.9999991,1.3382627e-09,-2.2368347e-10,0.0013346693,2
38990146,0.51083213,-0.0055810874,-0.003604037,0.8596548,0.9999991,1.3382627e-09,-2.2368347e-10,0.0013346693,2
39042145,0.51096505,-0.005491258,-0.0036344696,0.85957634,0.9999991,1.3382627e-09,-2.2368347e-10,0.0013346693,2
39094143,0.51108986,-0.005429676,-0.0034731142,0.8595031,0.9999991,1.3382627e-09,-2.2368347e-10,0.0013346693,2
39146143,0.51127225,-0.0054182173,-0.0036753607,0.85939395,0.9999991,1.3382627e-09,-2.2368347e-10,0.0013346693,2
39198143,0.5113738,-0.005360455,-0.0035243412,0.85933447,0.9999991,1.3382627e-09,-2.2368347e-10,0.0013346693,2
39250146,0.511543,-0.0053261514,-0.0036385283,0.8592335,0.9999991,1.3382627e-09,-2.2368347e-10,0.0013346693,2
39302143,0.51167554,-0.0052603967,-0.0034233348,0.85915583,0.9999991,1.3382627e-09,-2.2368347e-10,0.0013346693,2
39354143,0.5117297,-0.005190461,-0.003579556,0.85912335,0.9999991,1.3382627e-09,-2.2368347e-10,0.0013346693,2
39406143,0.5119381,-0.005133001,-0.003455366,0.85900015,0.9999991,1.3382627e-09,-2.2368347e-10,0.0013346693,2
39458143,0.5119345,-0.0050955503,-0.0035464836,0.85900205,0.9999991,1.3382627e-09,-2.2368347e-10,0.0013346693,2
39510143,0.5122243,-0.0050552697,-0.003422873,0.8588301,0.9999991,1.3382627e-09,-2.2368347e-10,0.0013346693,2
39562143,0.51221555,-0.005050819,-0.0034774723,0.85883504,0.9999991,1.3382627e-09,-2.2368347e-10,0.0013346693,2
39614153,0.51247954,-0.005018882,-0.003419131,0.858678,0.9999991,1.3382627e-09,-2.2368347e-10,0.0013346693,2
39666145,0.5124756,-0.004980883,-0.0034963149,0.8586803,0.9999991,1.3382627e-09,-2.2368347e-10,0.0013346693,2
39718943,0.5127349,-0.0049185096,-0.003428979,0.858526,0.9999991,1.3382627e-09,-2.2368347e-10,0.0013346693,2
39770943,0.5127071,-0.00487173,-0.003401117,0.85854316,0.9999991,1.3382627e-09,-2.2368347e-10,0.0013346693,2
39822969,0.51299834,-0.004833316,-0.0033951602,0.85836935,0.9999991,1.3382627e-09,-2.2368347e-10,0.0013346693,2
