timestamp,timestamp_sample,xyz[0],xyz[1],xyz[2]
6695863,6695768,-0.009543902,-0.008372387,0.010144803
6717633,6717405,-0.008432987,-0.00273865,-0.047699496
6739045,6738944,-0.13995485,-0.016417973,-0.07630517
6760000,6759789,-0.17214766,0.0012837134,-0.05411093
6783863,6783747,0.005479361,-0.03467128,0.01594995
6803860,6803744,0.05685818,0.013933564,0.059848532
6827850,6827744,-0.011889585,0.04712913,0.0058222716
6847854,6847760,-0.028821785,0.055244714,-0.039170668
6871848,6871746,0.11033178,-0.032853793,-0.049974594
6895051,6894956,0.13900115,-0.013106121,-0.05000163
6915839,6915744,0.032473154,0.041713525,-0.054699723
6939841,6939744,0.0026025944,-0.02645476,0.0026800707
6963862,6963755,-0.0038756256,-0.04127966,0.032287985
6984680,6984575,-0.02422168,-0.021008113,0.0058712657
7011978,7011792,-0.048718248,0.036125183,-0.08249266
7031847,7031751,-0.03610436,0.016043607,-0.09783458
7053464,7053357,-0.042482603,0.0011343879,-0.047844432
7075847,7075744,-0.053385742,0.016827282,-0.02405326
7100655,7100546,-0.0296001,0.035958786,-0.03259994
7124641,7124544,-0.034955114,0.04857506,-0.014262125
7148639,7148544,-0.017686294,-0.0007442683,-0.014210378
7172652,7172546,-0.0012651219,-0.012710093,0.0016901509
7196686,7196579,0.028559057,-0.019266415,-0.038116004
7216799,7216597,0.043662675,-0.004243965,-0.04144247
7240655,7240546,0.077949926,-0.032968543,-0.000125146
7260667,7260545,0.048370127,-0.014612736,0.0109089315
7284661,7284564,0.01825613,-0.019259783,-0.012197085
7304819,7304546,0.004121909,0.027395867,-0.03427149
7324647,7324544,-0.020882595,0.009117896,-0.0368635
7348653,7348555,0.021547642,-0.023819748,-0.03465828
7372697,7372593,0.022759732,0.048693582,-0.06906847
7396664,7396544,-0.040138647,0.063022114,-0.090584025
7416646,7416551,-0.07270585,0.02870811,-0.07741757
7439047,7438946,-0.055093125,-0.017680988,-0.051244944
7460639,7460544,-0.052594576,0.01780535,-0.051738396
7484641,7484544,-0.048050083,0.029604156,-0.024880297
7505498,7505394,-0.0012686264,-0.01054192,-0.05264678
7526249,7526147,-0.039137673,-0.030844336,-0.06780461
7547072,7546946,0.015364322,-0.044477995,-0.0065488946
7567839,7567744,0.052160602,0.038149256,0.0007790907
7588639,7588544,0.025956612,0.027786678,-0.005125379
7608652,7608551,0.0487649,0.040672027,-0.062352758
7631839,7631744,0.074981056,0.009361953,-0.11574872
7652643,7652544,0.029229222,0.012567736,-0.12336411
7689441,7689346,0.015005808,0.041062713,-0.052175704
7711846,7711744,-0.093290195,0.007841005,-0.046774447
7733496,7733384,-0.069289416,-0.020276774,-0.027801996
7753467,7753352,-0.08285352,0.0067019686,-0.0831522
7773442,7773347,-0.07891517,0.0128292125,-0.06818516
7797443,7797346,0.022990191,0.010843329,-0.07420543
7821604,7821393,0.033754654,0.051757433,-0.07142849
7845521,7845396,-0.03933136,0.0026246319,-0.0357029
7869439,7869344,0.0375181,0.025814801,-0.011020683
7889614,7889397,0.0331322,0.031120066,-0.012215301
7912647,7912545,0.028957693,0.0064622895,-0.06431646
7932650,7932544,0.045634937,-0.017184263,-0.099252
7956654,7956546,-0.065576084,0.0187146,-0.08877835
7977448,7977353,-0.01640764,0.0037225257,-0.004102706
7997442,7997344,0.019874744,0.003577243,0.0566999
8019048,8018946,-0.006403204,-2.6355498e-05,-0.013021787
8040661,8040544,-0.0021702223,0.013128422,-0.08131022
8061444,8061344,-0.048339773,0.021957925,-0.110669754
8081445,8081346,-0.0037564607,-0.016588438,-0.0469767
8103050,8102947,-0.001073877,0.034813225,-0.022429299
8124654,8124545,0.01862973,0.024639651,0.00850585
8145495,8145391,0.027198963,-0.011449236,-0.049574412
8167048,8166951,-0.015660014,0.003681499,-0.06759634
8190246,8190144,0.03886084,0.009903996,-0.05536685
8212640,8212545,-0.0240894,0.032228194,-0.026357055
8232643,8232548,-0.09577677,-0.05610564,0.07543035
8254252,8254145,-0.027295157,-0.08299102,0.038250804
8274277,8274159,0.025790803,0.017213488,0.005585779
8296651,8296551,0.0027084898,0.015523559,-0.07429182
8317439,8317344,0.029213065,0.0376719,-0.15105201
8338241,8338146,0.05851677,0.009757357,-0.14781815
8358239,8358144,-0.034267556,0.02686855,-0.05066564
8382286,8382179,-0.04795923,0.050971538,0.046195045
8406294,8406191,0.02230894,-0.0005706815,0.07050311
8429467,8429365,0.035326786,-0.006586623,-0.048013836
8449455,8449349,0.0045185024,-0.004893768,-0.12279662
8470267,8470156,-0.05772581,0.0028656363,-0.1228235
8494252,8494145,-0.004048872,-0.010092325,0.00071775913
8518256,8518146,0.039565556,0.03017947,0.09075432
8541478,8541367,0.020459859,-0.0033679234,0.026530143
8561455,8561345,-0.03316901,0.03094193,-0.04806228
8582247,8582144,-0.003009384,0.025747014,-0.07318227
8603855,8603746,0.0648295,-0.021609286,-0.025976641
8624811,8624590,0.07239338,-0.017432995,-0.036066305
8646239,8646144,0.009463502,0.00014050817,-0.12353023
8666240,8666146,-0.114729255,0.025043314,-0.12769988
8687056,8686960,-0.07972396,-0.018264348,-0.0094856415
8710260,8710156,-0.01694984,-0.02942406,0.07065483
8734249,8734145,-0.053571325,0.018916713,0.09553408
8757439,8757344,0.022089342,-0.023246584,-0.028942943
8779068,8778963,0.02709078,0.0050373045,-0.10167194
8799054,8798946,0.01159814,0.010354016,-0.07997806
8822243,8822146,0.045851693,0.027991185,0.03171839
8847043,8846946,0.026601164,0.006640053,0.08663593
8869439,8869344,-0.028729076,-0.0005714923,0.017538328
8891094,8890982,-0.021829292,0.01342128,-0.083674684
8911062,8910963,0.033216283,-0.013823841,-0.12599051
8935043,8934945,0.027258297,0.00933513,-0.07853253
8958239,8958144,-0.021046966,0.00817672,0.0324329
8982239,8982144,-0.03390322,-0.010657775,0.07433582
9003043,9002946,-0.008275441,0.0049604927,0.042155888
9023056,9022961,0.012921478,-0.0096948175,-0.011752964
9045482,9045378,0.003359804,0.0006299937,-0.05860883
9065442,9065347,-0.0198077,-0.003289211,-0.07589424
9087045,9086946,-0.018167058,0.0021380838,-0.04958483
9107045,9106946,-0.022858743,0.025148343,-0.008715483
9129440,9129345,-0.03309824,-0.0007236082,0.02512566
9149439,9149344,-0.019451356,0.009251413,0.020945098
9171043,9170946,0.017870028,-0.0018362374,-0.010614982
9191043,9190946,0.0045790975,0.009501443,-0.040294643
9212682,9212578,0.009626506,0.007091922,-0.021399517
9234296,9234179,0.033239357,-0.021271707,-0.0060391068
9255854,9255758,-0.0027421082,0.010633365,-0.0031222873
9276005,9275797,-0.02119812,0.010284825,0.0075998884
9295840,9295745,-0.012764806,-0.0086016,0.009212648
9319049,9318944,0.055631198,-0.0082418425,-0.014425628
9343046,9342948,0.035763912,0.022318533,-0.027951173
9363046,9362946,-0.03599515,0.015754713,-0.0008299975
9383883,9383772,-0.03766875,-0.003609069,0.023248067
9406246,9406151,0.022379009,-0.0072656716,-0.020409256
9430239,9430144,0.02858083,0.009874672,-0.08942915
9451075,9450969,-0.005718769,0.026256999,-0.09419081
9471853,9471746,-0.030876841,0.01187601,-0.026410144
9491848,9491746,0.0074979644,0.01914597,0.019444406
9513447,9513343,0.020920875,0.018939428,0.009428808
9535092,9534976,-0.029389335,-0.0011726434,-0.00755993
9555841,9555746,-0.036230642,-0.008191478,-0.03889429
9575846,9575744,0.001804767,-0.006232443,-0.039119367
9599843,9599746,0.060360886,0.0008236616,-0.04415884
9623052,9622946,0.029055864,0.014873156,-0.039481256
9643057,9642946,-0.028964657,0.0065962756,-0.0002551633
9663865,9663746,0.040686473,-0.0021909755,0.01343399
9687047,9686946,0.08177622,0.026296537,-0.0353897
9710252,9710147,0.004550081,0.008209095,-0.07055297
9731043,9730946,-0.052184694,0.005172146,-0.04706814
9751839,9751744,-0.04488002,-0.010525128,0.0416572
9771848,9771753,-0.019262336,-0.018322516,0.060328517
9793442,9793345,0.015813982,0.029620292,-0.0026786646
9815841,9815744,0.024667718,0.020614244,-0.11814481
9839044,9838944,0.048105683,0.019222023,-0.1709503
9860653,9860543,0.0407388,0.01669699,-0.1293393
9880641,9880546,-0.020161835,0.0008563315,-0.016242262
9904694,9904575,-0.06368019,0.011570428,0.094587184
9927876,9927770,-0.026601614,-0.027282003,0.099322334
9947853,9947745,0.011872325,-0.026097566,0.009229623
9968712,9968601,0.004077085,0.0004930119,-0.108721375
9988676,9988571,0.025245093,0.028494379,-0.15418747
10011050,10010948,0.07053681,0.007832294,-0.10974929
10031856,10031755,0.04034604,0.013455846,-0.028113414
10052777,10052601,0.017858554,0.01567881,0.003176561
10072676,10072570,0.017549366,0.037679944,-0.056719635
10096674,10096574,0.041421816,0.02416275,-0.16632105
10120659,10120557,0.005570679,-0.015722984,-0.16156125
10144641,10144544,-0.059079967,-0.0038697142,-0.05470348
10168662,10168546,-0.08123366,-0.011325816,0.061640527
10188641,10188546,-0.011872709,-0.008670414,0.0641552
10211049,10210945,0.02031921,-0.01084397,-0.013993423
10231049,10230944,-0.018202202,0.029438017,-0.11636985
10252652,10252546,0.03992181,0.040648505,-0.15644178
10272642,10272544,0.054113377,0.010984134,-0.12810796
10294251,10294143,0.017189266,0.0070734518,-0.05199353
10316012,10315801,-0.005825572,0.02509734,-0.011950754
10336785,10336604,-0.02114634,0.026477259,0.0067041786
10357616,10357403,-0.04223664,-0.017679248,0.0015828105
10377439,10377344,-0.0011728357,-0.04023538,-0.042807624
10401439,10401344,0.052310377,0.035177622,-0.11190443
10425500,10425394,-0.0023692744,0.012164864,-0.108686514
10449461,10449346,-0.044938684,-0.031177802,-0.03492535
10472693,10472589,-0.04433841,-0.03268721,-0.03035703
10493438,10493343,-0.055280864,-0.0051392857,-0.017111722
10515841,10515746,-0.064080134,0.009964992,-0.028735662
10535839,10535744,-0.030723931,-0.008312556,-0.019105688
10556692,10556588,0.04913285,-0.0056575933,-0.04112744
10577441,10577345,0.06424722,0.042258505,-0.079848416
10600646,10600544,0.03354093,0.040770955,-0.10694161
10625484,10625378,0.07009232,0.013333736,-0.109276675
10648683,10648578,0.016020106,0.016623458,-0.107235536
10672655,10672544,-0.0150147565,-0.023239298,-0.04688561
10693446,10693343,-0.03941699,-0.036552973,-0.0168437
10713475,10713371,-0.058246084,-0.015635489,-0.0091581475
10735054,10734943,-0.01853611,-0.0069908705,-0.00795098
10756657,10756547,0.03334568,-0.014007785,-0.048392918
10777460,10777363,0.046250936,0.0062496574,-0.10648204
10797453,10797346,-0.024355909,0.054072034,-0.1519788
10819073,10818966,0.0018886247,0.03856351,-0.09823063
10840650,10840544,0.025240876,-0.038788643,-0.014402015
10861440,10861346,0.021857167,0.013537822,0.008586482
10881461,10881364,-0.032148115,0.031849645,-0.036432795
10903047,10902943,-0.031120216,-0.011085575,-0.064230636
10924657,10924551,0.033263847,-0.06296604,-0.08092719
10946315,10946198,-0.001684309,0.0043738233,-0.04563109
10969439,10969344,0.011582823,0.04217075,-0.0020054248
10990286,10990170,0.035451073,0.0023717273,-0.0014222669
11012698,11012593,0.006329083,-0.002802486,-0.04079846
11032639,11032544,0.036056057,0.0025561217,-0.0919595
11053438,11053343,0.047611155,0.027730199,-0.12338178
11074258,11074144,-0.0020141597,0.026579924,-0.07478612
11098260,11098156,-0.021368442,-0.02679855,0.009590506
11121450,11121346,0.015274934,-0.028775802,-0.003483222
11141490,11141378,-0.027626669,0.010260035,-0.052685216
11162241,11162146,-0.07888819,0.0062749437,-0.069262095
11182248,11182146,-0.07352386,0.014793263,-0.040892117
11204651,11204545,0.030736504,0.010487101,0.0048312563
11225495,11225378,0.055335972,0.07727971,0.024648748
11246248,11246146,0.06263884,0.068720244,0.034599986
11266243,11266144,0.14437553,0.08878062,0.029826365
11290266,11290166,0.13922961,0.02526882,-0.023955898
11312697,11312592,0.03218841,-0.0061646146,-0.052115846
11333461,11333363,-0.050199766,-0.049159408,-0.034770582
11354259,11354152,-0.060889244,-0.06891328,0.012345075
11375838,11375743,-0.011543914,-0.12161288,0.0024523651
11397617,11397401,0.017673953,-0.060855683,-0.053617317
11418294,11418193,0.045812875,-0.046997447,-0.018205428
11439107,11439001,-0.035117183,-0.054068938,-0.059115876
11459885,11459780,-0.0068964246,-0.0047753146,-0.017000068
11482239,11482144,-0.037915856,0.04977504,-0.07750504
11507057,11506946,0.0076392903,0.11893813,-0.11354911
11530241,11530144,-0.0017547032,0.041995917,-0.051707316
11551073,11550967,0.028576905,-0.009795641,-0.03612308
11571097,11570983,0.09694591,0.0633529,-0.060208227
11595092,11594981,-0.01800225,0.026151244,-0.05422746
11618268,11618157,-0.062031493,-0.045180216,-0.05722321
11642246,11642144,-0.012981045,-0.07216583,-0.04652594
11663043,11662946,-0.04896806,-0.066864796,-0.013491843
11683043,11682946,-0.01645483,-0.0041214125,0.06984249
11706263,11706160,0.06041489,-0.048792116,0.11929119
11730299,11730194,0.03768181,-0.007109479,0.060205143
11750238,11750143,0.09680293,0.020871352,-0.031746585
11771043,11770946,0.067183696,0.07751597,-0.16143145
11795049,11794946,0.043674823,0.07256925,-0.13466728
11819041,11818944,0.025465343,-0.022467688,-0.07660821
11843050,11842946,-0.12070388,0.057872828,-0.09828921
11867172,11866996,-0.11549747,-0.013738482,-0.10398732
11891041,11890944,-0.22564745,-0.030415349,-0.10306993
11911051,11910943,-0.22360605,-0.06646395,-0.1123878
11932652,11932546,-0.054335747,-0.035116896,-0.10150916
11955049,11954944,-0.044184633,0.02157954,-0.009182417
11979052,11978944,-0.12403989,0.011002677,0.09745015
12003043,12002944,0.1486895,-0.006059854,0.0053870194
12023048,12022945,0.24459825,0.020880237,-0.062975414
12043853,12043746,0.06354467,0.031616356,-0.0713565
12067041,12066944,0.1088119,0.102518275,-0.09548561
12091849,12091744,0.19379242,0.003407015,-0.014600381
12115849,12115744,-0.01867417,-0.009687476,0.053844042
12139842,12139746,-0.035285715,-0.015832571,0.065385245
12163053,12162945,0.0079649035,-0.055484734,0.055897944
12183858,12183752,0.012694949,-0.059252433,0.031639278
12206268,12206163,0.09857271,0.01863432,-0.06852936
12227044,12226944,0.0051556695,0.043935675,-0.14982131
12247077,12246970,-0.11428599,-0.019116154,-0.13430692
12267853,12267758,-0.09053024,-0.02664113,-0.059592474
12290262,12290161,-0.046592865,-0.02164522,-0.039021254
12315047,12314946,-0.071263485,0.07496239,0.0057218475
12339049,12338944,0.024751063,0.0031280858,-0.03808587
12363853,12363746,0.07334223,0.0016803693,-0.064200014
12387893,12387789,-0.008529415,-0.011848343,-0.046378836
12407851,12407756,-0.019811094,0.01961732,-0.07775521
12429453,12429346,0.041154113,-0.012965052,-0.017741613
12451231,12450945,-0.013611108,-0.057844076,0.018097032
12471052,12470945,-0.005981393,-0.006026641,0.03881626
12491864,12491765,0.04677833,0.016553855,0.06309082
12513456,12513346,0.07552053,0.022897646,0.09246132
12535046,12534945,0.076960005,0.03133649,-0.0020790268
12555901,12555791,0.14133252,0.03482518,-0.034344554
12575864,12575762,0.13031091,0.04894998,-0.17992046
12596648,12596545,0.026332352,0.058170717,-0.12176613
12619853,12619747,-0.083455086,-0.041779935,-0.04328008
12643853,12643746,-0.11659353,-0.062055405,0.027824972
12667848,12667745,-0.21866126,-0.076506026,-0.05311355
12688653,12688547,-0.12982443,-0.044892482,-0.20822084
12708678,12708573,-0.017741272,-0.0094281705,-0.122264214
12732643,12732546,0.018279199,-0.0071185757,-0.06520066
12756681,12756573,0.035045605,-0.02924501,-0.066783726
12780799,12780597,-0.021513965,0.03067512,-0.12764198
12804649,12804544,0.030178448,0.0887602,-0.12831871
12828658,12828544,0.09328424,0.003670915,-0.018952115
12848641,12848546,0.060551617,0.03286917,0.016298845
12871080,12870976,0.19667189,0.014572347,-0.007932248
12892006,12891799,0.15788847,0.016476633,-0.057668183
12912676,12912572,-0.0015334883,0.015980292,-0.16466267
12932646,12932544,-0.017012233,0.027674424,-0.18440728
12954280,12954162,-0.11356763,-0.07861267,-0.13280576
12975893,12975789,-0.06417922,-0.09063305,-0.12019457
12996654,12996544,0.016484493,-0.061932787,-0.0163241
13020639,13020544,-0.19850163,0.024375912,-0.2177553
13040801,13040598,-0.14704375,0.070388116,-0.23295146
13063075,13062961,-0.014595177,0.039657626,-0.1558371
13084639,13084544,-0.040078927,0.050687734,-0.18716268
13108650,13108544,0.08333123,0.006773907,-0.17689069
13129441,13129346,-0.02964765,0.038865384,-0.16865161
13149439,13149344,-0.06607513,0.0073984005,-0.09624972
13173446,13173344,0.07000153,-0.05096875,0.022816848
13197493,13197389,-0.059305068,-0.065160066,0.10609694
13221463,13221359,0.012261398,-0.042673994,0.015141508
13245485,13245379,0.098771974,0.037858944,-0.08926394
13265506,13265394,0.07206605,0.011665033,-0.03140767
13287844,13287745,0.14410847,-0.028119048,0.0017778451
13308653,13308545,0.1296241,0.053387843,0.045900024
13328785,13328605,0.023688663,0.052878708,-0.06668606
13349492,13349380,0.0036817351,0.016253132,-0.1222616
13372646,13372544,-0.004835367,0.0070418995,-0.09231012
13396639,13396544,-0.06396017,0.04715378,-0.0026013793
13420643,13420544,-0.15794542,3.998517e-05,0.07576476
13444652,13444545,-0.04884004,-0.032554284,0.038539905
13465445,13465348,-0.005729166,0.0031743532,-0.07503295
13485484,13485378,-0.106313415,0.016503112,-0.11422442
13507050,13506943,-0.020898825,0.019835765,-0.077752985
13528661,13528546,0.11597292,0.018837653,-0.008337678
13550328,13550216,0.13470173,-0.00399834,-0.027405031
13573443,13573344,0.08804632,0.031388123,-0.12735902
13595073,13594943,0.04098316,0.010603373,-0.14215438
13616640,13616545,0.033023123,-0.038820483,-0.0066238716
13637477,13637371,-0.03838255,0.018151853,0.13670458
13657461,13657348,-0.13240644,-0.017298337,0.22999683
13678264,13678146,-0.10898468,-0.11431227,0.15756932
13701500,13701394,0.014973854,0.0068869237,-0.023398353
13725515,13725399,0.048536032,0.010258821,-0.041484952
13750267,13750159,0.06614549,0.09365877,0.022391766
13774253,13774145,0.12963292,0.0844659,0.01451006
13794251,13794145,0.054689277,0.024597012,0.015031887
13814251,13814146,-0.0013844839,0.06962804,-0.020751046
13837446,13837344,0.043829326,0.0017989425,-0.03772544
13862285,13862178,-0.082924865,0.003746981,-0.054029092
13886277,13886161,-0.09509349,-0.08260249,-0.053977042
13910252,13910146,-0.08788523,-0.09330317,-0.08313178
13930249,13930146,-0.08776063,-0.053978458,-0.024206124
13950290,13950189,-0.019634623,-0.014309077,0.081470884
13974247,13974144,-0.0013160467,0.024582848,0.18384163
13998239,13998144,0.024166014,-0.04270985,0.1250913
14022265,14022164,0.095431075,0.020213664,-0.030617058
14046248,14046152,0.10423768,0.05140213,-0.14615126
14066245,14066143,0.06623596,0.039648548,-0.14744605
14088697,14088554,0.026352808,0.011383215,-0.04528026
14109439,14109344,-0.027145442,-0.011578926,0.071324684
14130265,14130158,-0.050341696,0.0018678678,0.107949056
14150242,14150147,-0.042415906,-0.0057661887,0.0717165
14174406,14174181,-0.011608913,0.008209264,-0.019087795
14198265,14198146,-0.023068676,-0.0032763684,-0.06382239
14223092,14222965,-0.048801966,-0.0035817558,-0.007728628
14247213,14247000,-0.03317805,-0.0188931,0.08045456
14270239,14270144,-0.026309028,-0.019555338,0.12691458
14291042,14290943,-0.01073048,-0.031666186,0.104684085
14313466,14313364,-0.004240108,-0.04293185,0.06205477
14334280,14334157,0.0005558736,-0.03744811,0.041857198
14354262,14354146,-0.002763513,-0.020421337,0.08771475
14375074,14374945,-0.00672868,-0.00056282897,0.1770784
14399052,14398945,-0.012439522,0.026288532,0.24402075
14423048,14422946,0.0691118,-0.026147224,0.16352887
14447041,14446944,0.06827676,0.015575038,0.063327916
14470239,14470144,0.19098698,0.028775133,-0.06294064
14491070,14490964,0.10938187,0.11389216,-0.18885572
14511036,14510939,0.07106935,0.04181717,-0.12278645
14535089,14534968,-0.01920948,0.017435778,-0.0227335
14558266,14558165,-0.04424047,-0.022456927,0.16350198
14582246,14582144,-0.19827862,-0.004383104,0.114999704
14603043,14602946,-0.09995318,-0.05108245,-0.05087753
14623058,14622960,-0.026075438,-0.08448879,-0.15824579
14644644,14644543,-0.035796564,-0.052546658,-0.12345318
14666264,14666145,0.000946949,0.018441435,-0.031707495
14687062,14686944,0.053796347,0.03788511,0.12906942
14707063,14706952,0.0064397766,0.023550445,0.105015345
14728660,14728545,-0.004967225,0.0014580789,0.009937627
14751041,14750944,0.08787745,0.013554455,-0.09927505
14776682,14776576,0.056172818,0.047255285,-0.10542522
14799839,14799744,0.0006038619,0.020107586,0.013684329
14823894,14823789,0.00041895697,-0.04242737,0.07959059
14847839,14847744,-0.054404385,0.0024493216,0.055498723
14867855,14867753,-0.047056776,-0.0033015837,0.037449483
14889442,14889345,0.037555955,-0.010980796,0.058268014
14911075,14910965,0.06747272,-0.00020974386,0.039802305
14931841,14931743,0.07015293,-0.04129091,-0.072502635
14951846,14951744,0.044141654,-0.005377776,-0.1366185
14973442,14973343,-0.033703204,0.037690677,-0.11307155
14995088,14994982,-0.077495046,0.018012673,0.025478225
15015839,15015744,-0.041898675,-0.0065166308,0.08713872
15035845,15035743,0.034893647,0.012805084,-0.019555708
15057442,15057346,0.0025179111,0.020168846,-0.19331084
15079841,15079744,-0.10435963,0.02116164,-0.2282149
15103852,15103745,-0.04491531,-0.054119114,-0.07527683
15123861,15123747,-0.067295626,0.054936588,0.095232494
15145489,15145385,-0.032839134,-0.044182107,0.15523723
15167848,15167745,-0.05853392,-0.035547335,0.10218397
15191852,15191747,0.010087582,-0.0072758356,0.020948667
15215841,15215744,0.07768521,-0.05353258,-0.05594302
15235841,15235743,0.14239658,0.008171588,-0.072082244
15257462,15257346,0.15640876,0.044890206,-0.0987065
15280687,15280582,0.0729249,0.0225299,-0.07029616
15303862,15303756,0.06680702,0.032170128,-0.07055329
15323866,15323759,0.03763034,0.022165868,-0.06437159
15344695,15344589,-0.07545425,-0.029556623,-0.013796153
15364683,15364570,-0.1547327,0.0054584946,0.01101972
15387055,15386946,-0.05095902,-0.026975134,0.018120946
15407848,15407744,0.013907033,-0.057094473,-0.098642066
15428698,15428588,0.017995695,0.019196589,-0.17770994
15448675,15448571,-0.07052049,0.020444404,-0.18123479
15472651,15472549,-0.049347915,0.004389775,-0.03602737
15496642,15496544,0.08819211,-0.021120124,-0.006862902
15519839,15519744,0.05447272,0.02377666,-0.10613613
15540638,15540543,-0.026461879,0.059503663,-0.2290269
15560650,15560546,-0.036927786,-0.027180426,-0.21756178
15583069,15582963,0.0059199533,-0.048328895,-0.10591829
15603861,15603743,0.008032756,-0.0011373629,-0.040177263
15624644,15624545,-0.089185275,0.042728677,-0.004324681
15644677,15644572,-0.08952972,0.0252767,-0.0002510778
15667087,15666964,0.038843375,-0.050162658,-0.13004622
15687843,15687747,0.022779522,0.061472178,-0.18814602
15708641,15708546,0.043935586,0.059267864,-0.27488744
15728642,15728545,0.06430804,0.1284289,-0.21677558
15752641,15752544,0.085462146,0.15036243,-0.084334575
15776648,15776544,0.20231703,0.09395723,0.020048203
15801505,15801393,0.1640643,0.05019902,-0.05786449
15825520,15825401,-0.007008235,-0.04677142,-0.29190162
15848837,15848627,-0.103537224,-0.10597529,-0.4048541
15869608,15869399,-0.052332338,-0.16128814,-0.36943755
15891841,15891746,-0.08788771,-0.037966944,-0.23909272
15912650,15912545,-0.18737258,-0.07069239,-0.17425007
15932683,15932578,-0.08833984,-0.055397045,-0.065502
15953441,15953346,-0.14410374,0.016474035,-0.06379595
15977458,15977362,-0.19867341,-0.0046542417,0.012361799
16000646,16000544,-0.122585796,0.036738314,0.058371514
16025618,16025434,0.11214578,0.07781781,0.052531585
16049450,16049346,0.150422,0.04997883,-0.04684
16073472,16073370,0.056332454,0.046331163,-0.1187501
16093447,16093345,0.016468942,0.043566413,-0.07979008
16115886,16115778,0.07458232,0.06049719,-0.0120273335
16136653,16136556,0.22645864,0.029166287,0.012436008
16156665,16156552,0.10502351,0.02184768,0.0748402
16177448,16177346,0.025316399,0.029775163,-0.0821182
16201499,16201390,0.14368856,-0.04980445,-0.15362044
16223853,16223744,-0.058761638,-0.10415071,-0.15146787
16249439,16249344,-0.1781643,0.009487633,-0.12780033
16273452,16273344,-0.050669488,-0.075887576,-0.103769764
16297444,16297344,-0.07597418,-0.028569544,-0.012923303
16321445,16321344,-0.094078414,0.037039254,-0.006876283
16341443,16341345,-0.1439397,0.007952895,0.02770054
16363052,16362943,-0.10941472,-0.018767549,0.00828005
16385491,16385378,0.069277875,0.004712344,-0.052044075
16408639,16408544,0.010189356,0.016004305,-0.030938398
16429453,16429345,-0.0113582015,0.0073178937,0.004267445
16450457,16450234,0.004569799,0.017546298,0.032876693
16474253,16474145,-0.043853536,-0.030212838,0.11626205
16498248,16498145,0.00040315953,-0.001385217,0.108074754
16522243,16522145,0.045193493,-0.017184157,0.06865261
16545604,16545408,-0.051331483,-0.03271927,0.057217143
16566281,16566180,-0.084845096,-0.062429093,0.054930843
16586241,16586146,-0.12864868,-0.05168065,0.091507494
16609441,16609344,-0.10008006,-0.022504702,0.19056982
16634255,16634147,0.03342684,0.021288268,0.13676876
16657441,16657344,0.101393975,0.014738858,0.2174361
16678244,16678149,0.107521124,0.0023927614,0.040468287
16698259,16698157,0.19683002,0.03651883,-0.025824964
16721450,16721353,0.19599701,0.042547617,0.08101824
16741451,16741343,0.26969942,-0.092617095,0.19068311
16762244,16762149,0.27666733,0.11356144,0.049562275
16782241,16782146,0.24088828,0.04896278,0.108981945
16804657,16804544,0.044868074,-0.034225114,-0.07629585
16826304,16826201,-0.087599784,0.016513523,-0.049804002
16850262,16850145,-0.07422786,-0.03883282,0.10675697
16870257,16870143,-0.12774579,-0.06667072,0.12734644
16891850,16891743,-0.15234818,-0.02905523,0.015886948
16913450,16913354,-0.15400551,0.009454492,-0.11298072
16934312,16934191,-0.07493714,0.06676836,-0.050866533
16954429,16954144,-0.058282413,-0.04463108,0.01502687
16975838,16975743,-0.08188786,0.053241372,0.076832
16997478,16997374,-0.18204671,0.060298484,0.08503044
17018251,17018145,-0.14647783,-0.034656983,-0.0033540502
17039040,17038943,0.17782514,-0.032409362,-0.27147126
17059047,17058946,0.12873934,-0.051012058,-0.029481592
17081464,17081369,0.14884871,-0.007032906,-0.015217728
17105495,17105378,0.20428307,0.13329309,0.11049321
17126261,17126151,0.15751046,0.0075390763,0.111938916
17147046,17146945,-0.027062913,0.0023953575,0.10062129
17169479,17169378,0.0675133,-0.050333213,0.07170645
17194278,17194158,0.026366672,-0.0019951619,-0.07351383
17218263,17218159,-0.13117622,0.0041631362,-0.010406947
17238250,17238143,-0.14015794,-0.06189974,0.023864727
17259050,17258945,-0.014423486,-0.012163379,0.0028748605
17281439,17281344,-0.09190986,-0.03905848,-0.011320779
17306241,17306144,-0.15294,0.11631767,-0.057130072
17330270,17330164,-0.0069885133,0.0069033233,-0.04892968
17355041,17354944,0.017387597,-0.040298045,-0.026775794
17379041,17378944,0.09012283,0.025315205,-0.06385257
17403046,17402944,0.048144594,0.07255506,-0.08307618
17427895,17427791,0.098915,-0.022000156,-0.0008137849
17447886,17447781,0.017023891,-0.049891446,0.07654858
17470241,17470146,-0.012708059,0.0034436549,0.06313282
17490239,17490144,0.017924467,-0.029795982,-0.015823023
17511045,17510943,0.030709347,-0.015756518,-0.06707076
17531882,17531765,0.034461733,-0.0065558865,-0.11689733
17555848,17555744,-0.0029849326,-0.019817932,-0.122182176
17579842,17579746,-0.04079911,0.05776437,-0.11684116
17603856,17603747,-0.051545985,0.037607204,-0.1329671
17627848,17627744,-0.05681161,0.055232447,-0.13732716
17647899,17647782,-0.000258266,0.04078274,-0.18960428
17667841,17667746,-0.047745354,0.006212779,-0.19156685
17691049,17690947,-0.025392152,0.00801078,-0.10236565
17715045,17714944,0.03806915,0.005414647,-0.06536758
17739043,17738944,-0.03125347,-0.09264656,-0.008302182
17759843,17759743,-0.05814713,-0.033974215,0.03917672
17779854,17779758,-0.02291482,-0.04603947,0.078203276
17800856,17800654,0.041234676,-0.028511005,0.09395716
17823062,17822944,0.16793953,0.0023479362,-0.055694543
17843851,17843744,0.17814119,0.00439803,-0.19260721
17863850,17863745,0.049699873,0.021480372,-0.17394063
17885497,17885393,0.080159485,0.06732725,-0.18066233
17907883,17907778,0.006686801,0.01682036,-0.03995296
17931979,17931789,0.005209121,0.039761435,0.027543472
17955847,17955744,-0.083455764,0.002752129,-0.09525711
17975845,17975743,-0.12220522,-0.025286427,-0.14674816
17997449,17997346,-0.080044754,-0.07784136,-0.1870266
18019843,18019746,-0.0898218,0.00018834183,-0.124086775
18039848,18039753,-0.04488665,0.07111441,-0.03869845
18059849,18059743,-0.0091139125,0.0014943108,0.008712028
18080649,18080547,-0.07010527,-0.028358467,0.024026861
18103084,18102972,-0.024624566,0.021616057,0.015212561
18124639,18124544,0.13532858,0.014473096,-0.08714124
18148660,18148564,0.113132626,0.046568274,-0.1516696
18168650,18168543,0.08655878,0.03307435,-0.1775879
18191044,18190945,0.04591422,-0.0053072944,-0.08074727
18211049,18210944,0.0767715,0.0069537805,0.018130349
18232682,18232552,0.025752554,0.036094412,0.016321322
18252638,18252543,-0.04270776,-0.045136895,0.005185512
18276641,18276544,-0.0871315,0.0026476237,-0.034288414
18299049,18298944,-0.05147516,-0.06406273,-0.066529825
18319853,18319746,-0.078453004,0.005707592,-0.073205784
18340652,18340546,-0.034882434,-0.003293349,-0.038459778
18360638,18360543,-0.036081247,-0.014157538,-0.002099284
18383050,18382955,-0.032199472,0.060672253,-0.03135357
18404641,18404544,0.09645328,0.025042918,-0.07424702
18424822,18424619,0.05512177,0.018855572,-0.055574037
18444647,18444544,0.006685157,0.039988846,0.0143103
18468639,18468544,-0.018793464,-0.02905009,0.060992498
18492639,18492544,-0.0011372563,-0.0230605,0.11404152
18515839,18515744,0.01598696,-0.066424005,0.0510311
18536817,18536611,-0.051003657,0.00934155,0.010529791
18557492,18557372,0.061006907,0.020425824,0.006913886
18580667,18580559,0.03358245,0.010041488,-0.015760569
18604695,18604583,-0.008123957,0.049577918,0.056127217
18624652,18624546,-0.002846147,0.01626697,0.0507424
18645445,18645348,0.079159684,-0.017298903,-0.0115184365
18665495,18665390,0.17045812,0.034135327,-0.11686941
18688048,18687829,-0.00060034095,0.030671556,-0.22333549
18708809,18708587,-0.18082447,-0.0040242006,-0.15243515
18729482,18729377,-0.110421605,-0.06621947,0.050609484
18749438,18749343,-0.17962158,0.034275584,0.16583577
18773442,18773346,-0.06833742,-0.025807962,0.21717799
18797441,18797344,0.030188795,0.06468274,0.23121418
18821441,18821344,0.12997997,0.009538088,-0.0075440197
18844642,18844546,0.20531383,-0.015074034,-0.14548494
18865496,18865391,0.14667681,0.027785609,-0.21620187
18888033,18887809,0.06668129,0.04002076,-0.21805051
18908658,18908560,-0.14725116,0.05937959,0.024155328
18928638,18928543,0.047226634,-0.039997175,0.1948926
18949438,18949343,0.035997383,-0.1574946,0.15840447
18972649,18972544,-0.31319764,-0.07986334,0.08269413
18996688,18996576,-0.025656464,-0.055678308,-0.065973096
19021439,19021344,0.05577452,-0.03643468,0.055546142
19045459,19045364,0.04765387,-0.0069063567,-0.10222245
19069489,19069385,-0.007172997,0.117550686,-0.18779641
19093619,19093399,-0.0749773,0.028428234,0.060431506
19118273,19118167,0.044183172,-0.049915776,0.20973758
19139040,19138943,0.16688569,-0.025219258,0.1382772
19160647,19160552,0.015440534,0.09731414,-0.030150637
19181464,19181369,-0.020911725,0.053692326,-0.21303546
19201487,19201380,0.009180786,-0.033144973,-0.31205127
19222241,19222140,0.0017046544,-0.02351075,-0.12292193
19246256,19246155,-0.035285354,-0.07989463,0.16124734
19270289,19270181,-0.031659517,0.026154578,0.2660939
19293439,19293344,-0.10786609,-0.023581903,0.19687617
19313441,19313346,-0.019430488,-0.021153543,0.025849933
19334248,19334143,0.032173578,0.034781344,-0.07468185
19356649,19356544,0.008047162,-0.018194463,0.0029362706
19380658,19380544,0.109580494,0.032430645,0.09277345
19401605,19401349,0.27406338,0.038613096,-0.00017385557
19422248,19422146,0.16517553,0.023549154,-0.16555348
19442247,19442145,-0.029806575,0.01912707,-0.257277
19464675,19464564,-0.051394396,0.02134071,-0.14951025
19485585,19485397,-0.027908145,-0.056309517,0.06525986
19506260,19506159,-0.09539741,-0.046923377,0.13989606
19526261,19526146,-0.12139876,0.019636858,0.10167451
19549441,19549344,-0.1650155,-0.04889757,-0.053462554
19573448,19573352,-0.0062708496,0.043928802,-0.11460076
19593459,19593362,0.03856684,0.029484887,-0.13557184
19614247,19614144,-0.047988657,0.031390868,-0.041293
19635844,19635746,0.002345614,0.019709738,0.003943666
19657449,19657347,0.12523039,-0.021735296,0.07057573
19678241,19678144,0.15320088,0.013971862,0.082579955
19699074,19698969,0.031336278,0.044342954,-0.03724534
19719049,19718945,-0.0047500697,0.0013015415,-0.09272298
19742239,19742144,-0.010823536,-0.09092858,-0.057817448
19767043,19766944,0.06962827,-0.08152645,0.030482098
19791044,19790944,0.086983286,0.023760434,0.06120599
19815083,19814980,-0.07870552,0.09250797,0.022581395
19839046,19838947,-0.06854744,-0.024202384,0.028936973
19863087,19862983,0.043790415,-0.07002537,-0.08735258
19884649,19884543,0.0565941,0.041900203,-0.16178313
19906246,19906145,-0.053453878,0.10617152,-0.1595144
19927045,19926944,-0.0759179,0.026510235,-0.027154516
19947047,19946943,0.015026393,-0.05245834,0.06554512
19968649,19968543,-0.045085642,-0.043018386,0.051073845
19990239,19990144,-0.126833,-0.00637336,0.0024557326
20014252,20014144,-0.034467366,-0.00019531557,-0.050591312
20035070,20034964,0.0837767,-0.008653629,-0.038424205
20055058,20054944,0.08253991,-0.03953933,-0.038442183
20076642,20076543,-0.036459964,0.0028662104,-0.035206173
20098294,20098181,0.017769873,0.009599518,0.0016034932
20119070,20118966,0.09332319,0.0056788498,0.0013422987
20139039,20138943,0.07294438,-0.018401846,-0.061581016
20159041,20158944,0.04152742,0.025026072,-0.15969352
20183198,20182996,-0.005615836,0.059048455,-0.17713705
20207041,20206944,-0.014642585,-0.014232184,-0.11977184
20231045,20230944,-0.0503913,0.011578669,-0.07805959
20251047,20250943,-0.07450474,-0.0089918,-0.040618017
20272638,20272543,-0.09091948,-0.03947537,-0.07681376
20295047,20294946,-0.02010841,0.03361664,-0.09602481
20319049,20318946,0.014140431,0.008596599,-0.11573557
20339044,20338946,0.0039170086,-0.013502354,-0.13392967
20359844,20359746,0.06012117,-0.009215005,-0.14645888
20383850,20383744,0.09187632,-0.02379886,-0.15051655
20407838,20407742,0.06493656,0.07491604,-0.107728675
20431858,20431755,0.04357649,0.013350051,-0.030323075
20455074,20454968,-0.0046634637,-0.0850181,-0.06308466
20475840,20475745,0.047965486,-0.03892063,-0.1411167
20495855,20495749,0.06814487,0.028873105,-0.14480688
20519098,20518993,-0.028154707,0.027131764,-0.12766585
20543044,20542944,0.0028204916,-0.011494191,-0.078880645
20563056,20562943,-0.046451315,-0.010098973,-0.090199865
20583858,20583744,-0.099776074,-0.012538908,-0.0940431
20607848,20607744,-0.0328198,0.016592942,-0.08809719
20631839,20631744,-0.00571483,0.021136433,-0.08440347
20655842,20655744,-0.0033827152,0.017097432,-0.09655713
20679841,20679744,0.009976527,-0.0065911696,-0.08761948
20703891,20703784,-0.012863756,0.01729069,-0.061052725
20723872,20723769,0.036952257,-0.0012151473,-0.03666297
20745495,20745384,0.03264767,-0.036325514,-0.027703824
20767893,20767779,-0.027894072,-0.021918837,-0.05461346
20791875,20791756,0.0060722427,0.019995801,-0.09052214
20815850,20815746,0.058528088,0.014288972,-0.06768402
20836657,20836543,0.023081757,0.008701012,-0.049347214
20856644,20856548,-0.011240485,-0.011160314,-0.08421137
20880660,20880561,-0.058644447,0.0033259862,-0.096028455
20904659,20904560,-0.06477461,0.030781161,-0.026772754
20928698,20928593,-0.024718838,-0.0014983905,0.0023964245
20948656,20948543,-0.047122393,0.025273517,-0.014347596
20968646,20968543,-0.048539564,-0.02755582,-0.09980716
20991841,20991745,-0.008937018,-0.017271591,-0.15637636
21015839,21015744,0.003164717,0.05620657,-0.121548094
21040662,21040560,0.023064252,0.0030428907,0.026481165
21063850,21063744,0.055628467,-0.039283708,0.09594124
21084645,21084543,-0.030170795,0.051691085,0.0034382967
21104639,21104544,-0.061590064,0.105090566,-0.06242747
21128650,21128555,-0.008756377,-0.04848036,-0.123140916
21152683,21152579,0.075575,0.0035163546,-0.10465469
21176649,21176544,0.07840038,0.0906341,-0.015735943
21196638,21196543,-0.076852426,0.028606895,0.06758137
21216639,21216544,-0.08492308,-0.0505727,0.1947129
21239842,21239744,0.008067694,-0.05502977,0.13722588
21264633,21264536,0.091477804,-0.014170256,-0.013378513
21288658,21288547,0.02533471,0.052470002,-0.2870698
21308844,21308641,0.002778016,0.03169966,-0.24534997
21329488,21329383,-0.06909296,-0.046567593,0.041258253
21351839,21351744,-0.032468047,-0.041579466,0.25607267
21376643,21376546,-0.032588318,0.009624636,0.12441659
21399839,21399744,0.04867338,0.049241424,-0.112873115
21420638,21420543,0.06010399,0.020151671,-0.28306112
21441441,21441344,-0.19828954,0.03349262,-0.120713495
21465493,21465387,-0.08485734,-0.05775343,0.16796505
21489458,21489362,0.12747115,-0.027555496,0.18856643
21512646,21512544,-0.09494503,0.06976632,0.023576856
21537481,21537378,-0.034045383,-0.028401941,-0.16721006
21560696,21560590,-0.05242652,0.034197673,-0.03387777
21581438,21581343,0.022850301,0.020055171,0.19312802
21603851,21603746,0.1365048,0.04625567,0.24759348
21624647,21624544,0.09378154,0.013183484,0.08028438
21648657,21648562,0.13310286,-0.052219756,-0.21489123
21669489,21669385,0.13789034,-0.022394318,-0.31145027
21689446,21689344,-0.02415137,0.030973868,-0.16435765
21712641,21712544,-0.09052147,-0.07984256,0.12257731
21736645,21736548,-0.057270423,-0.010576882,0.26054424
21760662,21760544,-0.20074004,-0.022501519,0.092999905
21781450,21781355,-0.12970324,-0.017088667,-0.09003955
21801464,21801369,0.044113856,-0.0033674443,-0.14717303
21824648,21824546,0.12718707,-0.005547668,-0.11201308
21849637,21849411,-0.040003035,0.11960022,-0.07497816
21873453,21873344,-0.015283221,0.0280217,0.0052300524
21897449,21897345,0.03998637,-0.04706223,0.054941423
21917446,21917346,0.07286192,-0.052671533,0.0036195247
21938243,21938145,0.088035315,0.026050366,-0.06642145
21962245,21962146,-0.03698079,-0.011481976,-0.079625286
21986241,21986145,-0.03432771,-0.056520235,0.024283417
22010242,22010146,0.06393435,-0.06132159,0.061056525
22034298,22034178,0.02806046,0.012740671,0.00985267
22058246,22058144,-0.062358547,0.019623103,-0.032846175
22078288,22078180,-0.051411122,-0.022947324,0.0014857091
22100639,22100544,0.03432081,0.008644141,-0.017333686
22121482,22121371,0.09468077,0.04333226,-0.09440323
22141449,22141351,-0.034530222,0.036765967,-0.16255102
22162263,22162145,-0.10997988,-0.0003866346,-0.13736966
22186242,22186146,-0.01571881,-0.0146586355,-0.020564826
22209448,22209344,0.016501741,0.0130483555,0.07623925
22233439,22233344,-0.033085935,0.020755675,0.05269499
22253444,22253346,0.0013570643,-0.033804744,-0.04966807
22274260,22274152,-0.027551675,-0.021766217,-0.09495938
22297439,22297344,0.028730344,0.0015157138,-0.03268409
22321455,22321360,0.0642017,-0.02357803,0.03755062
22346248,22346144,-0.018673712,0.026663423,0.031430338
22370263,22370160,0.060061663,-0.0326434,-0.07484345
22390284,22390177,0.06716984,0.014376858,-0.19054618
22411101,22410982,-0.024109107,0.039273534,-0.19804566
22434302,22434193,-0.11431202,0.016131852,0.026471151
22457460,22457365,-0.06665184,-0.025454883,0.21695253
22477449,22477354,-0.016262319,-0.08639906,0.10793428
22499044,22498944,0.028587138,-0.0025658356,-0.08398046
22519051,22518943,-0.035219654,0.055005193,-0.23576556
22541461,22541363,-0.043526527,-0.046172738,-0.13723855
22562247,22562144,0.03410191,-0.015626771,0.043748893
22583042,22582943,0.011445855,0.02787321,0.11997729
22603048,22602946,-0.018191064,0.048179056,0.10845531
22626248,22626147,0.052627124,-0.017445818,-0.027191505
22649456,22649344,0.018763764,-0.008922392,-0.1604983
22670238,22670143,0.044850986,-0.0048484458,-0.15025386
22691046,22690946,0.009376533,-0.008111633,-0.027482037
22714252,22714145,-0.034847006,0.0026010147,0.0763537
22738242,22738146,0.025394889,-0.027342234,0.065709345
22762243,22762145,-0.032704517,0.0040207584,-0.014668342
22782243,22782148,0.023010347,-0.00076681725,-0.08015863
22803084,22802980,0.10094015,0.029459884,-0.13396652
22826242,22826146,0.046039257,0.008648198,-0.11213458
22850239,22850144,-0.10889147,0.019330377,0.027778503
22875050,22874944,-0.07871296,-0.028709661,0.15726362
22899045,22898944,-0.05342537,0.004249445,0.08295896
22923041,22922944,0.07409913,0.0038733615,-0.072312
22947044,22946944,0.056226682,0.021643844,-0.20168096
22971897,22971789,-0.078877084,0.031864904,-0.10051066
22991857,22991762,0.014309728,-0.043336846,0.078279056
23014415,23014195,0.02523861,0.03401702,0.13647214
23035852,23035744,0.033498418,0.0077138674,0.031668708
23059082,23058963,-0.0013091506,0.022223685,-0.15828723
23079846,23079743,-0.041846067,-0.039212286,-0.17374337
23099859,23099747,0.01787404,-0.022799358,-0.04531948
23123086,23122981,0.038890056,0.057827413,0.114173874
23147046,23146944,-0.03453093,-0.028849054,0.13978095
23167053,23166946,0.012128873,-0.09392793,0.03168586
23187842,23187747,0.08927946,-0.02511033,-0.13839266
23211044,23210944,0.04728861,0.05904377,-0.18796946
23235855,23235749,-0.12204165,0.05300072,0.038807105
23259057,23258945,-0.08635752,-0.043852445,0.26828235
23279223,23279008,0.07270927,-0.12125985,0.15177669
23299848,23299745,0.0014787668,-0.0073012374,-0.043425485
23323079,23322955,-0.120458566,0.097020194,-0.18482742
23347091,23346985,0.008987673,-0.018379714,-0.11375175
23371060,23370946,0.017180845,-0.051433414,0.07635834
23391056,23390961,-0.0026421507,0.0007067064,0.087290764
23411860,23411761,0.042044953,0.07806337,-0.006998577
23433450,23433343,-0.004962422,0.02132209,-0.08553719
23455042,23454945,0.07076063,-0.012318521,-0.10669844
23475895,23475789,0.19952334,-0.055656645,-0.048438575
23495889,23495770,0.0068564834,0.0092134345,-0.04007375
23517493,23517380,-0.15592209,0.02382354,0.0052402876
23539847,23539744,0.007866265,-0.050975308,0.06514413
23563850,23563744,0.035492383,-0.097335264,-0.03223447
23588648,23588545,0.06513771,0.06962748,-0.17868352
23608659,23608546,-0.037719443,0.07068197,-0.20138162
23628640,23628545,-0.116963,0.010591205,-0.07409405
23651851,23651747,-0.03118714,-0.036490675,0.011711366
23675854,23675746,0.068942614,-0.0024320344,-0.019755686
23699843,23699745,-0.02815025,0.07474014,-0.20127094
23720655,23720546,-0.01420432,-0.027059272,-0.19413136
23740644,23740546,0.023897499,-0.030772801,-0.05193504
23764661,23764565,-0.07661943,0.03234979,0.03630412
23788659,23788546,-0.02585181,0.058914885,-0.026010431
23812639,23812544,0.08953618,0.0057747643,-0.15358138
23836639,23836544,-0.06701296,-0.01292761,-0.25050747
23860651,23860544,-0.01023547,-0.0130353505,-0.16115965
23880646,23880543,0.028225586,0.0006129723,-0.011964675
23903230,23903016,-0.039891046,0.015130548,0.1148379
23923850,23923744,-0.017680068,-0.03479536,0.09652307
23944652,23944546,0.027602814,-0.070289485,-0.11801588
23964645,23964551,0.019911058,-0.052657634,-0.21764994
23986264,23986143,-0.003189784,0.012859896,-0.20717593
24007842,24007747,0.08047653,0.008947256,-0.06500748
24028665,24028546,0.08846443,-0.0019130844,0.037393823
24048638,24048543,0.033646777,0.025844414,-0.016501542
24070243,24070143,-0.035062518,0.015030338,-0.15283
24091051,24090943,-0.0011146229,0.023855973,-0.22677961
24112657,24112543,0.07986463,-0.018773217,-0.20084815
24133450,24133346,0.0070712906,0.014290808,-0.13032685
24153444,24153346,-0.097791694,0.013268338,-0.06551961
24175050,24174943,-0.13130039,-0.041935205,-0.07659703
24197443,24197346,-0.107450604,0.00063726795,-0.090567395
24217486,24217382,-0.06228301,-0.037653733,-0.11961316
24237449,24237345,0.010479127,0.016496662,-0.13254072
24259052,24258946,-0.018788932,0.042422112,-0.08827158
24280651,24280545,0.048031986,-0.005064409,-0.03588325
24301439,24301344,0.15266591,0.033940695,-0.022221517
24325483,24325378,0.15303646,0.050210826,-0.09281667
24347040,24346943,0.0756844,0.028145164,-0.17800985
24367847,24367743,-0.047106937,-0.034804016,-0.13196753
24388639,24388544,-0.13261516,-0.049997773,0.008172134
24409438,24409343,-0.06646965,-0.02132747,0.037020486
24431048,24430946,0.040198594,-0.059397534,-0.036689933
24453477,24453368,0.0037898931,-0.018720148,-0.20508014
24477500,24477387,-0.109598756,0.048726127,-0.27313656
24497495,24497385,-0.047353692,-0.0015520656,-0.16161613
24517651,24517380,-0.012585855,0.043780413,-0.056842815
24539050,24538943,0.062699154,-0.015319845,-0.06262068
24560657,24560562,-0.06325619,0.050263453,-0.14944649
24581613,24581398,-0.06316874,0.03537105,-0.13809097
24601616,24601408,-0.0197723,-0.0011104092,-0.062100682
24621498,24621385,0.054266874,-0.012359462,0.01829644
24645480,24645378,0.07247933,-0.049449313,0.0049597705
24670242,24670146,-0.00018429628,0.025443986,-0.14722523
24694255,24694146,-0.013798928,-0.027756788,-0.12773116
24714248,24714143,0.07167302,-0.030050587,-0.037636798
24734251,24734146,0.050179683,0.024298191,0.0025342163
24757457,24757352,0.013045189,0.015989162,-0.09198318
24781441,24781344,0.0030253788,0.04649666,-0.17040692
24801451,24801352,-0.013138055,-0.026604876,-0.14270945
24822248,24822145,0.010955491,0.031765882,-0.06331269
24846239,24846144,0.039016776,0.010183224,0.012875923
24870293,24870190,0.03320046,0.012458029,-0.11983966
24894250,24894145,-0.023281304,0.0058970894,-0.24904434
24917498,24917387,-0.22532232,-0.07907679,-0.22002698
24938281,24938180,-0.12061032,-0.027980905,-0.06040735
24958240,24958145,0.016701706,0.026749458,0.06345048
24981454,24981350,0.06302926,-0.01040217,0.081492275
25006243,25006145,0.10511319,0.02951346,-0.18131115
25029439,25029344,0.06362141,0.09179109,-0.28202835
25050238,25050143,-0.013788145,0.011213323,-0.20877968
25070245,25070150,-0.0008832712,-0.037036266,0.07257257
25093439,25093344,-0.08535126,0.0123873195,0.23230878
25118247,25118144,-0.08641611,-0.088729694,0.13984741
25142282,25142164,0.07312752,-0.021918839,-0.063236296
25166253,25166149,0.13346669,-0.021335173,-0.17678046
25186260,25186148,0.007253588,0.08476375,-0.21471013
25207053,25206946,6.792601e-05,0.074958384,-0.11849788
25230241,25230145,-0.057887204,-0.0050099897,0.07824505
25255045,25254945,0.025056181,0.01982188,0.060134873
25279048,25278945,-0.0353512,-0.035343118,-0.050817307
25302286,25302178,-0.05208363,-0.0034370811,-0.11675974
25323271,25323003,0.109676436,0.03495049,-0.17007981
25345495,25345391,-0.011869784,-0.021772493,-0.10405074
25366246,25366150,-0.10074042,-0.047255114,-0.027458116
25390246,25390149,-0.054612845,-0.0064996537,0.07458298
25411068,25410962,-0.023708541,-0.030197645,0.13502754
25431057,25430958,0.028444292,-0.009730373,0.09588702
25454326,25454144,0.12462889,0.007001663,-0.09708416
25478264,25478161,0.05181656,0.056672055,-0.27620637
25498262,25498161,0.057571996,0.012785435,-0.24000265
25519052,25518946,-0.04138943,0.032760806,-0.053758886
25542281,25542179,-0.015091777,0.002254021,0.20017672
25567046,25566945,0.006753853,-0.060900513,0.15994997
25590258,25590157,-0.032908913,0.0045953724,-0.038341794
25614294,25614178,-0.0015050191,-0.01791778,-0.18101992
25635091,25634980,-0.030714314,0.0144656245,-0.11375062
25656003,25655798,0.011534422,-0.0039056812,0.04341028
25676854,25676635,0.05270468,-0.018595664,0.06263998
25698245,25698146,-0.0508705,0.08095089,-0.001225173
25719064,25718948,-0.035987552,0.032587297,-0.036395375
25739098,25738989,-0.02711795,-0.024407689,-0.04604068
25759887,25759777,0.05479145,-0.01711152,-0.029228738
25783047,25782946,0.025253562,0.020973133,-0.043949723
25807045,25806944,-0.09756492,0.009476699,0.0060646245
25831104,25830994,-0.045409437,-0.0799106,0.10860016
25851838,25851743,0.14834207,-0.03870657,0.028248731
25871846,25871744,0.023525579,0.07562225,-0.113897726
25895839,25895744,-0.08061185,0.023133192,-0.12463484
25919839,25919744,0.007792165,-0.021570794,-0.06472963
25943860,25943755,0.08307947,-0.049499296,0.017889462
25968071,25967857,0.06413299,0.055324666,-0.034353912
25987867,25987756,-0.05883365,0.09544776,-0.0780541
26010243,26010144,-0.016706226,-0.068258114,-0.026397822
26031079,26030966,0.088388585,-0.035335854,-0.06412028
26051090,26050986,0.08549062,0.04065708,-0.054642137
26072000,26071795,-0.034446865,0.0067208465,-0.052923128
26095854,26095744,-0.112069964,-0.0059485864,-0.04815113
26119048,26118946,-0.036846798,-0.03161936,-0.009144821
26143045,26142944,-0.0045794887,0.0013165195,-0.04234054
26167847,26167746,-0.055777673,0.04255805,-0.048812333
26187876,26187750,-0.06752425,0.0017905582,-0.027896764
26207849,26207746,0.10738888,0.008426409,0.006679901
26229442,26229343,0.24001943,-0.045659415,-0.10628041
26251073,26250964,0.070028305,0.045187365,-0.2727258
26271839,26271744,-0.07364187,0.04657656,-0.22699308
26291848,26291743,-0.11013082,-0.0026719016,-0.06541991
26312655,26312549,-0.08317095,-0.055413935,0.11683644
26335841,26335744,-0.023750192,-0.09997408,0.1172972
26359053,26358944,-0.0015721987,0.108191535,-0.036759593
26380804,26380629,0.030815998,-0.02404048,-0.18141568
26400654,26400547,0.0590452,0.022355713,-0.15264134
26424641,26424544,0.032567807,0.058886584,-0.06182135
26448651,26448555,-0.07146461,0.009994607,0.040273916
26472641,26472545,-0.038908742,0.039224733,0.044954605
26496650,26496546,0.14554404,-0.061805498,-0.07845342
26516782,26516603,0.052429724,0.03132545,-0.16482331
26536808,26536632,-0.09978842,0.036541954,-0.20601383
26559848,26559752,-0.08866195,-0.023712667,-0.03022742
26583909,26583789,-0.012643889,-0.035521816,0.11266357
26604654,26604548,0.025810994,-0.027369693,0.09013161
26624642,26624546,-0.019422812,0.042897336,-0.05499858
26648639,26648544,-0.009192189,-0.0075411964,-0.16552648
26671842,26671747,0.0671834,0.0011261618,-0.14904952
26696639,26696544,0.07680601,0.04321212,-0.104839444
26720639,26720544,-0.054567255,0.048692722,-0.024599116
26744657,26744562,-0.05780893,-0.01126092,-0.006670994
26765609,26765396,-0.04649378,-0.04061263,-0.0019256768
26785664,26785460,0.009212517,-0.02131055,-0.046105955
26808639,26808544,-0.04293129,0.0024003522,-0.12379045
26832657,26832545,-0.10607455,-0.011281699,-0.09751816
26856652,26856545,0.0053216764,-0.07213548,-0.007897254
26877441,26877343,0.022144837,0.018418228,0.027704712
26897443,26897346,0.011001179,0.03768565,0.05201071
26920653,26920546,0.030160623,0.040324166,-0.033072527
26945637,26945424,0.09999914,0.013388919,-0.097272195
26968656,26968546,0.10471166,-0.010665849,-0.14545336
26989438,26989343,-0.00939785,0.052075632,-0.13626382
27009448,27009346,-0.024976598,-0.0069300467,0.02390424
27031847,27031744,-0.062173188,-0.008656709,0.17098011
27052653,27052543,-0.019406505,-0.020934276,0.11869936
27073452,27073346,-0.01176525,-0.031184295,-0.060326956
27093451,27093343,-0.026020674,0.013296695,-0.19093485
27115839,27115744,-0.04582801,-0.009361118,-0.19248381
27137446,27137346,-0.012993159,-0.01759367,-0.05285498
27160652,27160555,0.017600445,0.024903324,0.12798129
27181479,27181375,0.010050342,0.0005157052,0.11073086
27203071,27202954,0.0035406589,0.04780853,0.011169476
27225493,27225385,0.042430453,0.005016204,-0.0998121
27249465,27249352,-0.061598953,-0.008430821,-0.038878724
27273441,27273345,-0.04534755,-0.03175339,0.10296087
27293438,27293343,0.030536056,-0.050876245,0.1096743
27315040,27314943,0.072235756,-0.0056749894,0.04001653
27336653,27336544,0.01835405,0.019891297,-0.042925052
27360650,27360544,-0.006023541,0.059288256,-0.08133851
27381450,27381351,0.042876877,-0.010165619,-0.042832684
27401439,27401344,-0.02484661,-0.0011098112,-0.014902186
27422240,27422145,-0.031645812,0.033493496,0.019624721
27444813,27444604,0.021858448,-0.027789611,-0.039448492
27466241,27466144,-0.022283368,0.011473382,-0.11436818
27486285,27486177,-0.067976266,-0.022224542,-0.062899835
27506258,27506148,-0.14787327,0.006447594,0.062002677
27529443,27529346,-0.054209627,-0.049550075,0.11878659
27553456,27553358,0.06468818,-0.057883494,0.028085263
27573453,27573358,-0.0052554496,0.027484313,-0.031556204
27594249,27594144,-0.03319385,-0.012079824,-0.06439713
27618243,27618147,0.061967917,0.03951694,-0.060009375
27642451,27642233,0.20044674,-0.0013202059,-0.034952417
27666249,27666144,-0.01697714,0.04867438,0.025752043
27690256,27690151,-0.13761649,0.026360255,0.10821552
27714254,27714145,0.037720773,-0.055390906,0.09126099
27734248,27734143,0.086896196,0.019282585,0.028142879
27755865,27755750,0.09257354,0.051706344,-0.1719914
27776695,27776589,-0.056010887,0.116226874,-0.25328425
27797438,27797343,-0.08203744,0.08181188,-0.11367862
27819103,27818997,0.045048606,0.05212761,0.11689164
27839896,27839792,0.035667907,0.014305222,0.27340063
27861443,27861344,-0.06444184,-0.03764252,0.25891668
27882248,27882148,-0.09012866,-0.16659313,0.06137855
27906245,27906149,-0.20899321,-0.00785368,-0.14041501
27926246,27926143,-0.021673163,-0.13397859,-0.11067026
27949449,27949354,0.010566866,-0.09324447,-0.034884576
27969439,27969344,-0.022818623,0.030583082,0.3502924
27990240,27990145,0.02887679,-0.070089184,0.3515013
28011044,28010943,0.12571552,0.0013159239,0.12796055
28035043,28034944,0.16036029,0.061925303,-0.25450423
28059064,28058946,0.05299597,0.25006074,-0.40028557
28083044,28082944,0.03725929,0.11372027,-0.1203567
28107052,28106957,0.026674654,-0.034765948,0.10366559
28131086,28130981,-0.0134639535,0.017199924,0.144102
28151040,28150943,-0.11825037,-0.06395155,0.09027923
28173506,28173393,-0.2059561,-0.06694694,-0.051203646
28194247,28194144,-0.00064350443,-0.044910565,-0.15378621
28218270,28218164,0.0073707043,-0.059827678,-0.046828236
28239046,28238946,-0.038135417,-0.08419475,0.0950821
28259077,28258959,-0.09478433,-0.005163541,0.31386486
28283049,28282944,0.1110885,-0.01445467,0.1498211
28307053,28306944,0.14275661,0.060884356,-0.18684502
28331216,28330992,-0.037403673,0.08736816,-0.28062314
28354249,28354144,0.14181985,0.09921513,-0.13756396
28375048,28374943,0.17842539,0.07082714,-0.010295834
28396649,28396543,0.11135422,-0.011984961,0.10250942
28418263,28418161,-0.07599101,-0.032915954,0.06755954
28442246,28442144,-0.18526992,-0.012693912,0.005118857
28463074,28462954,-0.14564107,-0.071774326,0.010068881
28483873,28483760,-0.1091779,-0.13413918,0.03232202
28504642,28504543,0.0076637417,0.004277756,0.044283647
28526279,28526178,0.023044344,0.016041953,-0.10358296
28547091,28546981,-0.09619416,0.026718443,-0.16950488
28567890,28567780,-0.04636917,0.13321559,-0.041150384
28587842,28587746,0.08530163,0.025114045,0.12781689
28611048,28610946,0.17025618,0.016663639,0.10539482
28631045,28630946,0.124139875,0.04480886,-0.023768356
28653492,28653380,0.07168403,0.01089165,-0.1986342
28675859,28675754,0.018473668,0.005199981,-0.1937949
28697481,28697365,-0.03755274,-0.08732164,-0.05986172
28719062,28718960,-0.06594964,-0.090421416,0.071877494
28739848,28739744,-0.073310904,-0.028229363,0.121756256
28759840,28759745,-0.11759462,0.048044834,0.0478519
28781452,28781343,-0.01834181,-0.10017483,0.04373105
28803860,28803755,0.08069699,-0.013870746,-0.17689297
28827889,28827781,0.016046781,0.073220566,-0.22586711
28852013,28851791,-0.02878809,0.068615876,-0.09339541
28871862,28871756,0.018066907,0.079779826,0.03243552
28893454,28893343,0.073898554,-0.0365334,0.046695396
28915849,28915745,0.0117806615,0.053903595,-0.045571167
28939841,28939745,-0.021995423,-0.017777305,-0.11102771
28963857,28963745,-0.061779514,-0.027319603,-0.065452375
28987840,28987743,-0.017665433,-0.039494313,0.01757073
29007846,29007743,0.0076041357,-0.02865889,0.05520075
29029438,29029343,-0.025946155,0.020003956,0.0018886128
29051839,29051744,0.007047946,-0.013365521,-0.06593139
29075850,29075750,0.042142652,0.008214053,-0.08470067
29096661,29096552,0.025333889,0.020862596,-0.074305035
29116643,29116546,0.045055546,0.041851047,-0.069919564
29140787,29140610,0.011944497,0.049635954,-0.05574731
29163867,29163747,0.012842145,-0.024550807,-0.026379712
29183848,29183743,-0.012247461,0.02536347,-0.022032643
29204695,29204590,-0.08593033,-0.0136499815,0.010647259
29224681,29224577,-0.11238815,-0.029727157,0.028253336
29247050,29246943,-0.045813024,-0.042669613,-0.0052050063
29268663,29268552,0.03744622,-0.044851243,0.0050190487
29288822,29288624,0.0041078827,0.031845212,0.046052907
29308676,29308571,0.053058002,0.056764673,0.038520176
29331864,29331746,0.11500683,-0.0025982838,-0.07203054
29356019,29355796,-0.0015743367,0.032867603,-0.12811522
29376649,29376543,-0.0818847,0.032889638,-0.047513716
29396654,29396557,-0.08849872,0.0055538053,0.07965351
29419853,29419749,0.028232398,-0.041672822,0.12816317
29443855,29443748,0.07332378,-0.0052078636,-0.052844003
29467850,29467747,-0.023466436,0.044993296,-0.2045133
29488686,29488551,0.0005421202,-0.00939312,-0.11969736
29508642,29508546,0.056814495,-0.019756958,0.059396442
29530238,29530143,0.010139064,0.0034931065,0.19797042
29551057,29550943,-0.11538597,-0.0091474885,0.1506443
29572668,29572551,-0.074976094,-0.033476472,0.024977243
29592641,29592546,0.023900863,-0.028599817,-0.09969517
29613443,29613345,0.03615839,-0.0053228233,-0.11855287
29637477,29637371,0.02205222,0.017499784,-0.055983804
29660642,29660546,0.013698237,0.04691864,0.005410962
29680691,29680580,-0.0070008105,0.036994264,0.053988907
29701605,29701395,0.0007067672,-0.01422248,0.057603292
29724647,29724547,0.043266725,0.025994664,-0.0004228442
29748654,29748547,0.015439068,-0.013008125,-0.06242673
29768649,29768543,-0.0019321204,-0.044976182,-0.0758854
29789618,29789389,-0.036905028,-0.01664528,-0.029443808
29809627,29809412,-0.11222541,-0.006767551,0.102000795
29831054,29830943,-0.04959785,-0.03289566,0.17151733
29852651,29852544,0.06546356,0.0016142013,0.09692965
29873446,29873343,0.017147487,-0.0014420988,-0.060796138
29893501,29893395,0.019631369,0.017377,-0.21789312
29917444,29917346,0.1156903,0.030080132,-0.1903506
29941453,29941350,0.05318287,-0.022477513,-0.0002945098
29964675,29964553,-0.07188678,0.058659084,0.120566316
29985490,29985385,-0.020379145,-0.013023111,0.12166625
30005443,30005348,0.021222472,-0.05722217,-0.025845373
30028653,30028555,0.007870388,-0.013008654,-0.16006924
30052647,30052547,-0.066352576,-0.005444059,-0.089348204
30072664,30072569,-0.0444962,-0.011526182,0.10623946
30093490,30093385,0.047702473,-0.01617678,0.17787403
30114286,30114164,0.011032482,-0.0019051655,0.08196977
30135847,30135743,-0.023862274,0.030733787,-0.066336885
30156639,30156544,-0.0052786926,0.023586541,-0.15105462
30177438,30177343,0.04538523,-0.006827372,-0.07300063
30198257,30198156,0.04886265,0.024145158,-0.002420793
30222263,30222149,-0.030654062,0.05642446,0.022047412
30246282,30246179,-0.030996412,0.0029449167,-0.0170322
30269467,30269365,-0.020367725,-0.009255379,-0.07272472
30293447,30293344,0.034485243,-0.02925432,-0.08329741
30314248,30314143,-0.0055668526,0.0063744104,-0.060591802
30334251,30334146,-0.046945054,0.017695092,0.03748927
30357452,30357346,-0.042707607,-0.009501699,0.120553866
30381483,30381363,0.008996314,-0.024526045,0.057181578
30401449,30401346,0.025252113,0.012555508,-0.06363153
30422258,30422145,0.04364043,0.023956979,-0.13469216
30446253,30446149,0.07882414,0.013653388,-0.07506986
30470239,30470144,0.030149784,0.01841402,0.0068146433
30494252,30494144,-0.026317865,0.009486912,0.052872896
30518284,30518183,-0.032055907,0.005684903,0.012056973
30542247,30542145,-0.012168062,-0.020527672,-0.01840382
30562257,30562143,-0.06586227,-0.0057708947,-0.005037765
30584642,30584544,-0.057945613,-0.01843941,0.039420985
30606290,30606181,-0.039441023,0.002918527,0.020625202
30629447,30629344,-0.012060019,-0.0021115572,-0.0033179626
30650262,30650161,0.010771943,0.027351698,-0.012413923
30670246,30670144,0.025999323,0.0029702939,-0.050698638
30695046,30694944,0.02377763,0.032068633,-0.04080746
30719045,30718946,0.041173566,0.010044629,-0.011551319
30743043,30742944,0.011583673,-0.011769652,0.026406936
30767111,30766992,-0.033595808,-0.008352439,0.022545911
30791044,30790946,0.0010261182,-0.027940053,-0.00026267068
30811061,30810958,0.002821779,-0.016412783,-0.008787207
30833439,30833344,0.048237644,-0.0027512368,-0.018360622
30854279,30854162,0.055548646,-0.0011285511,-0.056100797
30877439,30877344,-0.052650593,0.039787702,-0.07172781
30899042,30898943,-0.10088449,0.009616967,0.029209312
30919052,30918946,-0.022934072,-0.035456568,0.07761257
30941475,30941371,0.05744911,-0.0039571817,0.051673315
30961442,30961343,0.018611535,0.052079976,-0.034046672
30983087,30982961,0.0010611869,0.031633098,-0.15082304
31003058,31002960,0.019327564,-0.02589148,-0.121421926
31025492,31025376,0.002366706,-0.030637302,0.03953969
31046260,31046145,-0.034171134,0.0043053525,0.14113805
