timestamp,baro_alt_meter,baro_temp_celcius,baro_pressure_pa,rho
6667216,191.66064,28.449999,99044.0,1.1768066
6697630,192.08606,28.449999,99038.99,1.1767471
6707682,191.32243,28.449999,99048.0,1.1768541
6728076,192.33972,28.449999,99036.0,1.1767116
6738125,192.08606,28.449999,99038.99,1.1767471
6748175,191.7452,28.449999,99043.0,1.1767946
6768467,192.42429,28.439999,99035.0,1.1766996
6778516,191.66064,28.439999,99044.0,1.1768066
6788607,191.9143,28.439999,99041.0,1.1767709
6808759,191.7452,28.439999,99043.0,1.1767946
6818814,191.57611,28.439999,99044.99,1.1768184
6828866,192.00151,28.439999,99040.0,1.176759
6849084,191.15334,28.439999,99050.0,1.1768779
6859289,191.49153,28.439999,99046.0,1.1768303
6869344,191.66064,28.439999,99044.0,1.1768066
6889634,191.57611,28.439999,99044.99,1.1768184
6899685,192.08606,28.439999,99038.99,1.1767471
6909738,192.00151,28.439999,99040.0,1.176759
6930061,191.7452,28.439999,99043.0,1.1767946
6940112,192.08606,28.439999,99038.99,1.1767471
6950442,191.49153,28.439999,99046.0,1.1768303
6970547,191.66064,28.43,99044.0,1.1768066
6980643,191.57611,28.43,99044.99,1.1768184
6990816,191.66064,28.43,99044.0,1.1768066
7010921,191.82976,28.43,99042.0,1.1767828
7020981,191.57611,28.43,99044.99,1.1768184
7031219,191.7452,28.43,99043.0,1.1767946
7051374,191.82976,28.42,99042.0,1.1767828
7061433,191.32243,28.42,99048.0,1.1768541
7071485,192.33972,28.42,99036.0,1.1767116
7091640,191.7452,28.42,99043.0,1.1767946
7101691,191.7452,28.42,99043.0,1.1767946
7111748,192.08606,28.42,99038.99,1.1767471
7132004,191.407,28.42,99047.0,1.1768422
7142058,191.66064,28.42,99044.0,1.1768066
7152109,191.7452,28.42,99043.0,1.1767946
7172483,191.7452,28.41,99043.0,1.1767946
7182533,191.407,28.41,99047.0,1.1768422
7192813,191.9143,28.41,99041.0,1.1767709
7212961,191.49153,28.41,99046.0,1.1768303
7223231,192.00151,28.41,99040.0,1.176759
7233339,191.66064,28.41,99044.0,1.1768066
7253442,192.17061,28.41,99038.0,1.1767353
7263629,191.66064,28.41,99044.0,1.1768066
7273677,191.9143,28.41,99041.0,1.1767709
7293814,191.57611,28.41,99044.99,1.1768184
7304002,191.407,28.41,99047.0,1.1768422
7314079,191.82976,28.41,99042.0,1.1767828
7334447,191.57611,28.41,99044.99,1.1768184
7344497,192.08606,28.41,99038.99,1.1767471
7354547,191.57611,28.41,99044.99,1.1768184
7374921,191.57611,28.4,99044.99,1.1768184
7384975,191.66064,28.4,99044.0,1.1768066
7395372,192.42429,28.4,99035.0,1.1766996
7415637,191.7452,28.4,99043.0,1.1767946
7425681,191.407,28.4,99047.0,1.1768422
7435730,192.08606,28.4,99038.99,1.1767471
7456025,191.7452,28.4,99043.0,1.1767946
7466086,192.17061,28.4,99038.0,1.1767353
7476152,192.42429,28.4,99035.0,1.1766996
7496477,191.57611,28.39,99044.99,1.1768184
7506539,191.7452,28.39,99043.0,1.1767946
7516814,192.08606,28.39,99038.99,1.1767471
7536917,192.50883,28.39,99034.0,1.1766877
7547259,191.9143,28.39,99041.0,1.1767709
7557323,191.407,28.39,99047.0,1.1768422
7577660,191.82976,28.39,99042.0,1.1767828
7587748,191.9143,28.39,99041.0,1.1767709
7597798,191.49153,28.39,99046.0,1.1768303
7618086,191.82976,28.38,99042.0,1.1767828
7628164,192.00151,28.38,99040.0,1.176759
7638207,192.17061,28.38,99038.0,1.1767353
7658421,192.08606,28.38,99038.99,1.1767471
7668469,191.66064,28.38,99044.0,1.1768066
7678574,191.49153,28.38,99046.0,1.1768303
7698913,191.49153,28.38,99046.0,1.1768303
7709013,191.66064,28.38,99044.0,1.1768066
7719303,192.00151,28.38,99040.0,1.176759
7739655,192.08606,28.369999,99038.99,1.1767471
7749706,191.9143,28.369999,99041.0,1.1767709
7760002,191.407,28.369999,99047.0,1.1768422
7780128,192.00151,28.369999,99040.0,1.176759
7790207,191.82976,28.369999,99042.0,1.1767828
7800307,191.49153,28.369999,99046.0,1.1768303
7820487,192.17061,28.369999,99038.0,1.1767353
7830539,191.32243,28.369999,99048.0,1.1768541
7840850,192.17061,28.369999,99038.0,1.1767353
7860957,191.57611,28.369999,99044.99,1.1768184
7871208,191.57611,28.369999,99044.99,1.1768184
7881262,191.9143,28.369999,99041.0,1.1767709
7901607,191.7452,28.359999,99043.0,1.1767946
7911667,191.82976,28.359999,99042.0,1.1767828
7921720,191.15334,28.359999,99050.0,1.1768779
7942110,191.66064,28.359999,99044.0,1.1768066
7952159,191.66064,28.359999,99044.0,1.1768066
7962210,192.08606,28.359999,99038.99,1.1767471
7982407,191.66064,28.359999,99044.0,1.1768066
7992492,191.407,28.359999,99047.0,1.1768422
8002540,192.08606,28.359999,99038.99,1.1767471
8022872,192.00151,28.359999,99040.0,1.176759
8032922,191.57611,28.359999,99044.99,1.1768184
8043186,191.82976,28.359999,99042.0,1.1767828
8063330,192.08606,28.359999,99038.99,1.1767471
8073643,191.32243,28.359999,99048.0,1.1768541
8083722,191.66064,28.359999,99044.0,1.1768066
8104144,192.08606,28.349998,99038.99,1.1767471
8114275,191.407,28.349998,99047.0,1.1768422
8124347,191.57611,28.349998,99044.99,1.1768184
8144508,191.9143,28.349998,99041.0,1.1767709
8154567,192.17061,28.349998,99038.0,1.1767353
8164845,191.7452,28.349998,99043.0,1.1767946
8184946,192.25517,28.349998,99037.0,1.1767234
8195018,191.7452,28.349998,99043.0,1.1767946
8205077,191.9143,28.349998,99041.0,1.1767709
8225234,191.82976,28.349998,99042.0,1.1767828
8235329,191.7452,28.349998,99043.0,1.1767946
8245649,192.33972,28.349998,99036.0,1.1767116
8265746,191.7452,28.349998,99043.0,1.1767946
8276048,192.17061,28.349998,99038.0,1.1767353
8286097,192.17061,28.349998,99038.0,1.1767353
8306429,191.7452,28.34,99043.0,1.1767946
8316478,191.66064,28.34,99044.0,1.1768066
8326530,191.57611,28.34,99044.99,1.1768184
8346891,191.49153,28.34,99046.0,1.1768303
8356940,191.7452,28.34,99043.0,1.1767946
8367012,191.66064,28.34,99044.0,1.1768066
8387167,192.42429,28.34,99035.0,1.1766996
8397224,191.49153,28.34,99046.0,1.1768303
8407325,191.82976,28.34,99042.0,1.1767828
8427649,191.407,28.34,99047.0,1.1768422
8437711,191.49153,28.34,99046.0,1.1768303
8448028,191.7452,28.34,99043.0,1.1767946
8468164,191.49153,28.34,99046.0,1.1768303
8478474,192.00151,28.34,99040.0,1.176759
8488538,191.82976,28.34,99042.0,1.1767828
8508835,191.66064,28.33,99044.0,1.1768066
8518886,191.7452,28.33,99043.0,1.1767946
8528953,191.7452,28.33,99043.0,1.1767946
8549077,192.08606,28.33,99038.99,1.1767471
8559158,191.7452,28.33,99043.0,1.1767946
8569267,192.17061,28.33,99038.0,1.1767353
8589657,192.00151,28.33,99040.0,1.176759
8599706,192.17061,28.33,99038.0,1.1767353
8609766,191.82976,28.33,99042.0,1.1767828
8630061,191.7452,28.32,99043.0,1.1767946
8640129,191.82976,28.32,99042.0,1.1767828
8650391,192.17061,28.32,99038.0,1.1767353
8670486,191.57611,28.32,99044.99,1.1768184
8680540,191.7452,28.32,99043.0,1.1767946
8690589,191.9143,28.32,99041.0,1.1767709
8710929,191.82976,28.32,99042.0,1.1767828
8720990,192.00151,28.32,99040.0,1.176759
8731216,191.7452,28.32,99043.0,1.1767946
8751324,191.66064,28.32,99044.0,1.1768066
8761628,191.49153,28.32,99046.0,1.1768303
8771678,192.17061,28.32,99038.0,1.1767353
8791807,192.08606,28.32,99038.99,1.1767471
8801865,191.66064,28.32,99044.0,1.1768066
8811987,192.08606,28.32,99038.99,1.1767471
8832085,191.7452,28.31,99043.0,1.1767946
8842145,191.7452,28.31,99043.0,1.1767946
8852196,191.23788,28.31,99049.0,1.1768659
8872434,191.82976,28.32,99042.0,1.1767828
8882486,191.9143,28.32,99041.0,1.1767709
8892539,192.00151,28.32,99040.0,1.176759
8912844,191.7452,28.31,99043.0,1.1767946
8922896,191.9143,28.31,99041.0,1.1767709
8932969,192.08606,28.31,99038.99,1.1767471
8953336,191.32243,28.31,99048.0,1.1768541
8963388,191.407,28.31,99047.0,1.1768422
8973611,192.17061,28.31,99038.0,1.1767353
8993760,191.7452,28.31,99043.0,1.1767946
9003806,192.17061,28.31,99038.0,1.1767353
9013860,192.33972,28.31,99036.0,1.1767116
9034100,191.9143,28.31,99041.0,1.1767709
9044158,191.7452,28.31,99043.0,1.1767946
9054397,191.7452,28.31,99043.0,1.1767946
9074492,191.57611,28.31,99044.99,1.1768184
9084545,191.49153,28.31,99046.0,1.1768303
9094594,191.32243,28.31,99048.0,1.1768541
9114892,191.66064,28.31,99044.0,1.1768066
9124946,191.66064,28.31,99044.0,1.1768066
9135230,191.7452,28.31,99043.0,1.1767946
9155385,191.66064,28.3,99044.0,1.1768066
9165652,192.08606,28.3,99038.99,1.1767471
9175708,191.9143,28.3,99041.0,1.1767709
9196107,191.32243,28.3,99048.0,1.1768541
9206421,192.25517,28.3,99037.0,1.1767234
9216472,191.82976,28.3,99042.0,1.1767828
9236827,191.7452,28.3,99043.0,1.1767946
9246876,191.57611,28.3,99044.99,1.1768184
9256967,191.9143,28.3,99041.0,1.1767709
9277321,192.17061,28.3,99038.0,1.1767353
9287384,191.7452,28.3,99043.0,1.1767946
9297624,192.33972,28.3,99036.0,1.1767116
9317736,191.82976,28.289999,99042.0,1.1767828
9328060,191.9143,28.289999,99041.0,1.1767709
9338110,192.00151,28.289999,99040.0,1.176759
9358428,191.57611,28.289999,99044.99,1.1768184
9368479,191.66064,28.289999,99044.0,1.1768066
9378553,191.9143,28.289999,99041.0,1.1767709
9398689,191.66064,28.289999,99044.0,1.1768066
9408785,192.33972,28.289999,99036.0,1.1767116
9418836,191.82976,28.289999,99042.0,1.1767828
9439306,191.9143,28.289999,99041.0,1.1767709
9449648,191.66064,28.289999,99044.0,1.1768066
9459747,191.32243,28.289999,99048.0,1.1768541
9480049,191.407,28.289999,99047.0,1.1768422
9490112,191.407,28.289999,99047.0,1.1768422
9500165,191.57611,28.289999,99044.99,1.1768184
9520471,191.49153,28.289999,99046.0,1.1768303
9530537,191.32243,28.289999,99048.0,1.1768541
9540610,191.32243,28.289999,99048.0,1.1768541
9560785,191.82976,28.279999,99042.0,1.1767828
9570840,192.08606,28.279999,99038.99,1.1767471
9580891,192.00151,28.279999,99040.0,1.176759
9600998,192.17061,28.289999,99038.0,1.1767353
9611231,191.82976,28.289999,99042.0,1.1767828
9621323,191.49153,28.289999,99046.0,1.1768303
9641626,191.49153,28.279999,99046.0,1.1768303
9651676,192.00151,28.279999,99040.0,1.176759
9661726,192.08606,28.279999,99038.99,1.1767471
9682068,191.57611,28.279999,99044.99,1.1768184
9692119,191.32243,28.279999,99048.0,1.1768541
9702458,191.66064,28.279999,99044.0,1.1768066
9722553,191.9143,28.279999,99041.0,1.1767709
9732607,191.7452,28.279999,99043.0,1.1767946
9742656,191.7452,28.279999,99043.0,1.1767946
9762841,191.7452,28.279999,99043.0,1.1767946
9772890,191.7452,28.279999,99043.0,1.1767946
9782943,191.7452,28.279999,99043.0,1.1767946
9803230,191.23788,28.269999,99049.0,1.1768659
9813324,191.9143,28.269999,99041.0,1.1767709
9823373,192.33972,28.269999,99036.0,1.1767116
9843474,191.82976,28.279999,99042.0,1.1767828
9853623,191.49153,28.279999,99046.0,1.1768303
9863673,192.08606,28.279999,99038.99,1.1767471
9884037,191.7452,28.269999,99043.0,1.1767946
9894085,191.9143,28.269999,99041.0,1.1767709
9904170,191.82976,28.269999,99042.0,1.1767828
9924545,191.82976,28.269999,99042.0,1.1767828
9934602,191.82976,28.269999,99042.0,1.1767828
9944867,191.9143,28.269999,99041.0,1.1767709
9965009,191.9143,28.269999,99041.0,1.1767709
9975231,191.32243,28.269999,99048.0,1.1768541
9985337,192.08606,28.269999,99038.99,1.1767471
10005446,191.9143,28.269999,99041.0,1.1767709
10015504,191.9143,28.269999,99041.0,1.1767709
10025584,192.25517,28.269999,99037.0,1.1767234
10045736,191.9143,28.269999,99041.0,1.1767709
10056083,191.407,28.269999,99047.0,1.1768422
10066137,191.7452,28.269999,99043.0,1.1767946
10086484,191.66064,28.269999,99044.0,1.1768066
10096537,191.66064,28.269999,99044.0,1.1768066
10106587,191.82976,28.269999,99042.0,1.1767828
10126883,191.23788,28.269999,99049.0,1.1768659
10136935,191.32243,28.269999,99048.0,1.1768541
10147233,191.7452,28.269999,99043.0,1.1767946
10167367,191.49153,28.269999,99046.0,1.1768303
10177443,191.15334,28.269999,99050.0,1.1768779
10187493,191.9143,28.269999,99041.0,1.1767709
10207694,191.49153,28.26,99046.0,1.1768303
10217753,191.82976,28.26,99042.0,1.1767828
10228023,191.57611,28.26,99044.99,1.1768184
10248177,191.23788,28.269999,99049.0,1.1768659
10258430,191.7452,28.269999,99043.0,1.1767946
10268478,191.7452,28.269999,99043.0,1.1767946
10288784,191.407,28.26,99047.0,1.1768422
10298852,191.49153,28.26,99046.0,1.1768303
10308904,191.57611,28.26,99044.99,1.1768184
10329335,191.32243,28.26,99048.0,1.1768541
10339385,192.08606,28.26,99038.99,1.1767471
10349433,191.66064,28.26,99044.0,1.1768066
10369587,191.9143,28.26,99041.0,1.1767709
10379637,191.7452,28.26,99043.0,1.1767946
10389688,191.82976,28.26,99042.0,1.1767828
10409787,191.32243,28.26,99048.0,1.1768541
10420060,191.57611,28.26,99044.99,1.1768184
10430117,191.23788,28.26,99049.0,1.1768659
10450210,191.407,28.26,99047.0,1.1768422
10460264,191.49153,28.26,99046.0,1.1768303
10470417,191.7452,28.26,99043.0,1.1767946
10490531,191.9143,28.26,99041.0,1.1767709
10500779,191.57611,28.26,99044.99,1.1768184
10510827,192.17061,28.26,99038.0,1.1767353
10531241,191.407,28.26,99047.0,1.1768422
10541375,191.9143,28.26,99041.0,1.1767709
10551426,191.57611,28.26,99044.99,1.1768184
10571693,191.66064,28.25,99044.0,1.1768066
10581748,191.7452,28.25,99043.0,1.1767946
10592018,191.57611,28.25,99044.99,1.1768184
10612126,192.17061,28.25,99038.0,1.1767353
10622207,192.00151,28.25,99040.0,1.176759
10632258,191.57611,28.25,99044.99,1.1768184
10652506,191.9143,28.25,99041.0,1.1767709
10662558,192.00151,28.25,99040.0,1.176759
10672864,192.00151,28.25,99040.0,1.176759
10692961,191.66064,28.25,99044.0,1.1768066
10703248,191.23788,28.25,99049.0,1.1768659
10713326,191.57611,28.25,99044.99,1.1768184
10733608,192.17061,28.25,99038.0,1.1767353
10743659,191.32243,28.25,99048.0,1.1768541
10753708,192.08606,28.25,99038.99,1.1767471
10774072,191.9143,28.24,99041.0,1.1767709
10784137,191.82976,28.24,99042.0,1.1767828
10794240,192.00151,28.24,99040.0,1.176759
10814444,191.82976,28.25,99042.0,1.1767828
10824494,192.00151,28.25,99040.0,1.176759
10834544,191.57611,28.25,99044.99,1.1768184
10854870,191.57611,28.24,99044.99,1.1768184
10864919,191.23788,28.24,99049.0,1.1768659
10875226,192.00151,28.24,99040.0,1.176759
10895380,191.49153,28.24,99046.0,1.1768303
10905623,192.00151,28.24,99040.0,1.176759
10915700,191.82976,28.24,99042.0,1.1767828
10936019,191.66064,28.24,99044.0,1.1768066
10946068,191.7452,28.24,99043.0,1.1767946
10956128,191.9143,28.24,99041.0,1.1767709
10976485,191.7452,28.24,99043.0,1.1767946
10986540,191.32243,28.24,99048.0,1.1768541
10996847,192.08606,28.24,99038.99,1.1767471
11016942,191.57611,28.24,99044.99,1.1768184
11027055,191.82976,28.24,99042.0,1.1767828
11037218,191.66064,28.24,99044.0,1.1768066
11057326,191.57611,28.24,99044.99,1.1768184
11067377,191.82976,28.24,99042.0,1.1767828
11077664,191.9143,28.24,99041.0,1.1767709
11097765,192.00151,28.24,99040.0,1.176759
11108067,191.7452,28.24,99043.0,1.1767946
11118126,191.9143,28.24,99041.0,1.1767709
11138430,191.57611,28.24,99044.99,1.1768184
11148484,191.66064,28.24,99044.0,1.1768066
11158547,191.32243,28.24,99048.0,1.1768541
11178928,191.7452,28.24,99043.0,1.1767946
11188980,191.66064,28.24,99044.0,1.1768066
11199032,191.49153,28.24,99046.0,1.1768303
11219248,191.407,28.23,99047.0,1.1768422
11229336,191.82976,28.23,99042.0,1.1767828
11239391,191.66064,28.23,99044.0,1.1768066
11259669,192.17061,28.23,99038.0,1.1767353
11269737,191.82976,28.23,99042.0,1.1767828
11280045,191.57611,28.23,99044.99,1.1768184
11300180,191.32243,28.24,99048.0,1.1768541
11310418,191.32243,28.24,99048.0,1.1768541
11320472,191.407,28.24,99047.0,1.1768422
11340885,191.9143,28.23,99041.0,1.1767709
11350938,191.9143,28.23,99041.0,1.1767709
11361004,192.08606,28.23,99038.99,1.1767471
11381143,191.7452,28.23,99043.0,1.1767946
11391200,191.407,28.23,99047.0,1.1768422
11401298,191.9143,28.23,99041.0,1.1767709
11421735,191.9143,28.23,99041.0,1.1767709
11432013,191.66064,28.23,99044.0,1.1768066
11442062,191.407,28.23,99047.0,1.1768422
11462426,191.407,28.23,99047.0,1.1768422
11472474,191.407,28.23,99047.0,1.1768422
11482547,191.7452,28.23,99043.0,1.1767946
11502879,191.57611,28.23,99044.99,1.1768184
11512930,191.7452,28.23,99043.0,1.1767946
11523206,192.08606,28.23,99038.99,1.1767471
11543323,191.9143,28.23,99041.0,1.1767709
11553725,191.82976,28.23,99042.0,1.1767828
11563871,191.49153,28.23,99046.0,1.1768303
11584115,191.82976,28.23,99042.0,1.1767828
11594431,191.9143,28.23,99041.0,1.1767709
11604517,191.82976,28.23,99042.0,1.1767828
11624906,191.82976,28.23,99042.0,1.1767828
11635251,192.00151,28.23,99040.0,1.176759
11645325,192.17061,28.23,99038.0,1.1767353
11665769,191.7452,28.23,99043.0,1.1767946
11675827,192.00151,28.23,99040.0,1.176759
11685875,191.7452,28.23,99043.0,1.1767946
11706033,192.08606,28.22,99038.99,1.1767471
11716088,191.82976,28.22,99042.0,1.1767828
11726146,191.7452,28.22,99043.0,1.1767946
11746475,191.7452,28.23,99043.0,1.1767946
11756526,191.82976,28.23,99042.0,1.1767828
11766609,192.08606,28.23,99038.99,1.1767471
11786931,191.57611,28.22,99044.99,1.1768184
11796986,191.15334,28.22,99050.0,1.1768779
11807188,191.9143,28.22,99041.0,1.1767709
11827321,191.57611,28.22,99044.99,1.1768184
11837688,191.407,28.22,99047.0,1.1768422
11847751,192.00151,28.22,99040.0,1.176759
11867850,191.82976,28.22,99042.0,1.1767828
11877904,191.9143,28.22,99041.0,1.1767709
11888041,192.08606,28.22,99038.99,1.1767471
11908138,191.66064,28.22,99044.0,1.1768066
11918488,191.49153,28.22,99046.0,1.1768303
11928542,191.82976,28.22,99042.0,1.1767828
11948861,191.49153,28.22,99046.0,1.1768303
11958912,191.7452,28.22,99043.0,1.1767946
11968965,191.57611,28.22,99044.99,1.1768184
11989236,191.57611,28.22,99044.99,1.1768184
11999340,191.66064,28.22,99044.0,1.1768066
12009670,191.49153,28.22,99046.0,1.1768303
12029775,191.23788,28.22,99049.0,1.1768659
12040020,191.82976,28.22,99042.0,1.1767828
12050069,191.82976,28.22,99042.0,1.1767828
12070497,191.82976,28.22,99042.0,1.1767828
12080615,192.33972,28.22,99036.0,1.1767116
12090664,191.49153,28.22,99046.0,1.1768303
12110886,192.00151,28.22,99040.0,1.176759
12120934,191.49153,28.22,99046.0,1.1768303
12131194,191.7452,28.22,99043.0,1.1767946
12151323,192.08606,28.22,99038.99,1.1767471
12161696,192.42429,28.22,99035.0,1.1766996
12172010,192.08606,28.22,99038.99,1.1767471
12192107,191.82976,28.22,99042.0,1.1767828
12202491,191.9143,28.22,99041.0,1.1767709
12212545,191.7452,28.22,99043.0,1.1767946
12232663,191.82976,28.21,99042.0,1.1767828
12242712,191.7452,28.21,99043.0,1.1767946
12252849,191.57611,28.21,99044.99,1.1768184
12272945,191.7452,28.21,99043.0,1.1767946
12283215,191.57611,28.21,99044.99,1.1768184
12293327,191.9143,28.21,99041.0,1.1767709
12313634,191.7452,28.21,99043.0,1.1767946
12323689,191.82976,28.21,99042.0,1.1767828
12333743,191.23788,28.21,99049.0,1.1768659
12354118,191.9143,28.22,99041.0,1.1767709
12364169,191.49153,28.22,99046.0,1.1768303
12374484,192.00151,28.22,99040.0,1.176759
12394626,191.82976,28.21,99042.0,1.1767828
12404795,191.9143,28.21,99041.0,1.1767709
12414870,192.25517,28.21,99037.0,1.1767234
12435294,191.9143,28.21,99041.0,1.1767709
12445394,191.407,28.21,99047.0,1.1768422
12455449,191.9143,28.21,99041.0,1.1767709
12476045,191.49153,28.21,99046.0,1.1768303
12486129,192.25517,28.21,99037.0,1.1767234
12496187,191.7452,28.21,99043.0,1.1767946
12516461,191.57611,28.21,99044.99,1.1768184
12526565,191.9143,28.21,99041.0,1.1767709
12536610,191.57611,28.21,99044.99,1.1768184
12556787,191.82976,28.21,99042.0,1.1767828
12566844,191.9143,28.21,99041.0,1.1767709
12576905,192.08606,28.21,99038.99,1.1767471
12597374,192.17061,28.21,99038.0,1.1767353
12607432,191.7452,28.21,99043.0,1.1767946
12617552,191.66064,28.21,99044.0,1.1768066
12637680,191.66064,28.21,99044.0,1.1768066
12647731,191.15334,28.21,99050.0,1.1768779
12657782,191.7452,28.21,99043.0,1.1767946
12678065,191.57611,28.21,99044.99,1.1768184
12688119,191.82976,28.21,99042.0,1.1767828
12698446,192.25517,28.21,99037.0,1.1767234
12718574,191.7452,28.21,99043.0,1.1767946
12728838,191.66064,28.21,99044.0,1.1768066
12738887,191.82976,28.21,99042.0,1.1767828
12759296,192.08606,28.21,99038.99,1.1767471
12769412,191.9143,28.21,99041.0,1.1767709
12779462,191.82976,28.21,99042.0,1.1767828
12799605,191.23788,28.21,99049.0,1.1768659
12809656,191.9143,28.21,99041.0,1.1767709
12819706,192.00151,28.21,99040.0,1.176759
12840029,191.49153,28.199999,99046.0,1.1768303
12850077,191.7452,28.199999,99043.0,1.1767946
12860132,191.9143,28.199999,99041.0,1.1767709
12880489,191.66064,28.199999,99044.0,1.1768066
12890550,191.82976,28.199999,99042.0,1.1767828
12900820,191.9143,28.199999,99041.0,1.1767709
12920918,192.00151,28.199999,99040.0,1.176759
12931241,191.49153,28.199999,99046.0,1.1768303
12941323,191.82976,28.199999,99042.0,1.1767828
12961425,192.08606,28.21,99038.99,1.1767471
12971474,191.57611,28.21,99044.99,1.1768184
12981567,192.00151,28.21,99040.0,1.176759
13001661,191.49153,28.21,99046.0,1.1768303
13011710,192.00151,28.21,99040.0,1.176759
13021771,191.407,28.21,99047.0,1.1768422
13042142,191.23788,28.21,99049.0,1.1768659
13052191,191.57611,28.21,99044.99,1.1768184
13062243,191.57611,28.21,99044.99,1.1768184
13082457,192.33972,28.199999,99036.0,1.1767116
13092506,191.9143,28.199999,99041.0,1.1767709
13102558,191.82976,28.199999,99042.0,1.1767828
13122862,192.25517,28.199999,99037.0,1.1767234
13132922,192.08606,28.199999,99038.99,1.1767471
13143241,192.00151,28.199999,99040.0,1.176759
13163369,191.407,28.199999,99047.0,1.1768422
13173576,191.49153,28.199999,99046.0,1.1768303
13183626,192.17061,28.199999,99038.0,1.1767353
13203758,191.407,28.199999,99047.0,1.1768422
13213809,191.49153,28.199999,99046.0,1.1768303
13224153,191.407,28.199999,99047.0,1.1768422
13244280,191.82976,28.199999,99042.0,1.1767828
13254391,192.08606,28.199999,99038.99,1.1767471
13264449,191.49153,28.199999,99046.0,1.1768303
13284809,191.82976,28.199999,99042.0,1.1767828
13294857,192.08606,28.199999,99038.99,1.1767471
13304909,191.82976,28.199999,99042.0,1.1767828
13325318,191.82976,28.199999,99042.0,1.1767828
13335369,191.7452,28.199999,99043.0,1.1767946
13345732,191.9143,28.199999,99041.0,1.1767709
13366125,191.82976,28.199999,99042.0,1.1767828
13376180,191.82976,28.199999,99042.0,1.1767828
13386228,191.66064,28.199999,99044.0,1.1768066
13406418,191.57611,28.199999,99044.99,1.1768184
13416468,191.49153,28.199999,99046.0,1.1768303
13426517,191.57611,28.199999,99044.99,1.1768184
13446852,192.08606,28.199999,99038.99,1.1767471
13456975,191.82976,28.199999,99042.0,1.1767828
13467259,191.57611,28.199999,99044.99,1.1768184
13487368,191.7452,28.199999,99043.0,1.1767946
13497592,191.7452,28.199999,99043.0,1.1767946
13507647,191.82976,28.199999,99042.0,1.1767828
13527743,191.66064,28.189999,99044.0,1.1768066
13537853,191.82976,28.189999,99042.0,1.1767828
13548040,192.00151,28.189999,99040.0,1.176759
13568147,191.9143,28.199999,99041.0,1.1767709
13578226,192.17061,28.199999,99038.0,1.1767353
13588322,192.42429,28.199999,99035.0,1.1766996
13608478,191.57611,28.199999,99044.99,1.1768184
13618524,191.82976,28.199999,99042.0,1.1767828
13628850,192.00151,28.199999,99040.0,1.176759
13648996,191.82976,28.189999,99042.0,1.1767828
13659062,191.57611,28.189999,99044.99,1.1768184
13669146,191.9143,28.189999,99041.0,1.1767709
13689300,191.82976,28.199999,99042.0,1.1767828
13699348,191.7452,28.199999,99043.0,1.1767946
13709653,191.7452,28.199999,99043.0,1.1767946
13729771,191.7452,28.189999,99043.0,1.1767946
13740042,191.82976,28.189999,99042.0,1.1767828
13750096,191.66064,28.189999,99044.0,1.1768066
13770429,191.49153,28.189999,99046.0,1.1768303
13780478,191.7452,28.189999,99043.0,1.1767946
13790530,191.66064,28.189999,99044.0,1.1768066
13810954,191.57611,28.189999,99044.99,1.1768184
13821072,191.66064,28.189999,99044.0,1.1768066
13831344,191.7452,28.189999,99043.0,1.1767946
13851706,192.00151,28.189999,99040.0,1.176759
13861752,191.7452,28.189999,99043.0,1.1767946
13872017,191.9143,28.189999,99041.0,1.1767709
13892121,191.66064,28.199999,99044.0,1.1768066
13902423,191.82976,28.199999,99042.0,1.1767828
13912477,191.57611,28.199999,99044.99,1.1768184
13932800,191.66064,28.189999,99044.0,1.1768066
13942879,192.25517,28.189999,99037.0,1.1767234
13952930,192.17061,28.189999,99038.0,1.1767353
13973071,191.57611,28.189999,99044.99,1.1768184
13983208,192.08606,28.189999,99038.99,1.1767471
13993260,191.57611,28.189999,99044.99,1.1768184
14013680,192.25517,28.189999,99037.0,1.1767234
14023742,191.57611,28.189999,99044.99,1.1768184
14033808,191.82976,28.189999,99042.0,1.1767828
14054069,191.57611,28.189999,99044.99,1.1768184
14064126,191.66064,28.189999,99044.0,1.1768066
14074437,191.66064,28.189999,99044.0,1.1768066
14094541,191.7452,28.189999,99043.0,1.1767946
14104868,191.57611,28.189999,99044.99,1.1768184
14114922,191.82976,28.189999,99042.0,1.1767828
14135262,191.49153,28.189999,99046.0,1.1768303
14145335,192.08606,28.189999,99038.99,1.1767471
14155393,191.9143,28.189999,99041.0,1.1767709
14175991,191.15334,28.189999,99050.0,1.1768779
14186039,191.82976,28.189999,99042.0,1.1767828
14196090,191.82976,28.189999,99042.0,1.1767828
14216189,191.49153,28.189999,99046.0,1.1768303
14226463,192.00151,28.189999,99040.0,1.176759
14236520,191.7452,28.189999,99043.0,1.1767946
14256916,192.08606,28.189999,99038.99,1.1767471
14267242,191.7452,28.189999,99043.0,1.1767946
14277328,191.57611,28.189999,99044.99,1.1768184
14297676,191.49153,28.18,99046.0,1.1768303
14307730,191.82976,28.18,99042.0,1.1767828
14317783,192.00151,28.18,99040.0,1.176759
14337886,191.82976,28.189999,99042.0,1.1767828
14347960,191.82976,28.189999,99042.0,1.1767828
14358010,191.9143,28.189999,99041.0,1.1767709
14378415,191.7452,28.189999,99043.0,1.1767946
14388462,191.66064,28.189999,99044.0,1.1768066
14398569,191.7452,28.189999,99043.0,1.1767946
14418884,191.407,28.189999,99047.0,1.1768422
14428939,191.9143,28.189999,99041.0,1.1767709
14439233,191.407,28.189999,99047.0,1.1768422
14459377,191.49153,28.189999,99046.0,1.1768303
14469691,191.49153,28.189999,99046.0,1.1768303
14479745,191.82976,28.189999,99042.0,1.1767828
14499867,192.08606,28.189999,99038.99,1.1767471
14509916,192.08606,28.189999,99038.99,1.1767471
14520019,192.00151,28.189999,99040.0,1.176759
14540182,191.57611,28.189999,99044.99,1.1768184
14550410,191.82976,28.189999,99042.0,1.1767828
14560478,191.9143,28.189999,99041.0,1.1767709
14580823,191.7452,28.189999,99043.0,1.1767946
14590874,191.49153,28.189999,99046.0,1.1768303
14600925,191.66064,28.189999,99044.0,1.1768066
14621321,191.407,28.189999,99047.0,1.1768422
14631374,191.7452,28.189999,99043.0,1.1767946
14641649,191.57611,28.189999,99044.99,1.1768184
14661745,191.7452,28.18,99043.0,1.1767946
14671813,191.82976,28.18,99042.0,1.1767828
14681870,191.7452,28.18,99043.0,1.1767946
14702036,191.57611,28.18,99044.99,1.1768184
14712090,191.82976,28.18,99042.0,1.1767828
14722187,192.08606,28.18,99038.99,1.1767471
14742522,191.7452,28.18,99043.0,1.1767946
14752826,191.66064,28.18,99044.0,1.1768066
14762911,192.08606,28.18,99038.99,1.1767471
14783280,191.32243,28.189999,99048.0,1.1768541
14793382,191.49153,28.189999,99046.0,1.1768303
14803434,191.407,28.189999,99047.0,1.1768422
14823662,191.06877,28.189999,99050.99,1.1768897
14833722,192.17061,28.189999,99038.0,1.1767353
14844039,191.57611,28.189999,99044.99,1.1768184
14864183,191.49153,28.18,99046.0,1.1768303
14874525,191.9143,28.18,99041.0,1.1767709
14884609,191.57611,28.18,99044.99,1.1768184
14904796,191.57611,28.18,99044.99,1.1768184
14914845,192.17061,28.18,99038.0,1.1767353
14924940,191.82976,28.18,99042.0,1.1767828
14945334,191.407,28.18,99047.0,1.1768422
14955384,191.9143,28.18,99041.0,1.1767709
14965665,191.66064,28.18,99044.0,1.1768066
14985767,191.7452,28.18,99043.0,1.1767946
14996037,192.00151,28.18,99040.0,1.176759
15006087,191.7452,28.18,99043.0,1.1767946
15026451,191.9143,28.18,99041.0,1.1767709
15036499,191.9143,28.18,99041.0,1.1767709
15046555,191.9143,28.18,99041.0,1.1767709
15066656,191.7452,28.18,99043.0,1.1767946
15076812,192.08606,28.18,99038.99,1.1767471
15086861,191.66064,28.18,99044.0,1.1768066
15107273,191.7452,28.18,99043.0,1.1767946
15117391,192.08606,28.18,99038.99,1.1767471
15127449,191.66064,28.18,99044.0,1.1768066
15147707,191.407,28.18,99047.0,1.1768422
15157748,192.08606,28.18,99038.99,1.1767471
15168021,191.66064,28.18,99044.0,1.1768066
15188168,191.57611,28.18,99044.99,1.1768184
15198446,191.66064,28.18,99044.0,1.1768066
15208497,192.00151,28.18,99040.0,1.176759
15228619,191.49153,28.18,99046.0,1.1768303
15238669,191.32243,28.18,99048.0,1.1768541
15248791,192.08606,28.18,99038.99,1.1767471
15268890,191.57611,28.18,99044.99,1.1768184
15278943,191.9143,28.18,99041.0,1.1767709
15288997,191.57611,28.18,99044.99,1.1768184
15309319,191.407,28.18,99047.0,1.1768422
15319411,191.66064,28.18,99044.0,1.1768066
15329462,191.66064,28.18,99044.0,1.1768066
15349586,191.7452,28.18,99043.0,1.1767946
15359634,191.66064,28.18,99044.0,1.1768066
15369686,191.7452,28.18,99043.0,1.1767946
15389786,191.32243,28.18,99048.0,1.1768541
15400017,191.57611,28.18,99044.99,1.1768184
15410071,191.57611,28.18,99044.99,1.1768184
15430445,191.66064,28.18,99044.0,1.1768066
15440496,192.08606,28.18,99038.99,1.1767471
15450546,191.9143,28.18,99041.0,1.1767709
15470877,191.7452,28.18,99043.0,1.1767946
15480929,192.08606,28.18,99038.99,1.1767471
15491286,191.32243,28.18,99048.0,1.1768541
15511382,191.23788,28.18,99049.0,1.1768659
15521432,192.08606,28.18,99038.99,1.1767471
15531521,192.08606,28.18,99038.99,1.1767471
15551629,191.82976,28.18,99042.0,1.1767828
15561687,191.9143,28.18,99041.0,1.1767709
15571744,192.33972,28.18,99036.0,1.1767116
15592061,191.7452,28.18,99043.0,1.1767946
15602111,191.7452,28.18,99043.0,1.1767946
15612160,191.57611,28.18,99044.99,1.1768184
15632458,191.57611,28.18,99044.99,1.1768184
15642573,191.7452,28.18,99043.0,1.1767946
15652811,191.7452,28.18,99043.0,1.1767946
15672908,191.57611,28.18,99044.99,1.1768184
15683281,191.15334,28.18,99050.0,1.1768779
15693337,191.57611,28.18,99044.99,1.1768184
15713453,192.17061,28.18,99038.0,1.1767353
15723650,191.9143,28.18,99041.0,1.1767709
15733708,191.7452,28.18,99043.0,1.1767946
15754149,191.7452,28.18,99043.0,1.1767946
15764199,191.9143,28.18,99041.0,1.1767709
15774391,191.407,28.18,99047.0,1.1768422
15794489,192.00151,28.17,99040.0,1.176759
15804543,191.7452,28.17,99043.0,1.1767946
15814594,191.66064,28.17,99044.0,1.1768066
15834900,191.9143,28.18,99041.0,1.1767709
15844954,191.66064,28.18,99044.0,1.1768066
15855241,192.08606,28.18,99038.99,1.1767471
15875383,191.66064,28.17,99044.0,1.1768066
15885652,192.08606,28.17,99038.99,1.1767471
15895701,191.9143,28.17,99041.0,1.1767709
15916116,191.57611,28.17,99044.99,1.1768184
15926208,192.17061,28.17,99038.0,1.1767353
15936267,192.17061,28.17,99038.0,1.1767353
15956463,191.57611,28.18,99044.99,1.1768184
15966526,191.9143,28.18,99041.0,1.1767709
15976830,191.7452,28.18,99043.0,1.1767946
15996946,192.25517,28.18,99037.0,1.1767234
16007285,191.82976,28.18,99042.0,1.1767828
16017341,192.08606,28.18,99038.99,1.1767471
16037669,192.00151,28.17,99040.0,1.176759
16047735,191.7452,28.17,99043.0,1.1767946
16057796,191.407,28.17,99047.0,1.1768422
16078072,191.82976,28.18,99042.0,1.1767828
16088225,190.81247,28.18,99054.0,1.1769254
16098435,191.32243,28.18,99048.0,1.1768541
16118535,191.7452,28.17,99043.0,1.1767946
16128823,191.9143,28.17,99041.0,1.1767709
16138872,191.9143,28.17,99041.0,1.1767709
16159235,192.25517,28.17,99037.0,1.1767234
16169321,191.49153,28.17,99046.0,1.1768303
16179397,191.57611,28.17,99044.99,1.1768184
16199627,191.66064,28.18,99044.0,1.1768066
16209689,191.9143,28.18,99041.0,1.1767709
16219769,192.00151,28.18,99040.0,1.176759
16240086,191.7452,28.17,99043.0,1.1767946
16250139,191.7452,28.17,99043.0,1.1767946
16260216,191.49153,28.17,99046.0,1.1768303
16280322,191.66064,28.18,99044.0,1.1768066
16290423,191.66064,28.18,99044.0,1.1768066
16300473,191.66064,28.18,99044.0,1.1768066
16320815,191.407,28.17,99047.0,1.1768422
16330890,192.17061,28.17,99038.0,1.1767353
16340940,191.82976,28.17,99042.0,1.1767828
16361321,191.407,28.17,99047.0,1.1768422
16371373,191.57611,28.17,99044.99,1.1768184
16381645,191.82976,28.17,99042.0,1.1767828
16401754,191.82976,28.18,99042.0,1.1767828
16412030,191.9143,28.18,99041.0,1.1767709
16422081,191.57611,28.18,99044.99,1.1768184
16442419,191.57611,28.17,99044.99,1.1768184
16452473,192.25517,28.17,99037.0,1.1767234
16462541,191.7452,28.17,99043.0,1.1767946
16483038,191.9143,28.17,99041.0,1.1767709
16493196,192.17061,28.17,99038.0,1.1767353
16503251,192.17061,28.17,99038.0,1.1767353
16523368,191.57611,28.17,99044.99,1.1768184
16533653,191.32243,28.17,99048.0,1.1768541
16543711,191.9143,28.17,99041.0,1.1767709
16564043,191.9143,28.18,99041.0,1.1767709
16574095,191.82976,28.18,99042.0,1.1767828
16584147,191.57611,28.18,99044.99,1.1768184
16604478,191.9143,28.17,99041.0,1.1767709
16614534,191.7452,28.17,99043.0,1.1767946
16624868,192.08606,28.17,99038.99,1.1767471
16644978,192.17061,28.17,99038.0,1.1767353
16655053,192.00151,28.17,99040.0,1.176759
16665219,192.00151,28.17,99040.0,1.176759
16685347,191.7452,28.17,99043.0,1.1767946
16695395,191.9143,28.17,99041.0,1.1767709
16705662,191.82976,28.17,99042.0,1.1767828
16725762,191.49153,28.17,99046.0,1.1768303
16736122,192.33972,28.17,99036.0,1.1767116
16746441,191.49153,28.17,99046.0,1.1768303
16766556,191.9143,28.17,99041.0,1.1767709
16776879,191.7452,28.17,99043.0,1.1767946
16786936,192.08606,28.17,99038.99,1.1767471
16807039,191.407,28.17,99047.0,1.1768422
16817103,192.08606,28.17,99038.99,1.1767471
16827225,192.17061,28.17,99038.0,1.1767353
16847373,191.7452,28.17,99043.0,1.1767946
16857702,191.7452,28.17,99043.0,1.1767946
16868033,192.25517,28.17,99037.0,1.1767234
16888149,191.57611,28.17,99044.99,1.1768184
16898428,192.17061,28.17,99038.0,1.1767353
16908476,192.17061,28.17,99038.0,1.1767353
16928795,191.407,28.17,99047.0,1.1768422
16938848,192.17061,28.17,99038.0,1.1767353
16948898,191.57611,28.17,99044.99,1.1768184
16969274,191.82976,28.17,99042.0,1.1767828
16979331,192.08606,28.17,99038.99,1.1767471
16989710,192.25517,28.17,99037.0,1.1767234
17009892,192.08606,28.17,99038.99,1.1767471
17020006,191.9143,28.17,99041.0,1.1767709
17030057,192.25517,28.17,99037.0,1.1767234
17050431,192.42429,28.17,99035.0,1.1766996
17060479,192.08606,28.17,99038.99,1.1767471
17070549,191.82976,28.17,99042.0,1.1767828
17090846,191.49153,28.17,99046.0,1.1768303
17100897,191.82976,28.17,99042.0,1.1767828
17111206,191.66064,28.17,99044.0,1.1768066
17131357,191.9143,28.17,99041.0,1.1767709
17141724,191.82976,28.17,99042.0,1.1767828
17151807,191.82976,28.17,99042.0,1.1767828
17171989,191.82976,28.17,99042.0,1.1767828
17182047,191.7452,28.17,99043.0,1.1767946
17192129,191.407,28.17,99047.0,1.1768422
17212471,191.66064,28.17,99044.0,1.1768066
17222525,191.32243,28.17,99048.0,1.1768541
17232799,191.57611,28.17,99044.99,1.1768184
17252911,191.407,28.17,99047.0,1.1768422
17263281,191.66064,28.17,99044.0,1.1768066
17273336,191.57611,28.17,99044.99,1.1768184
17293719,191.7452,28.17,99043.0,1.1767946
17303805,191.82976,28.17,99042.0,1.1767828
17313861,191.7452,28.17,99043.0,1.1767946
17334079,191.7452,28.17,99043.0,1.1767946
17344127,191.49153,28.17,99046.0,1.1768303
17354434,191.57611,28.17,99044.99,1.1768184
17374534,191.7452,28.17,99043.0,1.1767946
17384814,191.82976,28.17,99042.0,1.1767828
17394863,191.407,28.17,99047.0,1.1768422
17415290,191.9143,28.17,99041.0,1.1767709
17425394,191.66064,28.17,99044.0,1.1768066
17435443,191.9143,28.17,99041.0,1.1767709
17455775,191.82976,28.17,99042.0,1.1767828
17465831,191.9143,28.17,99041.0,1.1767709
17475964,192.00151,28.17,99040.0,1.176759
17496072,192.00151,28.17,99040.0,1.176759
17506122,191.9143,28.17,99041.0,1.1767709
17516171,191.9143,28.17,99041.0,1.1767709
17536624,191.7452,28.17,99043.0,1.1767946
17546673,191.57611,28.17,99044.99,1.1768184
17556789,191.57611,28.17,99044.99,1.1768184
17576919,191.66064,28.17,99044.0,1.1768066
17587220,191.7452,28.17,99043.0,1.1767946
17597319,191.66064,28.17,99044.0,1.1768066
17617627,191.9143,28.17,99041.0,1.1767709
17627678,191.7452,28.17,99043.0,1.1767946
17637730,192.08606,28.17,99038.99,1.1767471
17658080,191.66064,28.16,99044.0,1.1768066
17668132,192.00151,28.16,99040.0,1.176759
17678488,191.57611,28.16,99044.99,1.1768184
17698588,192.17061,28.17,99038.0,1.1767353
17708637,191.49153,28.17,99046.0,1.1768303
17718685,191.9143,28.17,99041.0,1.1767709
17738837,191.66064,28.16,99044.0,1.1768066
17748905,192.25517,28.16,99037.0,1.1767234
17759232,192.42429,28.16,99035.0,1.1766996
17779368,191.66064,28.17,99044.0,1.1768066
17789674,191.66064,28.17,99044.0,1.1768066
17799722,192.08606,28.17,99038.99,1.1767471
17820000,191.66064,28.17,99044.0,1.1768066
17830048,191.66064,28.17,99044.0,1.1768066
17840097,191.82976,28.17,99042.0,1.1767828
17860493,192.00151,28.17,99040.0,1.176759
17870543,191.23788,28.17,99049.0,1.1768659
17880604,191.66064,28.17,99044.0,1.1768066
17900786,191.407,28.16,99047.0,1.1768422
17910842,191.32243,28.16,99048.0,1.1768541
17920937,191.57611,28.16,99044.99,1.1768184
17941643,191.9143,28.16,99041.0,1.1767709
17951697,191.82976,28.16,99042.0,1.1767828
17961748,191.7452,28.16,99043.0,1.1767946
17982030,191.7452,28.16,99043.0,1.1767946
17992081,191.7452,28.16,99043.0,1.1767946
18002170,191.57611,28.16,99044.99,1.1768184
18022482,191.06877,28.16,99050.99,1.1768897
18032538,191.9143,28.16,99041.0,1.1767709
18042588,192.25517,28.16,99037.0,1.1767234
18062876,192.08606,28.17,99038.99,1.1767471
18072928,191.7452,28.17,99043.0,1.1767946
18083303,191.57611,28.17,99044.99,1.1768184
18103447,191.49153,28.17,99046.0,1.1768303
18113599,191.7452,28.17,99043.0,1.1767946
18123648,191.15334,28.17,99050.0,1.1768779
18143756,192.33972,28.16,99036.0,1.1767116
18153807,191.7452,28.16,99043.0,1.1767946
18164108,191.9143,28.16,99041.0,1.1767709
18184499,191.66064,28.17,99044.0,1.1768066
18194559,192.08606,28.17,99038.99,1.1767471
18204859,191.57611,28.17,99044.99,1.1768184
18225018,191.82976,28.16,99042.0,1.1767828
18235286,191.82976,28.16,99042.0,1.1767828
18245337,191.66064,28.16,99044.0,1.1768066
18265444,191.7452,28.17,99043.0,1.1767946
18275493,191.82976,28.17,99042.0,1.1767828
18285609,191.9143,28.17,99041.0,1.1767709
18305722,191.57611,28.16,99044.99,1.1768184
18316019,191.7452,28.16,99043.0,1.1767946
18326082,191.9143,28.16,99041.0,1.1767709
18346442,191.57611,28.17,99044.99,1.1768184
18356500,191.9143,28.17,99041.0,1.1767709
18366551,191.9143,28.17,99041.0,1.1767709
18386844,192.08606,28.16,99038.99,1.1767471
18396929,191.23788,28.16,99049.0,1.1768659
18407262,191.82976,28.16,99042.0,1.1767828
18427412,191.32243,28.16,99048.0,1.1768541
18437462,192.17061,28.16,99038.0,1.1767353
18447513,191.57611,28.16,99044.99,1.1768184
18467665,191.407,28.16,99047.0,1.1768422
18477714,192.00151,28.16,99040.0,1.176759
18488087,191.57611,28.16,99044.99,1.1768184
18508190,191.7452,28.16,99043.0,1.1767946
18518420,191.82976,28.16,99042.0,1.1767828
18528471,191.7452,28.16,99043.0,1.1767946
18548820,191.57611,28.16,99044.99,1.1768184
18558872,191.32243,28.16,99048.0,1.1768541
18568924,191.9143,28.16,99041.0,1.1767709
18589323,191.57611,28.17,99044.99,1.1768184
18599407,191.66064,28.17,99044.0,1.1768066
18609456,191.82976,28.17,99042.0,1.1767828
18629656,191.49153,28.16,99046.0,1.1768303
18639711,191.66064,28.16,99044.0,1.1768066
18649759,191.49153,28.16,99046.0,1.1768303
18670210,191.23788,28.16,99049.0,1.1768659
18680260,191.66064,28.16,99044.0,1.1768066
18690425,191.57611,28.16,99044.99,1.1768184
18710558,191.66064,28.16,99044.0,1.1768066
18720831,191.7452,28.16,99043.0,1.1767946
18730883,191.407,28.16,99047.0,1.1768422
18751223,192.08606,28.16,99038.99,1.1767471
18761304,191.66064,28.16,99044.0,1.1768066
18771354,192.25517,28.16,99037.0,1.1767234
18791689,191.9143,28.16,99041.0,1.1767709
18801738,191.82976,28.16,99042.0,1.1767828
18812103,191.82976,28.16,99042.0,1.1767828
18832322,191.49153,28.16,99046.0,1.1768303
18842406,191.7452,28.16,99043.0,1.1767946
18852462,191.57611,28.16,99044.99,1.1768184
18872851,191.57611,28.16,99044.99,1.1768184
18882898,191.7452,28.16,99043.0,1.1767946
18892948,192.33972,28.16,99036.0,1.1767116
18913647,192.00151,28.16,99040.0,1.176759
18923728,191.57611,28.16,99044.99,1.1768184
18933785,192.00151,28.16,99040.0,1.176759
18954200,192.33972,28.16,99036.0,1.1767116
18964280,191.49153,28.16,99046.0,1.1768303
18974361,191.66064,28.16,99044.0,1.1768066
18994470,191.9143,28.16,99041.0,1.1767709
19004519,192.33972,28.16,99036.0,1.1767116
19014568,191.57611,28.16,99044.99,1.1768184
19034902,191.66064,28.16,99044.0,1.1768066
19044953,191.82976,28.16,99042.0,1.1767828
19055347,191.407,28.16,99047.0,1.1768422
19076074,191.9143,28.16,99041.0,1.1767709
19086131,191.82976,28.16,99042.0,1.1767828
19096200,192.00151,28.16,99040.0,1.176759
19116324,191.32243,28.16,99048.0,1.1768541
19126417,191.57611,28.16,99044.99,1.1768184
19136468,191.49153,28.16,99046.0,1.1768303
19156876,191.57611,28.16,99044.99,1.1768184
19166924,191.9143,28.16,99041.0,1.1767709
19176975,191.82976,28.16,99042.0,1.1767828
19197190,191.407,28.16,99047.0,1.1768422
19207245,192.17061,28.16,99038.0,1.1767353
19217323,191.9143,28.16,99041.0,1.1767709
19237619,191.7452,28.16,99043.0,1.1767946
19247677,192.42429,28.16,99035.0,1.1766996
19257731,191.7452,28.16,99043.0,1.1767946
19278083,191.66064,28.16,99044.0,1.1768066
19288141,191.9143,28.16,99041.0,1.1767709
19298394,191.57611,28.16,99044.99,1.1768184
19318500,191.7452,28.16,99043.0,1.1767946
19328878,191.49153,28.16,99046.0,1.1768303
19338925,191.82976,28.16,99042.0,1.1767828
19359037,191.49153,28.16,99046.0,1.1768303
19369085,191.66064,28.16,99044.0,1.1768066
19379186,191.57611,28.16,99044.99,1.1768184
19399323,191.407,28.16,99047.0,1.1768422
19409595,191.9143,28.16,99041.0,1.1767709
19419694,191.407,28.16,99047.0,1.1768422
19440122,191.7452,28.16,99043.0,1.1767946
19450418,191.7452,28.16,99043.0,1.1767946
19460467,192.17061,28.16,99038.0,1.1767353
19480900,191.9143,28.16,99041.0,1.1767709
19491008,191.57611,28.16,99044.99,1.1768184
19501057,191.9143,28.16,99041.0,1.1767709
19521234,191.407,28.16,99047.0,1.1768422
19531322,191.57611,28.16,99044.99,1.1768184
19541594,192.08606,28.16,99038.99,1.1767471
19561703,191.66064,28.16,99044.0,1.1768066
19572067,191.7452,28.16,99043.0,1.1767946
19582118,191.7452,28.16,99043.0,1.1767946
19602416,192.00151,28.15,99040.0,1.176759
19612464,191.49153,28.15,99046.0,1.1768303
19622522,191.82976,28.15,99042.0,1.1767828
19642891,192.17061,28.16,99038.0,1.1767353
19652943,192.25517,28.16,99037.0,1.1767234
19663020,191.23788,28.16,99049.0,1.1768659
19683198,191.82976,28.16,99042.0,1.1767828
19693263,191.82976,28.16,99042.0,1.1767828
19703331,191.82976,28.16,99042.0,1.1767828
19723707,191.7452,28.16,99043.0,1.1767946
19733760,192.00151,28.16,99040.0,1.176759
19743806,192.08606,28.16,99038.99,1.1767471
19764041,191.9143,28.16,99041.0,1.1767709
19774091,191.7452,28.16,99043.0,1.1767946
19784142,191.82976,28.16,99042.0,1.1767828
19804862,192.00151,28.16,99040.0,1.176759
19814911,191.66064,28.16,99044.0,1.1768066
19824974,192.00151,28.16,99040.0,1.176759
19845348,192.17061,28.16,99038.0,1.1767353
19855410,191.32243,28.16,99048.0,1.1768541
19865652,192.17061,28.16,99038.0,1.1767353
19885763,192.00151,28.16,99040.0,1.176759
19895813,191.9143,28.16,99041.0,1.1767709
19905905,191.82976,28.16,99042.0,1.1767828
19926054,191.82976,28.16,99042.0,1.1767828
19936104,192.00151,28.16,99040.0,1.176759
19946495,191.407,28.16,99047.0,1.1768422
19966885,191.7452,28.16,99043.0,1.1767946
19976936,191.57611,28.16,99044.99,1.1768184
19987278,191.57611,28.16,99044.99,1.1768184
20007379,191.23788,28.16,99049.0,1.1768659
20017648,191.7452,28.16,99043.0,1.1767946
20027696,191.32243,28.16,99048.0,1.1768541
20047810,191.57611,28.16,99044.99,1.1768184
20057865,191.57611,28.16,99044.99,1.1768184
20067993,192.00151,28.16,99040.0,1.176759
20088087,191.82976,28.15,99042.0,1.1767828
20098144,192.00151,28.15,99040.0,1.176759
20108192,192.17061,28.15,99038.0,1.1767353
20128529,191.9143,28.16,99041.0,1.1767709
20138597,192.00151,28.16,99040.0,1.176759
20148782,191.66064,28.16,99044.0,1.1768066
20168899,191.49153,28.16,99046.0,1.1768303
20179207,191.9143,28.16,99041.0,1.1767709
20189331,191.9143,28.16,99041.0,1.1767709
20209684,191.32243,28.16,99048.0,1.1768541
20219768,191.7452,28.16,99043.0,1.1767946
20229818,191.66064,28.16,99044.0,1.1768066
20249913,192.08606,28.16,99038.99,1.1767471
20259992,191.49153,28.16,99046.0,1.1768303
20270041,191.66064,28.16,99044.0,1.1768066
20290484,191.7452,28.16,99043.0,1.1767946
20300538,191.57611,28.16,99044.99,1.1768184
20310587,191.407,28.16,99047.0,1.1768422
20330846,191.7452,28.15,99043.0,1.1767946
20340907,191.82976,28.15,99042.0,1.1767828
20351280,192.08606,28.15,99038.99,1.1767471
20371394,191.32243,28.16,99048.0,1.1768541
20381704,191.407,28.16,99047.0,1.1768422
20392030,191.66064,28.16,99044.0,1.1768066
20412126,191.23788,28.15,99049.0,1.1768659
20422487,191.9143,28.15,99041.0,1.1767709
20432544,191.82976,28.15,99042.0,1.1767828
20452642,191.49153,28.16,99046.0,1.1768303
20462691,191.23788,28.16,99049.0,1.1768659
20472806,191.32243,28.16,99048.0,1.1768541
20492918,191.66064,28.16,99044.0,1.1768066
20503233,191.66064,28.16,99044.0,1.1768066
20513340,191.7452,28.16,99043.0,1.1767946
20533634,191.49153,28.16,99046.0,1.1768303
20543685,191.57611,28.16,99044.99,1.1768184
20553735,191.32243,28.16,99048.0,1.1768541
20574103,191.66064,28.16,99044.0,1.1768066
20584152,191.57611,28.16,99044.99,1.1768184
20594540,191.66064,28.16,99044.0,1.1768066
20614657,191.32243,28.16,99048.0,1.1768541
20624764,191.32243,28.16,99048.0,1.1768541
20634818,191.7452,28.16,99043.0,1.1767946
20654910,191.407,28.15,99047.0,1.1768422
20664971,191.407,28.15,99047.0,1.1768422
20675207,192.17061,28.15,99038.0,1.1767353
20695327,191.7452,28.16,99043.0,1.1767946
20705723,191.7452,28.16,99043.0,1.1767946
20716035,191.9143,28.16,99041.0,1.1767709
20736120,191.82976,28.16,99042.0,1.1767828
20746438,191.82976,28.16,99042.0,1.1767828
20756494,191.82976,28.16,99042.0,1.1767828
20776604,191.32243,28.15,99048.0,1.1768541
20786649,191.9143,28.15,99041.0,1.1767709
20796787,191.407,28.15,99047.0,1.1768422
20816901,191.407,28.15,99047.0,1.1768422
20827286,191.23788,28.15,99049.0,1.1768659
20837385,191.9143,28.15,99041.0,1.1767709
20857622,191.49153,28.16,99046.0,1.1768303
20867671,192.08606,28.16,99038.99,1.1767471
20877719,191.7452,28.16,99043.0,1.1767946
20898059,191.82976,28.16,99042.0,1.1767828
20908110,191.7452,28.16,99043.0,1.1767946
20918435,191.49153,28.16,99046.0,1.1768303
20938575,191.9143,28.15,99041.0,1.1767709
20948825,191.407,28.15,99047.0,1.1768422
20958898,191.57611,28.15,99044.99,1.1768184
20979313,192.17061,28.15,99038.0,1.1767353
20989608,191.7452,28.15,99043.0,1.1767946
20999657,191.9143,28.15,99041.0,1.1767709
21019993,191.66064,28.15,99044.0,1.1768066
21030045,191.9143,28.15,99041.0,1.1767709
21040146,191.7452,28.15,99043.0,1.1767946
21060524,191.9143,28.15,99041.0,1.1767709
21070593,192.17061,28.15,99038.0,1.1767353
21080821,191.9143,28.15,99041.0,1.1767709
21100912,191.49153,28.16,99046.0,1.1768303
21111356,191.06877,28.16,99050.99,1.1768897
21121734,191.57611,28.16,99044.99,1.1768184
21142137,191.57611,28.15,99044.99,1.1768184
21152186,191.82976,28.15,99042.0,1.1767828
21162416,191.82976,28.15,99042.0,1.1767828
21182511,191.7452,28.15,99043.0,1.1767946
21192805,191.49153,28.15,99046.0,1.1768303
21202862,192.00151,28.15,99040.0,1.176759
21223259,191.9143,28.15,99041.0,1.1767709
21233323,192.00151,28.15,99040.0,1.176759
21243376,191.57611,28.15,99044.99,1.1768184
21263758,191.7452,28.15,99043.0,1.1767946
21273808,191.49153,28.15,99046.0,1.1768303
21284141,191.15334,28.15,99050.0,1.1768779
21304470,191.57611,28.16,99044.99,1.1768184
21314521,191.407,28.16,99047.0,1.1768422
21324823,191.9143,28.16,99041.0,1.1767709
21345051,192.08606,28.16,99038.99,1.1767471
21355270,191.82976,28.16,99042.0,1.1767828
21365328,191.66064,28.16,99044.0,1.1768066
21385667,191.49153,28.15,99046.0,1.1768303
21395749,191.7452,28.15,99043.0,1.1767946
21405813,191.66064,28.15,99044.0,1.1768066
21426377,191.82976,28.15,99042.0,1.1767828
21436427,191.82976,28.15,99042.0,1.1767828
21446490,191.7452,28.15,99043.0,1.1767946
21466643,191.66064,28.15,99044.0,1.1768066
21476923,192.25517,28.15,99037.0,1.1767234
21487224,191.66064,28.15,99044.0,1.1768066
21507380,191.7452,28.15,99043.0,1.1767946
21517633,192.17061,28.15,99038.0,1.1767353
21527682,191.82976,28.15,99042.0,1.1767828
21548116,191.15334,28.15,99050.0,1.1768779
21558246,192.25517,28.15,99037.0,1.1767234
21568321,192.08606,28.15,99038.99,1.1767471
21588526,191.57611,28.15,99044.99,1.1768184
21598574,191.82976,28.15,99042.0,1.1767828
21608809,191.7452,28.15,99043.0,1.1767946
21628910,191.66064,28.15,99044.0,1.1768066
21639197,191.82976,28.15,99042.0,1.1767828
21649267,191.66064,28.15,99044.0,1.1768066
21669657,191.57611,28.15,99044.99,1.1768184
21679758,191.82976,28.15,99042.0,1.1767828
21689811,192.25517,28.15,99037.0,1.1767234
21710200,191.57611,28.15,99044.99,1.1768184
21720262,191.66064,28.15,99044.0,1.1768066
21730424,191.57611,28.15,99044.99,1.1768184
21750518,191.66064,28.16,99044.0,1.1768066
21760830,191.407,28.16,99047.0,1.1768422
21770877,191.9143,28.16,99041.0,1.1767709
21791209,191.32243,28.15,99048.0,1.1768541
21801283,191.06877,28.15,99050.99,1.1768897
21811339,192.17061,28.15,99038.0,1.1767353
21831699,191.9143,28.15,99041.0,1.1767709
21841749,191.23788,28.15,99049.0,1.1768659
21852037,191.9143,28.15,99041.0,1.1767709
21872197,191.82976,28.15,99042.0,1.1767828
21882435,191.82976,28.15,99042.0,1.1767828
21892485,191.9143,28.15,99041.0,1.1767709
21912879,191.82976,28.15,99042.0,1.1767828
21922940,191.9143,28.15,99041.0,1.1767709
21933009,192.17061,28.15,99038.0,1.1767353
21953126,191.57611,28.15,99044.99,1.1768184
21963237,191.7452,28.15,99043.0,1.1767946
21973323,191.7452,28.15,99043.0,1.1767946
21993684,191.66064,28.15,99044.0,1.1768066
22003738,192.08606,28.15,99038.99,1.1767471
22013791,192.00151,28.15,99040.0,1.176759
22034090,191.9143,28.15,99041.0,1.1767709
22044141,191.82976,28.15,99042.0,1.1767828
22054442,191.66064,28.15,99044.0,1.1768066
22074545,192.00151,28.15,99040.0,1.176759
22084894,191.7452,28.15,99043.0,1.1767946
22094946,192.00151,28.15,99040.0,1.176759
22115062,191.57611,28.15,99044.99,1.1768184
22125237,191.57611,28.15,99044.99,1.1768184
22135333,191.57611,28.15,99044.99,1.1768184
22156109,191.82976,28.15,99042.0,1.1767828
22166400,191.9143,28.15,99041.0,1.1767709
22176449,191.407,28.15,99047.0,1.1768422
22196872,191.407,28.15,99047.0,1.1768422
22206920,191.7452,28.15,99043.0,1.1767946
22216983,192.08606,28.15,99038.99,1.1767471
22237120,191.7452,28.15,99043.0,1.1767946
22247283,191.15334,28.15,99050.0,1.1768779
22257346,191.49153,28.15,99046.0,1.1768303
22277618,191.407,28.15,99047.0,1.1768422
22287666,191.49153,28.15,99046.0,1.1768303
22297715,192.00151,28.15,99040.0,1.176759
22318079,191.82976,28.15,99042.0,1.1767828
22328139,191.49153,28.15,99046.0,1.1768303
22338437,191.82976,28.15,99042.0,1.1767828
22358551,191.66064,28.15,99044.0,1.1768066
22368853,192.08606,28.15,99038.99,1.1767471
22378905,191.7452,28.15,99043.0,1.1767946
22399007,191.57611,28.15,99044.99,1.1768184
22409066,191.66064,28.15,99044.0,1.1768066
22419185,191.82976,28.15,99042.0,1.1767828
22439285,191.49153,28.15,99046.0,1.1768303
22449357,191.23788,28.15,99049.0,1.1768659
22459412,192.00151,28.15,99040.0,1.176759
22479804,192.17061,28.15,99038.0,1.1767353
22489860,191.7452,28.15,99043.0,1.1767946
22500003,191.7452,28.15,99043.0,1.1767946
22520147,191.66064,28.15,99044.0,1.1768066
22530405,192.00151,28.15,99040.0,1.176759
22540453,191.57611,28.15,99044.99,1.1768184
22560823,191.82976,28.15,99042.0,1.1767828
22570899,191.82976,28.15,99042.0,1.1767828
22580952,191.7452,28.15,99043.0,1.1767946
22601321,191.7452,28.15,99043.0,1.1767946
22611377,191.7452,28.15,99043.0,1.1767946
22621603,191.7452,28.15,99043.0,1.1767946
22641742,191.57611,28.15,99044.99,1.1768184
22651804,191.9143,28.15,99041.0,1.1767709
22661877,192.08606,28.15,99038.99,1.1767471
22682074,191.407,28.15,99047.0,1.1768422
22692128,191.7452,28.15,99043.0,1.1767946
22702433,191.57611,28.15,99044.99,1.1768184
22722526,191.407,28.15,99047.0,1.1768422
22732839,192.08606,28.15,99038.99,1.1767471
22742908,191.9143,28.15,99041.0,1.1767709
22763219,192.00151,28.15,99040.0,1.176759
22773326,192.17061,28.15,99038.0,1.1767353
22783389,192.17061,28.15,99038.0,1.1767353
22803709,191.66064,28.15,99044.0,1.1768066
22813773,192.00151,28.15,99040.0,1.176759
22823844,191.57611,28.15,99044.99,1.1768184
22844057,192.08606,28.15,99038.99,1.1767471
22854108,191.66064,28.15,99044.0,1.1768066
22864157,192.00151,28.15,99040.0,1.176759
22884490,191.32243,28.15,99048.0,1.1768541
22894543,191.49153,28.15,99046.0,1.1768303
22904867,191.66064,28.15,99044.0,1.1768066
22924968,191.7452,28.15,99043.0,1.1767946
22935308,192.08606,28.15,99038.99,1.1767471
22945636,191.66064,28.15,99044.0,1.1768066
22965754,191.49153,28.15,99046.0,1.1768303
22975840,192.08606,28.15,99038.99,1.1767471
22986008,191.82976,28.15,99042.0,1.1767828
23006483,191.9143,28.15,99041.0,1.1767709
23016535,192.17061,28.15,99038.0,1.1767353
23026576,191.66064,28.15,99044.0,1.1768066
23046702,191.66064,28.15,99044.0,1.1768066
23056768,191.49153,28.15,99046.0,1.1768303
23066846,191.32243,28.15,99048.0,1.1768541
23086989,192.08606,28.15,99038.99,1.1767471
23097037,191.7452,28.15,99043.0,1.1767946
23107237,191.66064,28.15,99044.0,1.1768066
23127421,191.66064,28.15,99044.0,1.1768066
23137642,191.7452,28.15,99043.0,1.1767946
23147694,191.7452,28.15,99043.0,1.1767946
23168008,191.7452,28.15,99043.0,1.1767946
23178065,191.23788,28.15,99049.0,1.1768659
23188114,191.49153,28.15,99046.0,1.1768303
23208662,191.9143,28.15,99041.0,1.1767709
23218792,191.57611,28.15,99044.99,1.1768184
23228848,191.9143,28.15,99041.0,1.1767709
23248944,192.00151,28.15,99040.0,1.176759
23259236,191.57611,28.15,99044.99,1.1768184
23269334,191.57611,28.15,99044.99,1.1768184
23289628,191.57611,28.15,99044.99,1.1768184
23299677,191.407,28.15,99047.0,1.1768422
23309728,191.82976,28.15,99042.0,1.1767828
23330077,191.9143,28.15,99041.0,1.1767709
23340127,191.23788,28.15,99049.0,1.1768659
23350483,191.9143,28.15,99041.0,1.1767709
23370626,191.82976,28.15,99042.0,1.1767828
23380771,191.57611,28.15,99044.99,1.1768184
23390822,191.407,28.15,99047.0,1.1768422
23410916,191.49153,28.15,99046.0,1.1768303
23420981,191.7452,28.15,99043.0,1.1767946
23431287,191.66064,28.15,99044.0,1.1768066
23451387,191.32243,28.15,99048.0,1.1768541
23461652,191.66064,28.15,99044.0,1.1768066
23471700,191.7452,28.15,99043.0,1.1767946
23492013,192.17061,28.14,99038.0,1.1767353
23502075,191.82976,28.14,99042.0,1.1767828
23512130,191.66064,28.14,99044.0,1.1768066
23532545,192.00151,28.15,99040.0,1.176759
23542630,191.32243,28.15,99048.0,1.1768541
23552770,191.7452,28.15,99043.0,1.1767946
23572862,191.57611,28.15,99044.99,1.1768184
23582969,191.66064,28.15,99044.0,1.1768066
23593018,191.57611,28.15,99044.99,1.1768184
23613456,192.17061,28.15,99038.0,1.1767353
23623518,191.82976,28.15,99042.0,1.1767828
23633583,191.7452,28.15,99043.0,1.1767946
23653683,191.23788,28.15,99049.0,1.1768659
23663761,192.08606,28.15,99038.99,1.1767471
23673810,191.49153,28.15,99046.0,1.1768303
23694145,191.7452,28.15,99043.0,1.1767946
23704196,192.33972,28.15,99036.0,1.1767116
23714510,191.49153,28.15,99046.0,1.1768303
23734841,191.57611,28.15,99044.99,1.1768184
23744899,191.66064,28.15,99044.0,1.1768066
23755304,191.7452,28.15,99043.0,1.1767946
23775606,192.25517,28.15,99037.0,1.1767234
23785659,191.9143,28.15,99041.0,1.1767709
23795708,192.42429,28.15,99035.0,1.1766996
23815988,191.32243,28.15,99048.0,1.1768541
23826052,191.66064,28.15,99044.0,1.1768066
23836161,191.32243,28.15,99048.0,1.1768541
23856530,192.08606,28.14,99038.99,1.1767471
23866610,191.407,28.14,99047.0,1.1768422
23876792,191.23788,28.14,99049.0,1.1768659
23896912,191.7452,28.14,99043.0,1.1767946
23907309,191.7452,28.14,99043.0,1.1767946
23917403,191.57611,28.14,99044.99,1.1768184
23937600,191.49153,28.15,99046.0,1.1768303
23947652,191.82976,28.15,99042.0,1.1767828
23957740,191.7452,28.15,99043.0,1.1767946
23978155,191.23788,28.15,99049.0,1.1768659
23988210,191.66064,28.15,99044.0,1.1768066
23998456,191.66064,28.15,99044.0,1.1768066
24018565,192.33972,28.15,99036.0,1.1767116
24028829,191.7452,28.15,99043.0,1.1767946
24038896,191.57611,28.15,99044.99,1.1768184
24059225,191.57611,28.15,99044.99,1.1768184
24069282,191.9143,28.15,99041.0,1.1767709
24079334,191.7452,28.15,99043.0,1.1767946
24099708,191.32243,28.15,99048.0,1.1768541
24109761,191.7452,28.15,99043.0,1.1767946
24120068,191.82976,28.15,99042.0,1.1767828
24140184,191.57611,28.14,99044.99,1.1768184
24150235,191.7452,28.14,99043.0,1.1767946
24160339,192.00151,28.14,99040.0,1.176759
24180465,191.66064,28.15,99044.0,1.1768066
24190517,191.57611,28.15,99044.99,1.1768184
24200874,192.08606,28.15,99038.99,1.1767471
24220971,191.82976,28.14,99042.0,1.1767828
24231262,192.00151,28.14,99040.0,1.176759
24241325,191.7452,28.14,99043.0,1.1767946
24261627,191.82976,28.15,99042.0,1.1767828
24271704,191.66064,28.15,99044.0,1.1768066
24281756,191.82976,28.15,99042.0,1.1767828
24302054,191.407,28.14,99047.0,1.1768422
24312140,192.00151,28.14,99040.0,1.176759
24322207,191.82976,28.14,99042.0,1.1767828
24342394,192.08606,28.14,99038.99,1.1767471
24352444,191.407,28.14,99047.0,1.1768422
24362498,192.00151,28.14,99040.0,1.176759
24382917,191.7452,28.15,99043.0,1.1767946
24392970,191.32243,28.15,99048.0,1.1768541
24403243,192.25517,28.15,99037.0,1.1767234
24423409,191.7452,28.15,99043.0,1.1767946
24433638,192.00151,28.15,99040.0,1.176759
24443686,191.57611,28.15,99044.99,1.1768184
24464047,191.407,28.14,99047.0,1.1768422
24474095,191.82976,28.14,99042.0,1.1767828
24484140,191.9143,28.14,99041.0,1.1767709
24504288,191.82976,28.15,99042.0,1.1767828
24514433,191.82976,28.15,99042.0,1.1767828
24524482,191.66064,28.15,99044.0,1.1768066
24544911,191.23788,28.15,99049.0,1.1768659
24555193,191.66064,28.15,99044.0,1.1768066
24565242,191.9143,28.15,99041.0,1.1767709
24585688,191.66064,28.14,99044.0,1.1768066
24595739,191.57611,28.14,99044.99,1.1768184
24605836,191.407,28.14,99047.0,1.1768422
24626140,191.66064,28.14,99044.0,1.1768066
24636194,191.23788,28.14,99049.0,1.1768659
24646243,192.17061,28.14,99038.0,1.1767353
24666421,191.407,28.14,99047.0,1.1768422
24676479,191.82976,28.14,99042.0,1.1767828
24686531,191.7452,28.14,99043.0,1.1767946
24706926,191.57611,28.15,99044.99,1.1768184
24716978,191.7452,28.15,99043.0,1.1767946
24727030,192.00151,28.15,99040.0,1.176759
24747179,191.15334,28.15,99050.0,1.1768779
24757231,192.08606,28.15,99038.99,1.1767471
24767325,192.17061,28.15,99038.0,1.1767353
24787666,191.7452,28.15,99043.0,1.1767946
24797760,191.49153,28.15,99046.0,1.1768303
24808028,191.7452,28.15,99043.0,1.1767946
24828126,191.32243,28.15,99048.0,1.1768541
24838433,191.49153,28.15,99046.0,1.1768303
24848498,191.57611,28.15,99044.99,1.1768184
24868915,191.66064,28.14,99044.0,1.1768066
24879011,191.407,28.14,99047.0,1.1768422
24889115,192.08606,28.14,99038.99,1.1767471
24909264,191.7452,28.15,99043.0,1.1767946
24919370,191.7452,28.15,99043.0,1.1767946
24929612,191.407,28.15,99047.0,1.1768422
24949705,191.49153,28.14,99046.0,1.1768303
24960029,191.49153,28.14,99046.0,1.1768303
24970088,192.17061,28.14,99038.0,1.1767353
24990480,191.49153,28.14,99046.0,1.1768303
25000535,191.66064,28.14,99044.0,1.1768066
25010584,192.00151,28.14,99040.0,1.176759
25030926,191.06877,28.15,99050.99,1.1768897
25040980,191.23788,28.15,99049.0,1.1768659
25051032,191.7452,28.15,99043.0,1.1767946
25071187,191.82976,28.15,99042.0,1.1767828
25081264,192.00151,28.15,99040.0,1.176759
25091319,191.82976,28.15,99042.0,1.1767828
25111816,191.57611,28.14,99044.99,1.1768184
25121874,191.66064,28.14,99044.0,1.1768066
25132130,191.9143,28.14,99041.0,1.1767709
25152453,191.9143,28.15,99041.0,1.1767709
25162501,192.00151,28.15,99040.0,1.176759
25172865,191.23788,28.15,99049.0,1.1768659
25193006,191.7452,28.14,99043.0,1.1767946
25203084,191.49153,28.14,99046.0,1.1768303
25213240,191.9143,28.14,99041.0,1.1767709
25233699,191.57611,28.15,99044.99,1.1768184
25243813,192.25517,28.15,99037.0,1.1767234
25253912,191.49153,28.15,99046.0,1.1768303
25274120,191.49153,28.15,99046.0,1.1768303
25284170,191.15334,28.15,99050.0,1.1768779
25294414,192.00151,28.15,99040.0,1.176759
25314541,191.57611,28.15,99044.99,1.1768184
25324837,191.7452,28.15,99043.0,1.1767946
25334890,191.82976,28.15,99042.0,1.1767828
