timestamp,heartbeat_time,data_rate,rate_multiplier,rate_rx,rate_tx,rate_txerr,remote_system_id,remote_component_id,remote_type,remote_system_status,type,mode,flow_control,forwarding,mavlink_v2,ftp,streams
5109779,5090649,800000.0,1.0,0.0,0.0,0.0,255,0,6,4,4,5,0,0,1,1,45
6036212,0,1200.0,0.42407984,0.0,0.14542976,0.0,0,0,0,0,0,0,1,1,0,1,34
6044167,5995488,800000.0,1.0,0.34993234,11.789031,0.0,255,0,6,4,4,5,0,0,1,1,45
6993270,6988459,800000.0,1.0,0.046779852,8.322832,0.0,255,0,6,4,4,5,0,0,1,1,45
7048407,0,1200.0,0.42407984,0.0,0.16274107,0.0,0,0,0,0,0,0,1,1,0,1,34
7982114,7981791,800000.0,1.0,0.046720188,8.984193,0.0,255,0,6,4,4,5,0,0,1,1,45
8049986,0,1200.0,0.42407984,0.0,0.044564955,0.0,0,0,0,0,0,0,1,1,0,1,34
8987608,8983460,800000.0,1.0,0.046777386,8.984243,0.0,255,0,6,4,4,5,0,0,1,1,45
9058569,0,1200.0,0.42407984,0.0,0.29429746,0.0,0,0,0,0,0,0,1,1,0,1,34
9988929,9984997,800000.0,1.0,0.04678451,9.173745,0.0,255,0,6,4,4,5,0,0,1,1,45
10058906,0,1200.0,0.42407984,0.0,0.044944447,0.0,0,0,0,0,0,0,1,1,0,1,34
10990909,9984997,800000.0,1.0,0.046920516,9.08461,0.0,255,0,6,4,4,5,0,0,1,1,45
10997110,10991466,800000.0,1.0,0.046920516,9.08461,0.0,255,0,6,4,4,5,0,0,1,1,45
11070596,0,1200.0,0.42407984,0.0,0.061284017,0.0,0,0,0,0,0,0,1,1,0,1,34
11992486,11988165,800000.0,1.0,0.04690071,18.222422,0.0,255,0,6,4,4,5,0,0,1,1,45
12078822,0,1200.0,0.42407984,0.0,0.3225566,0.16177455,0,0,0,0,0,0,1,1,0,1,34
12985075,12984445,800000.0,1.0,0.046874747,23.20699,0.0,255,0,6,4,4,5,0,0,1,1,45
13081236,0,1200.0,0.40929976,0.101609915,0.2331051,0.09961756,0,0,0,0,1,0,0,1,0,1,34
13985900,12984445,800000.0,1.0,0.04697529,23.356712,0.0,255,0,6,4,4,5,0,0,1,1,45
13991058,13986070,800000.0,1.0,0.04697529,23.356712,0.0,255,0,6,4,4,5,0,0,1,1,45
14087580,0,1200.0,0.402909,0.10133333,0.6119738,0.0,0,0,0,0,1,0,0,1,0,1,34
14985917,14984486,800000.0,1.0,0.04673761,23.220638,0.0,255,0,6,4,4,5,0,0,1,1,45
15093169,0,1200.0,0.402909,0.03381547,0.33218724,0.0,0,0,0,0,1,0,0,1,0,1,34
15986850,14984486,800000.0,1.0,0.046978246,23.306208,0.0,255,0,6,4,4,5,0,0,1,1,45
15998023,15994697,800000.0,1.0,0.046978246,23.306208,0.0,255,0,6,4,4,5,0,0,1,1,45
16101281,0,1200.0,0.402909,0.033730358,0.40377223,0.0,0,0,0,0,1,0,0,1,0,1,34
16984182,16983704,800000.0,1.0,0.046939775,23.239183,0.0,255,0,6,4,4,5,0,0,1,1,45
17107476,0,1200.0,0.402909,0.033875845,0.34075114,0.0,0,0,0,0,1,0,0,1,0,1,34
17985875,17983454,800000.0,1.0,0.046904173,23.268461,0.0,255,0,6,4,4,5,0,0,1,1,45
18117001,0,1200.0,0.402909,0.033664998,0.3307091,0.0,0,0,0,0,1,0,0,1,0,1,34
18985226,18983647,800000.0,1.0,0.04694948,23.243988,0.0,255,0,6,4,4,5,0,0,1,1,45
19126065,0,1200.0,0.402909,0.033682942,0.5884608,0.0,0,0,0,0,1,0,0,1,0,1,34
19985023,19984389,800000.0,1.0,0.046921592,23.278101,0.0,255,0,6,4,4,5,0,0,1,1,45
20136467,0,1200.0,0.402909,0.033975977,0.36973858,0.0,0,0,0,0,1,0,0,1,0,1,34
20985748,19984389,800000.0,1.0,0.046997882,23.267952,0.0,255,0,6,4,4,5,0,0,1,1,45
20993158,20992200,800000.0,1.0,0.046997882,23.267952,0.0,255,0,6,4,4,5,0,0,1,1,45
21137102,0,1200.0,0.402909,0.033985283,0.4068238,0.0,0,0,0,0,1,0,0,1,0,1,34
21987705,21983435,800000.0,1.0,0.046917375,23.319933,0.0,255,0,6,4,4,5,0,0,1,1,45
22147246,0,1200.0,0.402909,0.03395789,0.34157643,0.0,0,0,0,0,1,0,0,1,0,1,34
22984078,22984029,800000.0,1.0,0.046994124,23.26509,0.0,255,0,6,4,4,5,0,0,1,1,45
23151442,0,1200.0,0.402909,0.03389148,0.33293393,0.0,0,0,0,0,1,0,0,1,0,1,34
23984523,22984029,800000.0,1.0,0.046829864,23.670006,0.0,255,0,6,4,4,5,0,0,1,1,45
23993089,23986520,800000.0,1.0,0.046829864,23.670006,0.0,255,0,6,4,4,5,0,0,1,1,45
24158766,0,1200.0,0.402909,0.033832427,0.612964,0.0,0,0,0,0,1,0,0,1,0,1,34
24993715,24989954,800000.0,1.0,0.046951354,23.244917,0.0,255,0,6,4,4,5,0,0,1,1,45
25159458,0,1200.0,0.402909,0.033869095,0.33271405,0.0,0,0,0,0,1,0,0,1,0,1,34
25984515,25984371,800000.0,1.0,0.04694118,23.361727,0.0,255,0,6,4,4,5,0,0,1,1,45
26160374,0,1200.0,0.402909,0.03377227,0.44003284,0.0,0,0,0,0,1,0,0,1,0,1,34
26981850,26980304,800000.0,1.0,0.046687983,23.197968,0.0,255,0,6,4,4,5,0,0,1,1,45
27165155,0,1200.0,0.402909,0.06732253,0.3029514,0.0,0,0,0,0,1,0,0,1,0,1,34
27983307,26980304,800000.0,1.0,0.046909884,23.272293,0.0,255,0,6,4,4,5,0,0,1,1,45
27990498,27989861,800000.0,1.0,0.046909884,23.272293,0.0,255,0,6,4,4,5,0,0,1,1,45
28167611,0,1200.0,0.402909,0.0,0.3333616,0.0,0,0,0,0,1,0,0,1,0,1,34
28993802,27989861,800000.0,1.0,0.046943385,23.24097,0.0,255,0,6,4,4,5,0,0,1,1,45
29001082,28997913,800000.0,1.0,0.046943385,23.24097,0.0,255,0,6,4,4,5,0,0,1,1,45
29173739,0,1200.0,0.402909,0.03384883,0.61923444,0.0,0,0,0,0,1,0,0,1,0,1,34
30002015,28997913,800000.0,1.0,0.04699384,23.313946,0.0,255,0,6,4,4,5,0,0,1,1,45
30006287,30005225,800000.0,1.0,0.04699384,23.313946,0.0,255,0,6,4,4,5,0,0,1,1,45
30175264,0,1200.0,0.402909,0.033930473,0.30537426,0.0,0,0,0,0,1,0,0,1,0,1,34
30995345,30992046,800000.0,1.0,0.046894018,23.213535,0.0,255,0,6,4,4,5,0,0,1,1,45
31180329,0,1200.0,0.402909,0.033759966,0.4845548,0.0,0,0,0,0,1,0,0,1,0,1,34
31985822,31985264,800000.0,1.0,0.04695239,23.345327,0.0,255,0,6,4,4,5,0,0,1,1,45
32189103,0,1200.0,0.402909,0.06773475,0.2599819,0.0,0,0,0,0,1,0,0,1,0,1,34
32987604,32986534,800000.0,1.0,0.046925668,23.232199,0.0,255,0,6,4,4,5,0,0,1,1,45
33191650,0,1200.0,0.402909,0.0,0.33145148,0.0,0,0,0,0,1,0,0,1,0,1,34
33991640,33988458,800000.0,1.0,0.04693354,23.28303,0.0,255,0,6,4,4,5,0,0,1,1,45
34200939,0,1200.0,0.402909,0.067405276,0.6740528,0.0,0,0,0,0,1,0,0,1,0,1,34
34990907,34989272,800000.0,1.0,0.046894625,23.21683,0.0,255,0,6,4,4,5,0,0,1,1,45
35208877,0,1200.0,0.402909,0.03374636,0.30371726,0.0,0,0,0,0,1,0,0,1,0,1,34
35995389,34989272,800000.0,1.0,0.04687877,23.329668,0.0,255,0,6,4,4,5,0,0,1,1,45
36001721,36001691,800000.0,1.0,0.04687877,23.329668,0.0,255,0,6,4,4,5,0,0,1,1,45
36215340,0,1200.0,0.402909,0.0,0.52329296,0.0,0,0,0,0,1,0,0,1,0,1,34
36979463,36979360,800000.0,1.0,0.0679434,23.49343,0.0,255,0,6,4,4,5,0,0,1,1,45
37221987,0,1200.0,0.402909,0.06744352,0.28663495,0.0,0,0,0,0,1,0,0,1,0,1,34
37981815,36979360,800000.0,1.0,0.025995424,23.617842,0.0,255,0,6,4,4,5,0,0,1,1,45
37985990,37985244,800000.0,1.0,0.025995424,23.617842,0.0,255,0,6,4,4,5,0,0,1,1,45
38230267,0,1200.0,0.402909,0.033706315,0.30335683,0.0,0,0,0,0,1,0,0,1,0,1,34
38991541,38988187,800000.0,1.0,0.046864234,23.588663,0.0,255,0,6,4,4,5,0,0,1,1,45
39231815,0,1200.0,0.402909,0.03399398,0.65988314,0.0,0,0,0,0,1,0,0,1,0,1,34
39985247,39982764,800000.0,1.0,0.046961114,23.602455,0.0,255,0,6,4,4,5,0,0,1,1,45
40232382,0,1200.0,0.402909,0.0,0.30530328,0.0,0,0,0,0,1,0,0,1,0,1,34
40993045,40987296,800000.0,1.0,0.04698844,23.494219,0.0,255,0,6,4,4,5,0,0,1,1,45
41241106,0,1200.0,0.402909,0.063469894,0.5216432,0.0,0,0,0,0,1,0,0,1,0,1,34
41988504,41987473,800000.0,1.0,0.04688368,23.563538,0.0,255,0,6,4,4,5,0,0,1,1,45
42249312,0,1200.0,0.402909,0.0039688363,0.28674844,0.0,0,0,0,0,1,0,0,1,0,1,34
42989778,41987473,800000.0,1.0,0.046933353,23.540571,0.0,255,0,6,4,4,5,0,0,1,1,45
42995633,42993029,800000.0,1.0,0.046933353,23.540571,0.0,255,0,6,4,4,5,0,0,1,1,45
43250271,0,1200.0,0.402909,0.06797022,0.305866,0.0,0,0,0,0,1,0,0,1,0,1,34
43983303,43983048,800000.0,1.0,0.046933353,23.540571,0.0,255,0,6,4,4,5,0,0,1,1,45
44253295,0,1200.0,0.402909,0.03390449,0.68008417,0.0,0,0,0,0,1,0,0,1,0,1,34
44985174,43983048,800000.0,1.0,0.06788839,23.948627,0.0,255,0,6,4,4,5,0,0,1,1,45
44996999,44993160,800000.0,1.0,0.025968136,23.54411,0.0,255,0,6,4,4,5,0,0,1,1,45
45257227,0,1200.0,0.402909,0.033841014,0.30456913,0.0,0,0,0,0,1,0,0,1,0,1,34
45993306,45990001,800000.0,1.0,0.067858376,23.571804,0.0,255,0,6,4,4,5,0,0,1,1,45
46265209,0,1200.0,0.402909,0.033755608,0.5222191,0.0,0,0,0,0,1,0,0,1,0,1,34
46994096,46991275,800000.0,1.0,0.046943434,23.545628,0.0,255,0,6,4,4,5,0,0,1,1,45
47268104,0,1200.0,0.402909,0.03386815,0.32373965,0.0,0,0,0,0,1,0,0,1,0,1,34
47996515,47994828,800000.0,1.0,0.046807807,23.625992,0.0,255,0,6,4,4,5,0,0,1,1,45
48277182,0,1200.0,0.402909,0.033676904,0.30309212,0.0,0,0,0,0,1,0,0,1,0,1,34
48989853,48988967,800000.0,1.0,0.046807807,23.625992,0.0,255,0,6,4,4,5,0,0,1,1,45
49277292,0,1200.0,0.402909,0.033677336,0.65373653,0.0,0,0,0,0,1,0,0,1,0,1,34
49991286,48988967,800000.0,1.0,0.046961162,23.627459,0.0,255,0,6,4,4,5,0,0,1,1,45
49995810,49994735,800000.0,1.0,0.046961162,23.627459,0.0,255,0,6,4,4,5,0,0,1,1,45
50283521,0,1200.0,0.402909,0.03378761,0.33191356,0.0,0,0,0,0,1,0,0,1,0,1,34
50989302,50985994,800000.0,1.0,0.046919204,23.581392,0.0,255,0,6,4,4,5,0,0,1,1,45
51288306,0,1200.0,0.402909,0.033838253,0.49563086,0.0,0,0,0,0,1,0,0,1,0,1,34
51992424,50985994,800000.0,1.0,0.04689809,23.633644,0.0,255,0,6,4,4,5,0,0,1,1,45
52001152,51998258,800000.0,1.0,0.04689809,23.633644,0.0,255,0,6,4,4,5,0,0,1,1,45
52293818,0,1200.0,0.402909,0.033813383,0.33216676,0.0,0,0,0,0,1,0,0,1,0,1,34
53001195,51998258,800000.0,1.0,0.046725392,23.563515,0.0,255,0,6,4,4,5,0,0,1,1,45
53021229,53018758,800000.0,1.0,0.025948932,23.524702,0.0,255,0,6,4,4,5,0,0,1,1,45
53303590,0,1200.0,0.402909,0.033761304,0.37633926,0.0,0,0,0,0,1,0,0,1,0,1,34
53985284,53984975,800000.0,1.0,0.025948932,23.524702,0.0,255,0,6,4,4,5,0,0,1,1,45
54314015,0,1200.0,0.402909,0.0,0.563333,0.0,0,0,0,0,1,0,0,1,0,1,34
54989963,54986813,800000.0,1.0,0.067922905,23.595219,0.0,255,0,6,4,4,5,0,0,1,1,45
55324109,0,1200.0,0.402909,0.0679618,0.3338124,0.0,0,0,0,0,1,0,0,1,0,1,34
55990777,55988240,800000.0,1.0,0.046896733,23.522203,0.0,255,0,6,4,4,5,0,0,1,1,45
56324915,0,1200.0,0.402909,0.03367844,0.49329004,0.0,0,0,0,0,1,0,0,1,0,1,34
56985195,56984367,800000.0,1.0,0.046957828,23.600805,0.0,255,0,6,4,4,5,0,0,1,1,45
57334018,0,1200.0,0.402909,0.033643145,0.33049443,0.0,0,0,0,0,1,0,0,1,0,1,34
57987268,57986015,800000.0,1.0,0.04694179,23.543804,0.0,255,0,6,4,4,5,0,0,1,1,45
58338094,0,1200.0,0.402909,0.03381483,0.40478337,0.0,0,0,0,0,1,0,0,1,0,1,34
58988514,57986015,800000.0,1.0,0.046937477,23.589579,0.0,255,0,6,4,4,5,0,0,1,1,45
58991501,58989022,800000.0,1.0,0.046937477,23.589579,0.0,255,0,6,4,4,5,0,0,1,1,45
59339715,0,1200.0,0.402909,0.033623282,0.54390603,0.0,0,0,0,0,1,0,0,1,0,1,34
59989134,59985993,800000.0,1.0,0.04696144,23.55466,0.0,255,0,6,4,4,5,0,0,1,1,45
60342046,0,1200.0,0.402909,0.03391274,0.33314282,0.0,0,0,0,0,1,0,0,1,0,1,34
60991836,60990797,800000.0,1.0,0.046925526,23.658453,0.0,255,0,6,4,4,5,0,0,1,1,45
61345178,0,1200.0,0.402909,0.03389756,0.49649957,0.0,0,0,0,0,1,0,0,1,0,1,34
61992352,61989015,800000.0,1.0,0.04692539,23.536575,0.0,255,0,6,4,4,5,0,0,1,1,45
62346494,0,1200.0,0.402909,0.03396603,0.33366632,0.0,0,0,0,0,1,0,0,1,0,1,34
62994026,61989015,800000.0,1.0,0.04693129,23.951933,0.0,255,0,6,4,4,5,0,0,1,1,45
62998612,62997991,800000.0,1.0,0.04693129,23.951933,0.0,255,0,6,4,4,5,0,0,1,1,45
63347221,0,1200.0,0.402909,0.033964198,0.40657145,0.0,0,0,0,0,1,0,0,1,0,1,34
64000429,62997991,800000.0,1.0,0.046919014,23.532381,0.0,255,0,6,4,4,5,0,0,1,1,45
64007428,64006901,800000.0,1.0,0.046919014,23.532381,0.0,255,0,6,4,4,5,0,0,1,1,45
64353045,0,1200.0,0.402909,0.033799835,0.5328445,0.0,0,0,0,0,1,0,0,1,0,1,34
64989982,64989436,800000.0,1.0,0.046912927,23.578238,0.0,255,0,6,4,4,5,0,0,1,1,45
65354754,0,1200.0,0.402909,0.033942025,0.33343047,0.0,0,0,0,0,1,0,0,1,0,1,34
65990578,64989436,800000.0,1.0,0.046932742,23.538269,0.0,255,0,6,4,4,5,0,0,1,1,45
65994922,65991216,800000.0,1.0,0.046932742,23.538269,0.0,255,0,6,4,4,5,0,0,1,1,45
66359373,0,1200.0,0.402909,0.033863124,0.52388245,0.0,0,0,0,0,1,0,0,1,0,1,34
66989104,66987519,800000.0,1.0,0.04689299,23.638058,0.0,255,0,6,4,4,5,0,0,1,1,45
67359670,0,1200.0,0.402909,0.033863124,0.52388245,0.0,0,0,0,0,1,0,0,1,0,1,34
67992342,66987519,800000.0,1.0,0.046816338,23.482876,0.0,255,0,6,4,4,5,0,0,1,1,45
67998652,67993104,800000.0,1.0,0.046816338,23.482876,0.0,255,0,6,4,4,5,0,0,1,1,45
68366261,0,1200.0,0.402909,0.033654235,0.30288813,0.0,0,0,0,0,1,0,0,1,0,1,34
68987486,68985725,800000.0,1.0,0.046958767,23.702188,0.0,255,0,6,4,4,5,0,0,1,1,45
69372082,0,1200.0,0.402909,0.033753596,0.610543,0.0,0,0,0,0,1,0,0,1,0,1,34
69988490,68985725,800000.0,1.0,0.046874937,23.56413,0.0,255,0,6,4,4,5,0,0,1,1,45
69995646,69995359,800000.0,1.0,0.046874937,23.56413,0.0,255,0,6,4,4,5,0,0,1,1,45
70380092,0,1200.0,0.402909,0.033750515,0.30375463,0.0,0,0,0,0,1,0,0,1,0,1,34
70994401,70989798,800000.0,1.0,0.046945587,23.669565,0.0,255,0,6,4,4,5,0,0,1,1,45
71386565,0,1200.0,0.402909,0.03378687,0.33190632,0.0,0,0,0,0,1,0,0,1,0,1,34
71995483,70989798,800000.0,1.0,0.046740215,23.528229,0.0,255,0,6,4,4,5,0,0,1,1,45
71998701,71998037,800000.0,1.0,0.046740215,23.528229,0.0,255,0,6,4,4,5,0,0,1,1,45
72396290,0,1200.0,0.402909,0.033760402,0.52229327,0.0,0,0,0,0,1,0,0,1,0,1,34
73001282,72998844,800000.0,1.0,0.046961628,23.603714,0.0,255,0,6,4,4,5,0,0,1,1,45
73402619,0,1200.0,0.402909,0.03367687,0.33874968,0.0,0,0,0,0,1,0,0,1,0,1,34
73987296,73986654,800000.0,1.0,0.04688078,23.514202,0.0,255,0,6,4,4,5,0,0,1,1,45
74407358,0,1200.0,0.402909,0.033732902,0.65481514,0.0,0,0,0,0,1,0,0,1,0,1,34
74987391,73986654,800000.0,1.0,0.04693101,23.588324,0.0,255,0,6,4,4,5,0,0,1,1,45
74991707,74990918,800000.0,1.0,0.04693101,23.588324,0.0,255,0,6,4,4,5,0,0,1,1,45
75416284,0,1200.0,0.402909,0.033914097,0.31021422,0.0,0,0,0,0,1,0,0,1,0,1,34
75993773,74990918,800000.0,1.0,0.046986233,23.568094,0.0,255,0,6,4,4,5,0,0,1,1,45
76009159,76009014,800000.0,1.0,0.046986233,23.568094,0.0,255,0,6,4,4,5,0,0,1,1,45
76417203,0,1200.0,0.402909,0.033674736,0.3030726,0.0,0,0,0,0,1,0,0,1,0,1,34
76989240,76986040,800000.0,1.0,0.04687765,23.55951,0.0,255,0,6,4,4,5,0,0,1,1,45
77428024,0,1200.0,0.402909,0.033947617,0.52518964,0.0,0,0,0,0,1,0,0,1,0,1,34
77992986,77990632,800000.0,1.0,0.046941977,23.573862,0.0,255,0,6,4,4,5,0,0,1,1,45
78428301,0,1200.0,0.402909,0.03367487,0.30307382,0.0,0,0,0,0,1,0,0,1,0,1,34
78992487,78989819,800000.0,1.0,0.04696154,23.603668,0.0,255,0,6,4,4,5,0,0,1,1,45
79433093,0,1200.0,0.402909,0.0336566,0.65333396,0.0,0,0,0,0,1,0,0,1,0,1,34
79984134,79983570,800000.0,1.0,0.04689921,23.834778,0.0,255,0,6,4,4,5,0,0,1,1,45
80439659,0,1200.0,0.402909,0.033759095,0.2869523,0.0,0,0,0,0,1,0,0,1,0,1,34
80989172,79983570,800000.0,1.0,0.046870682,23.6318,0.0,255,0,6,4,4,5,0,0,1,1,45
80996305,80995302,800000.0,1.0,0.046870682,23.6318,0.0,255,0,6,4,4,5,0,0,1,1,45
81443681,0,1200.0,0.402909,0.033838555,0.30454698,0.0,0,0,0,0,1,0,0,1,0,1,34
81997805,81996389,800000.0,1.0,0.046958253,23.479126,0.0,255,0,6,4,4,5,0,0,1,1,45
82453249,0,1200.0,0.402909,0.03385176,0.5237067,0.0,0,0,0,0,1,0,0,1,0,1,34
82990735,82985894,800000.0,1.0,0.0468294,23.619951,0.0,255,0,6,4,4,5,0,0,1,1,45
83464521,0,1200.0,0.402909,0.033675835,0.30308253,0.0,0,0,0,0,1,0,0,1,0,1,34
83989776,83985762,800000.0,1.0,0.046992995,23.571487,0.0,255,0,6,4,4,5,0,0,1,1,45
84466125,0,1200.0,0.402909,0.033999283,0.6599861,0.0,0,0,0,0,1,0,0,1,0,1,34
84990748,84987527,800000.0,1.0,0.046846293,23.545744,0.0,255,0,6,4,4,5,0,0,1,1,45
85467332,0,1200.0,0.402909,0.033902563,0.31010875,0.0,0,0,0,0,1,0,0,1,0,1,34
85992241,85990586,800000.0,1.0,0.046883773,23.5167,0.0,255,0,6,4,4,5,0,0,1,1,45
86470800,0,1200.0,0.402909,0.033972956,0.34172797,0.0,0,0,0,0,1,0,0,1,0,1,34
86992157,86985678,800000.0,1.0,0.046938557,23.717953,0.0,255,0,6,4,4,5,0,0,1,1,45
87477817,0,1200.0,0.402909,0.033920456,0.5247694,0.0,0,0,0,0,1,0,0,1,0,1,34
87987238,87985835,800000.0,1.0,0.04694076,23.545286,0.0,255,0,6,4,4,5,0,0,1,1,45
88482669,0,1200.0,0.402909,0.033696294,0.33101654,0.0,0,0,0,0,1,0,0,1,0,1,34
88988924,87985835,800000.0,1.0,0.046968434,23.607134,0.0,255,0,6,4,4,5,0,0,1,1,45
88993195,88992267,800000.0,1.0,0.046968434,23.607134,0.0,255,0,6,4,4,5,0,0,1,1,45
89492339,0,1200.0,0.402909,0.03399915,0.33399165,0.0,0,0,0,0,1,0,0,1,0,1,34
89986857,89986492,800000.0,1.0,0.04696623,23.55806,0.0,255,0,6,4,4,5,0,0,1,1,45
90500352,0,1200.0,0.402909,0.033724204,0.25888285,0.0,0,0,0,0,1,0,0,1,0,1,34
90988324,89986492,800000.0,1.0,0.046823476,23.677734,0.0,255,0,6,4,4,5,0,0,1,1,45
90992130,90989971,800000.0,1.0,0.046823476,23.677734,0.0,255,0,6,4,4,5,0,0,1,1,45
91502781,0,1200.0,0.402909,0.03392039,0.52476835,0.0,0,0,0,0,1,0,0,1,0,1,34
91991319,91987537,800000.0,1.0,0.04695431,23.552084,0.0,255,0,6,4,4,5,0,0,1,1,45
92508428,0,1200.0,0.402909,0.033883978,0.33286026,0.0,0,0,0,0,1,0,0,1,0,1,34
92990709,92986481,800000.0,1.0,0.046748023,23.579903,0.0,255,0,6,4,4,5,0,0,1,1,45
93516290,0,1200.0,0.402909,0.03397601,0.63155407,0.0,0,0,0,0,1,0,0,1,0,1,34
93991975,92986481,800000.0,1.0,0.04680468,23.47703,0.0,255,0,6,4,4,5,0,0,1,1,45
94001853,93999658,800000.0,1.0,0.04680468,23.47703,0.0,255,0,6,4,4,5,0,0,1,1,45
94524482,0,1200.0,0.402909,0.033859044,0.3545241,0.0,0,0,0,0,1,0,0,1,0,1,34
94997306,94995697,800000.0,1.0,0.04689046,23.92112,0.0,255,0,6,4,4,5,0,0,1,1,45
95530798,0,1200.0,0.402909,0.0337606,0.40413424,0.0,0,0,0,0,1,0,0,1,0,1,34
95997888,94995697,800000.0,1.0,0.046899866,23.524773,0.0,255,0,6,4,4,5,0,0,1,1,45
96006748,96005812,800000.0,1.0,0.046899866,23.524773,0.0,255,0,6,4,4,5,0,0,1,1,45
96539368,0,1200.0,0.402909,0.03370154,0.37666425,0.0,0,0,0,0,1,0,0,1,0,1,34
96992459,96991420,800000.0,1.0,0.04698642,23.616173,0.0,255,0,6,4,4,5,0,0,1,1,45
97544644,0,1200.0,0.402909,0.033763286,0.3316746,0.0,0,0,0,0,1,0,0,1,0,1,34
97992512,96991420,800000.0,1.0,0.046917096,23.533415,0.0,255,0,6,4,4,5,0,0,1,1,45
97998562,97993698,800000.0,1.0,0.046917096,23.533415,0.0,255,0,6,4,4,5,0,0,1,1,45
98545086,0,1200.0,0.402909,0.033969358,0.63143045,0.0,0,0,0,0,1,0,0,1,0,1,34
98994676,98991719,800000.0,1.0,0.04685615,23.550697,0.0,255,0,6,4,4,5,0,0,1,1,45
99546742,0,1200.0,0.402909,0.033957247,0.33358002,0.0,0,0,0,0,1,0,0,1,0,1,34
99996411,98991719,800000.0,1.0,0.046952575,23.551212,0.0,255,0,6,4,4,5,0,0,1,1,45
100000235,99999319,800000.0,1.0,0.046952575,23.551212,0.0,255,0,6,4,4,5,0,0,1,1,45
100553586,0,1200.0,0.402909,0.03388381,0.44148612,0.0,0,0,0,0,1,0,0,1,0,1,34
100988311,100986527,800000.0,1.0,0.046999857,23.622929,0.0,255,0,6,4,4,5,0,0,1,1,45
101559324,0,1200.0,0.402909,0.03367657,0.37638518,0.0,0,0,0,0,1,0,0,1,0,1,34
101990041,100986527,800000.0,1.0,0.046884194,23.515915,0.0,255,0,6,4,4,5,0,0,1,1,45
102011422,102010794,800000.0,1.0,0.046884194,23.515915,0.0,255,0,6,4,4,5,0,0,1,1,45
102561110,0,1200.0,0.402909,0.03391254,0.33314082,0.0,0,0,0,0,1,0,0,1,0,1,34
102992990,102991353,800000.0,1.0,0.04694254,23.677017,0.0,255,0,6,4,4,5,0,0,1,1,45
103568461,0,1200.0,0.402909,0.03380259,0.6283305,0.0,0,0,0,0,1,0,0,1,0,1,34
103998837,103993684,800000.0,1.0,0.046926696,23.618107,0.0,255,0,6,4,4,5,0,0,1,1,45
104571277,0,1200.0,0.402909,0.033876147,0.3547032,0.0,0,0,0,0,1,0,0,1,0,1,34
104992413,104992305,800000.0,1.0,0.04694024,23.591967,0.0,255,0,6,4,4,5,0,0,1,1,45
105572332,0,1200.0,0.402909,0.03399789,0.40697473,0.0,0,0,0,0,1,0,0,1,0,1,34
105996830,105996465,800000.0,1.0,0.046945214,23.576485,0.0,255,0,6,4,4,5,0,0,1,1,45
106580974,0,1200.0,0.402909,0.033736482,0.3770548,0.0,0,0,0,0,1,0,0,1,0,1,34
106990573,106989263,800000.0,1.0,0.046956282,23.601027,0.0,255,0,6,4,4,5,0,0,1,1,45
107582064,0,1200.0,0.402909,0.033895127,0.33296978,0.0,0,0,0,0,1,0,0,1,0,1,34
107992323,107992186,800000.0,1.0,0.046859793,23.577456,0.0,255,0,6,4,4,5,0,0,1,1,45
108591599,0,1200.0,0.402909,0.0,0.65405655,0.0,0,0,0,0,1,0,0,1,0,1,34
108993725,107992186,800000.0,1.0,0.04696285,23.604326,0.0,255,0,6,4,4,5,0,0,1,1,45
108997038,108996449,800000.0,1.0,0.04696285,23.604326,0.0,255,0,6,4,4,5,0,0,1,1,45
109601216,0,1200.0,0.402909,0.06739606,0.30328226,0.0,0,0,0,0,1,0,0,1,0,1,34
109985928,109985779,800000.0,1.0,0.046929415,23.539597,0.0,255,0,6,4,4,5,0,0,1,1,45
110609868,0,1200.0,0.402909,0.033711795,0.5215413,0.0,0,0,0,0,1,0,0,1,0,1,34
110992169,109985779,800000.0,1.0,0.04692028,23.582932,0.0,255,0,6,4,4,5,0,0,1,1,45
111008822,111008318,800000.0,1.0,0.04692028,23.582932,0.0,255,0,6,4,4,5,0,0,1,1,45
111617721,0,1200.0,0.402909,0.033752322,0.2590987,0.0,0,0,0,0,1,0,0,1,0,1,34
111989816,111988355,800000.0,1.0,0.04699215,23.571062,0.0,255,0,6,4,4,5,0,0,1,1,45
112623468,0,1200.0,0.402909,0.033762243,0.36741266,0.0,0,0,0,0,1,0,0,1,0,1,34
112989844,112989229,800000.0,1.0,0.046888076,23.667505,0.0,255,0,6,4,4,5,0,0,1,1,45
113631239,0,1200.0,0.402909,0.03378056,0.65574026,0.0,0,0,0,0,1,0,0,1,0,1,34
113991698,113988347,800000.0,1.0,0.046915315,23.532522,0.0,255,0,6,4,4,5,0,0,1,1,45
114637734,0,1200.0,0.402909,0.033789456,0.3259689,0.0,0,0,0,0,1,0,0,1,0,1,34
114992517,114986770,800000.0,1.0,0.046708398,23.840164,0.0,255,0,6,4,4,5,0,0,1,1,45
115643320,0,1200.0,0.402909,0.033752725,0.52217454,0.0,0,0,0,0,1,0,0,1,0,1,34
115993286,115992194,800000.0,1.0,0.046820767,23.485098,0.0,255,0,6,4,4,5,0,0,1,1,45
116652343,0,1200.0,0.402909,0.03370802,0.28651816,0.0,0,0,0,0,1,0,0,1,0,1,34
116995457,116993009,800000.0,1.0,0.046929978,23.730593,0.0,255,0,6,4,4,5,0,0,1,1,45
117660482,0,1200.0,0.402909,0.03375065,0.30375582,0.0,0,0,0,0,1,0,0,1,0,1,34
117994907,117994874,800000.0,1.0,0.046957362,23.553614,0.0,255,0,6,4,4,5,0,0,1,1,45
118664104,0,1200.0,0.402909,0.03384307,0.6569537,0.0,0,0,0,0,1,0,0,1,0,1,34
118996201,118995406,800000.0,1.0,0.046879098,23.562233,0.0,255,0,6,4,4,5,0,0,1,1,45
119666593,0,1200.0,0.402909,0.033915143,0.30523628,0.0,0,0,0,0,1,0,0,1,0,1,34
119993438,119989447,800000.0,1.0,0.04697848,23.564205,0.0,255,0,6,4,4,5,0,0,1,1,45
120676959,0,1200.0,0.402909,0.0337227,0.52171,0.0,0,0,0,0,1,0,0,1,0,1,34
120993729,120987426,800000.0,1.0,0.046838265,23.59353,0.0,255,0,6,4,4,5,0,0,1,1,45
121687342,0,1200.0,0.402909,0.033949617,0.28857175,0.0,0,0,0,0,1,0,0,1,0,1,34
121992524,121992374,800000.0,1.0,0.0468841,23.516865,0.0,255,0,6,4,4,5,0,0,1,1,45
122693168,0,1200.0,0.402909,0.0337602,0.3038418,0.0,0,0,0,0,1,0,0,1,0,1,34
122994694,121992374,800000.0,1.0,0.046894815,23.653944,0.0,255,0,6,4,4,5,0,0,1,1,45
123001920,123001830,800000.0,1.0,0.046894815,23.653944,0.0,255,0,6,4,4,5,0,0,1,1,45
123701849,0,1200.0,0.402909,0.0337953,0.6560264,0.0,0,0,0,0,1,0,0,1,0,1,34
123991447,123989792,800000.0,1.0,0.04692623,23.537998,0.0,255,0,6,4,4,5,0,0,1,1,45
124708431,0,1200.0,0.402909,0.033819772,0.35411292,0.0,0,0,0,0,1,0,0,1,0,1,34
124993229,124992415,800000.0,1.0,0.046725348,23.484955,0.0,255,0,6,4,4,5,0,0,1,1,45
125715557,0,1200.0,0.402909,0.03377016,0.53039014,0.0,0,0,0,0,1,0,0,1,0,1,34
125995281,124992415,800000.0,1.0,0.046848956,23.598915,0.0,255,0,6,4,4,5,0,0,1,1,45
126002623,126001153,800000.0,1.0,0.046848956,23.598915,0.0,255,0,6,4,4,5,0,0,1,1,45
126723534,0,1200.0,0.402909,0.033943143,0.28851673,0.0,0,0,0,0,1,0,0,1,0,1,34
127001248,127000291,800000.0,1.0,0.046991587,23.61877,0.0,255,0,6,4,4,5,0,0,1,1,45
127732893,0,1200.0,0.402909,0.033777338,0.30399606,0.0,0,0,0,0,1,0,0,1,0,1,34
128005080,128001934,800000.0,1.0,0.046898883,23.906456,0.0,255,0,6,4,4,5,0,0,1,1,45
128738536,0,1200.0,0.402909,0.03378066,0.6557422,0.0,0,0,0,0,1,0,0,1,0,1,34
128996230,128991288,800000.0,1.0,0.046927355,23.615442,0.0,255,0,6,4,4,5,0,0,1,1,45
129744444,0,1200.0,0.402909,0.03379708,0.33200663,0.0,0,0,0,0,1,0,0,1,0,1,34
129997763,128991288,800000.0,1.0,0.04674333,23.529797,0.0,255,0,6,4,4,5,0,0,1,1,45
130001130,130000091,800000.0,1.0,0.04674333,23.529797,0.0,255,0,6,4,4,5,0,0,1,1,45
130752505,0,1200.0,0.402909,0.03364318,0.49277362,0.0,0,0,0,0,1,0,0,1,0,1,34
130993796,130992974,800000.0,1.0,0.046736777,23.489706,0.0,255,0,6,4,4,5,0,0,1,1,45
131762655,0,1200.0,0.402909,0.033753496,0.33157846,0.0,0,0,0,0,1,0,0,1,0,1,34
131994848,130992974,800000.0,1.0,0.04699187,23.57092,0.0,255,0,6,4,4,5,0,0,1,1,45
132008501,132007283,800000.0,1.0,0.04699187,23.57092,0.0,255,0,6,4,4,5,0,0,1,1,45
132770726,0,1200.0,0.402909,0.0338983,0.3778664,0.0,0,0,0,0,1,0,0,1,0,1,34
132990101,132988859,800000.0,1.0,0.046898324,23.697622,0.0,255,0,6,4,4,5,0,0,1,1,45
133780319,0,1200.0,0.402909,0.033850648,0.53961915,0.0,0,0,0,0,1,0,0,1,0,1,34
133996381,132988859,800000.0,1.0,0.046807386,23.539135,0.0,255,0,6,4,4,5,0,0,1,1,45
134009907,134009313,800000.0,1.0,0.046807386,23.539135,0.0,255,0,6,4,4,5,0,0,1,1,45
134781192,0,1200.0,0.402909,0.033954162,0.35552004,0.0,0,0,0,0,1,0,0,1,0,1,34
135013893,135010851,800000.0,1.0,0.04693284,23.52833,0.0,255,0,6,4,4,5,0,0,1,1,45
135783713,0,1200.0,0.402909,0.03386545,0.49602926,0.0,0,0,0,0,1,0,0,1,0,1,34
135989189,135984904,800000.0,1.0,0.046985384,23.56667,0.0,255,0,6,4,4,5,0,0,1,1,45
136791185,0,1200.0,0.402909,0.03353851,0.32946652,0.0,0,0,0,0,1,0,0,1,0,1,34
136990507,135984904,800000.0,1.0,0.04686741,23.495531,0.0,255,0,6,4,4,5,0,0,1,1,45
136994737,136992478,800000.0,1.0,0.04686741,23.495531,0.0,255,0,6,4,4,5,0,0,1,1,45
137791495,0,1200.0,0.402909,0.03384637,0.40516096,0.0,0,0,0,0,1,0,0,1,0,1,34
137995452,136992478,800000.0,1.0,0.046956327,23.492151,0.0,255,0,6,4,4,5,0,0,1,1,45
138048284,138046902,800000.0,1.0,0.046956327,23.492151,0.0,255,0,6,4,4,5,0,0,1,1,45
138795351,0,1200.0,0.402909,0.033667564,0.54462236,0.0,0,0,0,0,1,0,0,1,0,1,34
138997077,138995391,800000.0,1.0,0.04693279,23.58822,0.0,255,0,6,4,4,5,0,0,1,1,45
139799554,0,1200.0,0.402909,0.033757485,0.33161765,0.0,0,0,0,0,1,0,0,1,0,1,34
139998273,139997066,800000.0,1.0,0.046906654,23.612011,0.0,255,0,6,4,4,5,0,0,1,1,45
140800341,0,1200.0,0.402909,0.033926312,0.49692065,0.0,0,0,0,0,1,0,0,1,0,1,34
141001059,139997066,800000.0,1.0,0.04694104,23.593367,0.0,255,0,6,4,4,5,0,0,1,1,45
141025855,141021878,800000.0,1.0,0.04694104,23.593367,0.0,255,0,6,4,4,5,0,0,1,1,45
141808378,0,1200.0,0.402909,0.03380609,0.3320951,0.0,0,0,0,0,1,0,0,1,0,1,34
141989894,141987616,800000.0,1.0,0.046718936,23.872383,0.0,255,0,6,4,4,5,0,0,1,1,45
142809090,0,1200.0,0.402909,0.03399779,0.4069735,0.0,0,0,0,0,1,0,0,1,0,1,34
142992833,141987616,800000.0,1.0,0.04679811,23.622093,0.0,255,0,6,4,4,5,0,0,1,1,45
142998652,142994497,800000.0,1.0,0.04679811,23.622093,0.0,255,0,6,4,4,5,0,0,1,1,45
143810594,0,1200.0,0.402909,0.033925295,0.51287067,0.0,0,0,0,0,1,0,0,1,0,1,34
143992016,143988361,800000.0,1.0,0.046722002,23.479296,0.0,255,0,6,4,4,5,0,0,1,1,45
144817910,0,1200.0,0.402909,0.03375038,0.35338634,0.0,0,0,0,0,1,0,0,1,0,1,34
144985278,144985040,800000.0,1.0,0.046884287,23.728437,0.0,255,0,6,4,4,5,0,0,1,1,45
145818797,0,1200.0,0.402909,0.033919405,0.52475315,0.0,0,0,0,0,1,0,0,1,0,1,34
145983509,145983288,800000.0,1.0,0.0468972,23.523436,0.0,255,0,6,4,4,5,0,0,1,1,45
146825199,0,1200.0,0.402909,0.033865854,0.3047927,0.0,0,0,0,0,1,0,0,1,0,1,34
146986496,145983288,800000.0,1.0,0.046808552,23.494905,0.0,255,0,6,4,4,5,0,0,1,1,45
146998077,146994832,800000.0,1.0,0.046808552,23.494905,0.0,255,0,6,4,4,5,0,0,1,1,45
147826777,0,1200.0,0.402909,0.033613745,0.60801333,0.0,0,0,0,0,1,0,0,1,0,1,34
147994021,147993040,800000.0,1.0,0.046932414,23.554081,0.0,255,0,6,4,4,5,0,0,1,1,45
148832324,0,1200.0,0.402909,0.033746596,0.30371937,0.0,0,0,0,0,1,0,0,1,0,1,34
148996398,147993040,800000.0,1.0,0.046955436,23.598604,0.0,255,0,6,4,4,5,0,0,1,1,45
149837149,0,1200.0,0.402909,0.03378103,0.33184895,0.0,0,0,0,0,1,0,0,1,0,1,34
149996414,147993040,800000.0,0.37242022,0.0,8.717193,14.689678,255,0,6,4,4,5,0,0,1,1,45
150842057,0,1200.0,0.402909,0.0339146,0.5246788,0.0,0,0,0,0,1,0,0,1,0,1,34
151002117,147993040,800000.0,0.05,0.0,0.0,8.798951,255,0,6,4,4,5,0,0,1,1,45
