timestamp,accel_inconsistency_m_s_s,gyro_inconsistency_rad_s,mag_inconsistency_angle
6672145,0.20835602,0.020084275,0.09568868
6899511,0.20172232,0.02265174,0.09717513
7100962,0.18242823,0.021684557,0.09713777
7301203,0.26844427,0.021114305,0.102100775
7501015,0.16995496,0.019755125,0.09914976
7704349,0.22327042,0.02244085,0.09028843
7909114,0.22126888,0.021054074,0.09506337
8110234,0.20458852,0.020622037,0.09268345
8310464,0.26027858,0.020705836,0.08819394
8512385,0.19088463,0.019236844,0.09170718
8713265,0.1992485,0.023421615,0.09812541
8913769,0.21948197,0.02154666,0.10042464
9118645,0.21199714,0.019748963,0.09304392
9319396,0.18809672,0.021035865,0.09157322
9518678,0.1956781,0.019898938,0.09545643
9723258,0.22655122,0.019002724,0.09324059
9928040,0.21529728,0.019464673,0.09125516
10127697,0.21234183,0.026131254,0.09143614
10328293,0.19001849,0.022431776,0.090818524
10532100,0.20801364,0.021792714,0.09201959
10732506,0.19173013,0.022648824,0.09366754
10937737,0.20389444,0.02285504,0.0903438
11140322,0.21408421,0.023305831,0.09580341
11346687,0.21302193,0.024214974,0.09475466
11546662,0.20356871,0.023610553,0.08485978
11749314,0.24153796,0.024849415,0.087495156
11955547,0.17748651,0.02668197,0.089809455
12156409,0.19012904,0.0221952,0.09126167
12358536,0.20335953,0.022894088,0.087704144
12565138,0.21173805,0.01995194,0.08865856
12767352,0.20551011,0.026869297,0.08024998
12973552,0.19387229,0.030408042,0.094294325
13173976,0.22981706,0.025925416,0.095895894
13373245,0.21866344,0.028018894,0.09064388
13576895,0.21328232,0.020021826,0.08965332
13781874,0.18902914,0.018845893,0.08723883
13982063,0.22903672,0.017600615,0.08380429
14185282,0.21445127,0.018794589,0.083739676
14390526,0.22593433,0.015691802,0.085990354
14593745,0.21555385,0.01880435,0.08928659
14795289,0.20825206,0.021470658,0.07991942
15000617,0.19071388,0.019418249,0.078840606
15200629,0.24150044,0.018861787,0.081109636
15403268,0.20106561,0.018613216,0.08129598
15607620,0.1860461,0.023709662,0.081121035
15808388,0.2059878,0.025330808,0.09206855
16009646,0.1744908,0.021388453,0.078519374
16212178,0.22579913,0.02194891,0.08209948
16418097,0.21825282,0.021622036,0.07894028
16618703,0.22740911,0.016105218,0.079186104
16821037,0.23315845,0.017410208,0.086172074
17027386,0.28573605,0.018296078,0.08523065
17227645,0.24276528,0.014687262,0.08922258
17428249,0.20513462,0.024673035,0.0833563
17630030,0.1906804,0.026286252,0.083511665
17831410,0.24842507,0.024883114,0.07770256
18035672,0.19389194,0.024837177,0.085928835
18239318,0.17861308,0.021562753,0.085865624
18439718,0.18811634,0.018952638,0.079962164
18640162,0.19322811,0.02105293,0.08868202
18844907,0.22873865,0.01997084,0.08061731
19046262,0.23643379,0.02224345,0.07960328
19246705,0.18244962,0.026385058,0.086047925
19446641,0.24095988,0.026328033,0.08415834
19649267,0.2041081,0.017709613,0.07969631
19850068,0.19917917,0.019859342,0.08336722
20050121,0.22084564,0.021482227,0.084210016
20255999,0.1930076,0.02382978,0.08079002
20458536,0.18682061,0.020120824,0.08496968
20658099,0.2010829,0.023765484,0.08407621
20858875,0.19669312,0.020975132,0.0784027
21064435,0.17462666,0.022661326,0.08520787
21264946,0.1871207,0.01397176,0.08140505
21465943,0.16582622,0.026523963,0.07962125
21665242,0.21726215,0.024153788,0.08264323
21866027,0.1836146,0.0242422,0.07823338
22066122,0.25027597,0.018040866,0.07534817
22268394,0.21295148,0.020289263,0.084062934
22469182,0.17769313,0.018732073,0.0843931
22674085,0.21226843,0.026224542,0.08336534
22875422,0.17255083,0.020479547,0.085103326
23075649,0.21624222,0.02625787,0.07809834
23278126,0.16352923,0.019300148,0.08286525
23484070,0.20217988,0.019332847,0.08491654
23685795,0.20848253,0.020739589,0.0825862
23887435,0.1281041,0.021934299,0.07533094
24088984,0.22668608,0.028847,0.07645831
24289027,0.18800962,0.026907625,0.076952025
24494615,0.22419915,0.03143317,0.06939237
24696489,0.2405357,0.026084851,0.074114025
24902029,0.22732568,0.026585946,0.08050926
25102494,0.17563078,0.021240165,0.073891595
25305295,0.21956159,0.02339159,0.077476926
25510556,0.20872559,0.030194867,0.07839558
25710752,0.21138304,0.020110236,0.06814226
25914022,0.22094306,0.022502756,0.0681001
26119352,0.19670701,0.021631833,0.06559204
26320921,0.17689855,0.02514552,0.07025487
26523359,0.22857396,0.0222649,0.06820725
26724181,0.20665963,0.021116411,0.071197644
26923633,0.22142655,0.022610083,0.07179205
27128401,0.20774351,0.025005424,0.07139912
27330588,0.2328995,0.021283379,0.07146757
27532496,0.17624599,0.019938888,0.061375763
27732936,0.1970358,0.016821709,0.071846485
27939461,0.24383129,0.020286776,0.07292427
28141230,0.16740656,0.023016956,0.074412376
28341149,0.2124512,0.02369763,0.06057682
28546895,0.24145734,0.022946024,0.07299745
28747629,0.23122026,0.017778724,0.068447955
28948443,0.18990357,0.026780305,0.0709806
29151397,0.14093527,0.022956926,0.070601314
29355684,0.19574773,0.020967396,0.071755864
29556805,0.22924267,0.017039021,0.06882458
29757098,0.1974858,0.019342255,0.069994584
29960134,0.17312567,0.018051675,0.07631956
30166011,0.21266282,0.02188338,0.060793042
30366820,0.19196126,0.022317054,0.060235914
30568358,0.20209534,0.022381088,0.06764213
30774813,0.20845896,0.019962018,0.066688955
30975647,0.22271714,0.02286802,0.067440026
31178610,0.21861123,0.02109729,0.06763066
31383390,0.21170515,0.022919936,0.06743344
31584310,0.22637977,0.018971244,0.06579873
31784837,0.2553,0.015891172,0.06840997
31985004,0.1683565,0.019431677,0.072035186
32185931,0.18029912,0.021154309,0.07584029
32384964,0.193218,0.020303214,0.06696438
32587604,0.21518953,0.02224081,0.06655421
32793752,0.22832042,0.017444087,0.06135092
32993225,0.19878963,0.018538706,0.06394253
33196486,0.17832473,0.019888582,0.06425272
33403442,0.20960303,0.02064829,0.06946862
33605809,0.21809603,0.020575605,0.06477424
33805816,0.18823825,0.019686285,0.0652069
34011292,0.2182333,0.02203297,0.06211826
34214012,0.21025535,0.021609182,0.063829355
34414913,0.20182002,0.019317107,0.059729077
34619705,0.21665233,0.022411408,0.061491337
34819710,0.20750912,0.020477772,0.065415345
35020869,0.20983204,0.020596325,0.06218104
35223624,0.20083143,0.0174763,0.06205367
35429265,0.20733395,0.019255614,0.061443716
35631384,0.2087292,0.019064687,0.05974333
35833309,0.1949035,0.018798945,0.06411738
36038098,0.1990204,0.022787483,0.059192117
36238611,0.18766299,0.01915588,0.058553256
36438540,0.20420912,0.018061768,0.07031648
36641205,0.19691838,0.020365253,0.0679848
36848661,0.20516247,0.020138891,0.061408672
37049979,0.19659707,0.018994723,0.07070921
37257095,0.19463988,0.01865353,0.06551038
37456331,0.18533729,0.018592326,0.06667347
37658902,0.1996846,0.017432272,0.07041853
37865785,0.19302318,0.018833542,0.06756984
38065363,0.19784188,0.019918304,0.07134314
38266546,0.19396804,0.01816789,0.06781754
38468488,0.19632503,0.017050035,0.06852374
38673709,0.20123537,0.018439265,0.07065267
38875570,0.19688655,0.018777061,0.07295691
39077108,0.19478638,0.018170254,0.06730082
39276072,0.19580679,0.019075114,0.066295244
39478760,0.2026806,0.020510387,0.06606206
39684520,0.20099404,0.021341952,0.06928898
39885054,0.20519422,0.019720046,0.07424665
40085645,0.20910294,0.01820309,0.0776593
40285626,0.20296457,0.016061537,0.070639335
40487571,0.19715673,0.01597804,0.061549637
40692503,0.20226884,0.018349504,0.07025502
40893772,0.20347653,0.019165741,0.069086134
41093095,0.19963573,0.016696163,0.06941525
41296965,0.20411421,0.017990135,0.06858773
41502037,0.20226334,0.018842071,0.06907932
41703452,0.21288492,0.019272441,0.06523144
41905181,0.20404345,0.018196339,0.072476774
42110866,0.24922152,0.02144647,0.06495752
42312226,0.19926482,0.01918888,0.06706744
42514014,0.1950692,0.018895233,0.06848134
42720974,0.21640669,0.019794282,0.06610205
42921129,0.20217426,0.01714638,0.06224316
43123431,0.20121641,0.015893409,0.06200106
43325046,0.19598198,0.01774779,0.06499552
43525101,0.19596097,0.016765911,0.064475484
43730082,0.1924548,0.016520768,0.068849385
43930472,0.1999644,0.020075321,0.067118205
44132310,0.1999062,0.018357968,0.06373244
44333244,0.19143513,0.017587379,0.058478247
44538050,0.1923718,0.018977487,0.060574077
44738618,0.19345391,0.021174159,0.06561907
44938924,0.19379117,0.018127147,0.06300862
45138802,0.19972578,0.020509502,0.07032929
45342879,0.18419908,0.019535767,0.06589067
45547661,0.18750203,0.017949944,0.06319917
45748055,0.19171622,0.021439953,0.06905977
45952286,0.23017974,0.0242502,0.06745543
46156392,0.23078723,0.021364566,0.06628987
46357032,0.17792849,0.02243206,0.064999856
46558219,0.18468261,0.021452144,0.06916347
46760383,0.2466156,0.01988768,0.070590876
46965792,0.19505587,0.022547029,0.06675284
47167560,0.19200796,0.019884398,0.06879969
47369209,0.20427303,0.021524087,0.06502639
47574657,0.21122693,0.021049423,0.067310624
47775644,0.20013957,0.024344686,0.067488365
47978115,0.19408812,0.022798505,0.06502001
48178852,0.22470453,0.024516968,0.06601243
48378879,0.20183796,0.022091161,0.066054195
48583704,0.20170742,0.026480436,0.06614143
48784498,0.20167731,0.025201809,0.06860733
48986428,0.15731084,0.025766496,0.059172668
49186013,0.18632047,0.025441287,0.059786987
49388502,0.21572335,0.023875622,0.06571914
49593780,0.2358505,0.025875583,0.060824297
49794599,0.2366534,0.025951916,0.059844315
49997318,0.26815608,0.027853211,0.058663912
50203366,0.14515436,0.028305836,0.05803723
50402866,0.19752839,0.02182071,0.054508414
50606066,0.24035285,0.025189104,0.058430966
50811690,0.18727344,0.024218233,0.05906579
51012472,0.2615187,0.025444489,0.053084746
51214886,0.20881167,0.03194636,0.056583453
51420938,0.2615294,0.02964379,0.052057043
51620439,0.21704778,0.026366206,0.05834479
51824203,0.20191152,0.021332836,0.05413596
52029106,0.26757407,0.026874272,0.051146615
52229323,0.25918314,0.029646173,0.05064649
52429992,0.25631967,0.027834104,0.05262327
52633735,0.25799397,0.025372988,0.047694676
52838440,0.1969871,0.021243613,0.049983718
53040108,0.18498316,0.027036479,0.0543294
53240293,0.20181873,0.022765055,0.064023875
53442044,0.21763505,0.025444854,0.05343253
53647571,0.14224714,0.025009727,0.052638937
53847697,0.2239951,0.017930701,0.054083932
54051369,0.20449059,0.020651104,0.0557572
54251710,0.20297655,0.020643525,0.06180632
54451659,0.22035743,0.02137002,0.05999175
54656465,0.19273326,0.026160685,0.04798794
54858808,0.21437757,0.025873639,0.057432488
55058638,0.20335236,0.03528397,0.054176945
55260517,0.11102203,0.02187572,0.059137948
55466607,0.20570654,0.020297354,0.058642734
55669300,0.21778113,0.027274596,0.06356774
55870116,0.19649881,0.017920455,0.05691786
56076369,0.17354089,0.025618613,0.05328029
56278070,0.16973299,0.027430296,0.05602171
56479285,0.25179267,0.020248627,0.05180099
56684340,0.21868402,0.024883578,0.055281702
56884899,0.18813549,0.024790203,0.06441597
57084909,0.24626458,0.020993123,0.056328654
57286213,0.19516502,0.02280631,0.04854258
57486794,0.20226717,0.014833875,0.048202842
57687034,0.18732135,0.016563198,0.05905254
57885261,0.21848974,0.016470507,0.058878236
58089742,0.23254007,0.024551155,0.059930686
58294724,0.19225551,0.015974121,0.060857277
58495409,0.23247895,0.020952173,0.062171876
58696807,0.1732675,0.017900862,0.069558606
58898610,0.1944081,0.027975304,0.06489923
59104614,0.2203997,0.01986058,0.06714913
59305226,0.17241056,0.025238244,0.06412972
59506846,0.28758106,0.02610416,0.06669411
59707716,0.21970646,0.024409626,0.062029425
59908188,0.2465026,0.029219449,0.05653081
60108086,0.19055481,0.023653327,0.061757904
60314121,0.21996257,0.025403386,0.06308727
60516480,0.21193676,0.018876767,0.06441161
60716476,0.23152108,0.027102089,0.056542825
60922083,0.20578703,0.023099035,0.054265607
61122631,0.16285011,0.020178158,0.057272263
61323511,0.19566971,0.026230656,0.060098246
61526090,0.22352365,0.022780092,0.057320677
61732323,0.17941146,0.011189319,0.062736884
61932625,0.18659423,0.023909392,0.061542854
62134894,0.24096972,0.022378849,0.061166048
62341030,0.18346222,0.026129644,0.07190025
62540445,0.34499633,0.02557293,0.06805539
62744340,0.27098915,0.019283798,0.066393405
62949966,0.25069788,0.023990033,0.065235354
63149673,0.18925561,0.025773779,0.07440312
63352341,0.19775091,0.025885545,0.06835747
63558017,0.23836668,0.024744004,0.05852034
63758893,0.2023198,0.023426836,0.06628256
63957974,0.22651696,0.02261255,0.059141964
64162026,0.21501353,0.027248438,0.06500106
64366896,0.22021176,0.01919146,0.059048664
64568162,0.23880836,0.01684834,0.059387848
64768373,0.22266196,0.013917253,0.069271706
64971387,0.28368896,0.024745792,0.06340672
65172094,0.20125262,0.021611497,0.057677157
65371563,0.19768164,0.011004417,0.061841346
65576421,0.19231278,0.022043087,0.059571035
65778123,0.21385977,0.019646674,0.05146885
65977988,0.22016174,0.026115159,0.059971187
66180443,0.21675043,0.024576725,0.055567242
66386472,0.2582741,0.02122515,0.058848828
66586573,0.18526454,0.019508155,0.059917517
66786832,0.19530131,0.018211821,0.05527265
66990010,0.24311563,0.023135453,0.069387026
67196496,0.22539757,0.02396936,0.060850568
67396861,0.24757686,0.023393955,0.06400885
67598919,0.22598366,0.010554167,0.06475695
67804447,0.19935423,0.021033585,0.065950476
68004907,0.13296434,0.01917491,0.072119646
68207689,0.21846145,0.032363616,0.073807485
68412502,0.2238266,0.02219626,0.0668897
68613310,0.18158688,0.019485082,0.074275985
68816516,0.24498552,0.025710737,0.07193572
69022016,0.31205502,0.019595623,0.068450175
69222067,0.19679993,0.021572374,0.0741235
69423578,0.31987613,0.018174844,0.06840561
69624503,0.1934439,0.020393526,0.06353928
69826557,0.29547715,0.022305116,0.06559946
70026582,0.24369052,0.017850695,0.06936266
70233041,0.21732457,0.017855328,0.07289368
70435398,0.18029566,0.012930743,0.073100604
70635660,0.21689406,0.018780595,0.068623066
70840882,0.19192834,0.018525615,0.06771481
71041218,0.19039798,0.018565288,0.07212734
71242089,0.2139415,0.021278558,0.07071411
71442663,0.1943483,0.024869885,0.06840333
71645005,0.19880828,0.021917852,0.07229485
71850021,0.16688111,0.023408636,0.06676823
72050575,0.183886,0.026064567,0.07248497
72251991,0.18870676,0.02205178,0.077467814
72454759,0.20673195,0.01675673,0.07141935
72654849,0.20234971,0.01842991,0.06901648
72855357,0.20223595,0.020464923,0.072033934
73059650,0.25487864,0.02023787,0.07219557
73260346,0.22073987,0.017858727,0.076838635
73461818,0.1831816,0.019506894,0.06746232
73660446,0.14996603,0.01755706,0.06793396
73864391,0.23081546,0.025215866,0.06423249
74065090,0.18803728,0.021777282,0.061429996
74265119,0.19799906,0.025302455,0.06820396
74469998,0.2019363,0.013071723,0.06353688
74670721,0.25244945,0.023439283,0.06998494
74870826,0.21410051,0.02403908,0.07218743
75070822,0.24580655,0.024482433,0.067987405
75274653,0.20396176,0.016792921,0.071015835
75478850,0.25095606,0.023468228,0.072942086
75680453,0.19994679,0.026314683,0.07578322
75883422,0.2598009,0.021059165,0.0801445
76089003,0.2554737,0.022049475,0.08177063
76288513,0.24977677,0.02299442,0.076738596
76492160,0.1587193,0.020698145,0.08233993
76697614,0.1965122,0.022068445,0.08577199
76898084,0.19757451,0.013651675,0.07589055
77097944,0.19057709,0.017431004,0.08117191
77299607,0.24519469,0.019016754,0.07574385
77501230,0.22778766,0.015850917,0.0746605
77702506,0.24681422,0.02320903,0.08365315
77907228,0.3587169,0.025477353,0.078137204
78109987,0.28389263,0.017819488,0.078653954
78310878,0.16059536,0.026582442,0.081267856
78516121,0.20200682,0.022256006,0.0789598
78717069,0.20577301,0.018091267,0.078105934
78920216,0.27616027,0.021406487,0.07245175
79119717,0.27218056,0.018549552,0.08215938
79325070,0.1919031,0.01854937,0.0742577
79526798,0.2019086,0.021745097,0.082814135
79726907,0.23241778,0.013823268,0.08008903
79928524,0.19395955,0.0212786,0.08150568
80134759,0.26658386,0.033163153,0.087477796
80337785,0.1763825,0.02196925,0.08406743
80537290,0.23563352,0.024228446,0.09002348
80743573,0.18572846,0.020531084,0.084605604
80946581,0.20173301,0.020308612,0.08562289
81146767,0.2244021,0.017922828,0.083638236
81352924,0.22109048,0.021856502,0.08036943
81553270,0.18448414,0.019315578,0.07959515
81752396,0.19643411,0.019798951,0.076963544
81956099,0.19289298,0.016828734,0.06940878
82162048,0.1954185,0.020832468,0.07683955
82362088,0.19536528,0.01771456,0.076276384
82565046,0.19198017,0.020706177,0.07012149
82766585,0.20067091,0.017991668,0.06933024
82967524,0.20536174,0.020153087,0.0670115
83172517,0.20081815,0.018775778,0.07629293
83375655,0.20316437,0.018616889,0.07445261
83576195,0.20498152,0.019916296,0.08265488
83777167,0.19957155,0.017851437,0.07299343
83978782,0.20279825,0.020973265,0.07476723
84184473,0.20593542,0.02048901,0.08325675
84385008,0.20791055,0.019502677,0.07510531
84587621,0.20442927,0.0217417,0.0800903
84793890,0.20224333,0.020476447,0.07599114
84993803,0.2168035,0.017417252,0.07849535
85197125,0.20633207,0.020065963,0.078458026
85402053,0.2103065,0.0196216,0.080540776
85602052,0.20274335,0.017015478,0.07922962
85805314,0.20378722,0.020035261,0.078023605
86010906,0.20490402,0.020273874,0.08273687
86210792,0.20129284,0.018867133,0.07004366
86414744,0.2125789,0.018796708,0.07288737
86620160,0.20537865,0.017101567,0.08048413
86819709,0.20192944,0.021341592,0.078187704
87023722,0.20331806,0.018244257,0.07908869
87228486,0.20504336,0.018098153,0.080604956
87431583,0.20298584,0.019882932,0.078505665
87631547,0.19301708,0.020093061,0.087169275
87837185,0.19914104,0.020913733,0.08250753
88037708,0.20048,0.016728288,0.07865705
88239350,0.19339712,0.016860679,0.081295006
88439723,0.19414829,0.017152924,0.08025126
88642543,0.1855445,0.01857289,0.08308116
88842645,0.19991484,0.01726223,0.0899098
89042002,0.19291396,0.020559723,0.08421453
89246854,0.2003778,0.016128948,0.08650837
89447707,0.20107543,0.017959103,0.08588828
89649234,0.19292575,0.017789269,0.085300684
89850098,0.1888798,0.017618548,0.0799255
90052516,0.19303188,0.018514587,0.08588059
90253289,0.18861428,0.01744719,0.077549055
90457991,0.20097697,0.01807419,0.076940395
90661757,0.19962132,0.0186385,0.08037494
90861855,0.20546514,0.019631743,0.07974238
91061192,0.19635539,0.018284038,0.087682545
91266066,0.19334278,0.018230313,0.07740482
91469294,0.18714643,0.01966342,0.07898563
91670000,0.22193739,0.01935247,0.076266445
91875698,0.19155017,0.020774344,0.087267525
92076389,0.22403716,0.021453124,0.08422576
92279318,0.20747073,0.021757932,0.084327064
92479353,0.29219636,0.020284485,0.07897835
92684965,0.20255566,0.021800807,0.07955786
92888151,0.18000789,0.023909548,0.08328332
93087667,0.21814215,0.021284357,0.08614128
93293219,0.17592783,0.021347744,0.081129
93497810,0.14268404,0.02152489,0.078222096
93697209,0.20512225,0.017247783,0.08120345
93902896,0.2750751,0.017500058,0.08211413
94105765,0.22860253,0.015781058,0.08242531
94306112,0.2145153,0.014598849,0.07784403
94510827,0.20182227,0.018386975,0.0766268
94711596,0.20351985,0.019597422,0.08636897
94912212,0.18964812,0.016923403,0.07650027
95111718,0.19030231,0.026579252,0.086098805
95316139,0.20513819,0.022984505,0.07812547
95521300,0.27755553,0.022093276,0.07712552
95720503,0.19435084,0.023563607,0.09490144
95922098,0.16874155,0.027089654,0.08686107
96125182,0.22980739,0.023463406,0.07978764
96329248,0.19649008,0.022408064,0.08735718
96530033,0.17705287,0.020801106,0.08812282
96730874,0.1489289,0.01569286,0.08925601
96933973,0.18081802,0.018063337,0.086897865
97134661,0.23263149,0.020782258,0.09035353
97339399,0.19953255,0.023411363,0.088104345
97539687,0.26946908,0.020498844,0.0940266
97739704,0.19751191,0.03381535,0.083971575
97942741,0.19878459,0.025582058,0.090321496
98149758,0.19249555,0.021004582,0.08698849
98352169,0.20746526,0.02391057,0.08802784
98551557,0.18433928,0.022021657,0.0909344
98758452,0.22897206,0.02241538,0.095107354
98958064,0.20359938,0.027901128,0.080273464
99161760,0.2450513,0.027022451,0.084265605
99367356,0.19955586,0.023479141,0.080088615
99567374,0.19400296,0.023991141,0.086896785
99767363,0.21031669,0.028443458,0.079042114
99970034,0.18548232,0.020655692,0.08014381
100175414,0.20986353,0.024155661,0.07656857
100376463,0.18404455,0.02391015,0.07592471
100579433,0.18102713,0.020578869,0.0764293
100784443,0.18623623,0.022882571,0.09048111
100985172,0.2034288,0.022475112,0.077892676
101184840,0.17986833,0.020537406,0.08400834
101387624,0.25851607,0.021042868,0.07994317
101594868,0.22980487,0.018569596,0.08538379
101794624,0.20530719,0.022744391,0.0809755
101997778,0.20406097,0.018438468,0.08552556
102202521,0.22635254,0.0223221,0.08261301
102402087,0.21713942,0.02073473,0.07849619
102606553,0.21761847,0.044522896,0.08161513
102810917,0.20045848,0.025801249,0.0850786
103011677,0.20447673,0.018733053,0.08191656
103214822,0.27101395,0.010465281,0.08045173
103416181,0.19465302,0.01975518,0.07575001
103615644,0.222645,0.021441586,0.08158869
103822116,0.2184297,0.015942944,0.07405353
104024187,0.2724322,0.01919097,0.07673608
104225294,0.26596996,0.022638883,0.07141437
104425074,0.21259798,0.021724483,0.07749536
104630062,0.18222857,0.023903895,0.06622368
104833188,0.32692286,0.06519714,0.084200524
105033268,0.14328006,0.027199347,0.07901258
105233200,0.31334826,0.00902397,0.072980665
105439714,0.27507752,0.012329681,0.07896323
105640395,0.19753364,0.017969789,0.08154938
105840638,0.21527913,0.01713436,0.08210075
106043335,0.2124055,0.018086944,0.08100602
106249057,0.23473278,0.021433188,0.07837965
106449214,0.2771348,0.021681072,0.07642998
106651717,0.2198648,0.024042288,0.07992233
106857865,0.20107043,0.02454835,0.08037493
107058567,0.1843901,0.021929026,0.07991688
107260436,0.18254642,0.018417194,0.078188695
107466809,0.18548742,0.02556607,0.07528988
107666038,0.17803714,0.019721515,0.08100433
107870019,0.17277886,0.021387706,0.075222544
108075490,0.16696768,0.017521076,0.0751962
108275401,0.14902215,0.02026231,0.06904967
108478041,0.2693028,0.019596519,0.07239581
108684204,0.20671982,0.015244723,0.07515612
108883662,0.23893045,0.019144937,0.07761981
109087666,0.19873184,0.01927171,0.073921755
109293163,0.26294196,0.019811742,0.07906282
109495598,0.22928926,0.017952047,0.07778966
109696445,0.16906826,0.01864016,0.07334445
109901145,0.19654615,0.017225116,0.082432546
110101257,0.1734731,0.012364573,0.07939503
110302860,0.19894336,0.020193214,0.07884256
110503634,0.24274513,0.0115845995,0.07877856
110705283,0.22629543,0.021991242,0.07704523
110906577,0.20241174,0.021205992,0.07348283
111105989,0.19547734,0.021700848,0.07440423
111312053,0.20134684,0.01981423,0.07270439
111512379,0.22093014,0.01986407,0.07083106
111712985,0.1929186,0.015009354,0.076221876
111915715,0.22995892,0.030382948,0.07043371
112121045,0.18845767,0.021400396,0.07355764
112321118,0.21370533,0.016680365,0.069795415
112521669,0.22989906,0.02027035,0.065162
112724495,0.13842,0.015777854,0.0701364
112929758,0.19379169,0.026580729,0.06419563
113130872,0.17456277,0.02090823,0.06600173
113333319,0.19968545,0.01900101,0.07981312
113538868,0.1859815,0.019652633,0.07797735
113738795,0.13990903,0.01764656,0.07392593
113942614,0.17356077,0.01732472,0.06924865
114147640,0.23159534,0.012881373,0.078752644
114347640,0.17011254,0.015737308,0.07259856
114551348,0.19384797,0.019498918,0.070131734
114756877,0.17391329,0.018334016,0.06756368
114956442,0.24023756,0.018575503,0.067775086
115160157,0.24375024,0.018792497,0.067836925
115365876,0.19936584,0.02327462,0.06799276
115565854,0.21577004,0.020535998,0.06722728
115768538,0.1812256,0.016753,0.06721707
115970538,0.21737549,0.019327797,0.069781244
116170564,0.1919474,0.019628309,0.0689893
116370642,0.21221828,0.01844489,0.06798734
116575696,0.21836413,0.0208524,0.067149274
116779349,0.17581987,0.018876461,0.06352158
116978893,0.19819541,0.019409267,0.05732587
117185237,0.19668582,0.018763866,0.06820359
117386924,0.1937034,0.015268024,0.06336042
117587627,0.19435953,0.016015917,0.059172157
117792857,0.20224215,0.018457886,0.06629841
117996519,0.19704917,0.017544322,0.07586436
118196485,0.2061838,0.016587535,0.06798801
118401226,0.20820503,0.016000934,0.06351831
118602093,0.21599163,0.017271226,0.07344806
118803515,0.20977175,0.016587658,0.062336784
119005291,0.21285464,0.015758641,0.06770769
119206878,0.20074143,0.01783031,0.06977682
119412818,0.1982126,0.018142568,0.06723843
119613060,0.20287387,0.018069098,0.06524361
119816256,0.19571888,0.01603844,0.057773843
120020479,0.20081931,0.017927565,0.06339607
120220408,0.19975755,0.017339395,0.065100595
120424399,0.19977307,0.018869331,0.06679044
120628487,0.20163734,0.015672702,0.06628365
120829221,0.20475093,0.01588352,0.067009866
121029221,0.20159608,0.016042635,0.071910895
121233005,0.19964209,0.014568171,0.07334281
121438022,0.19444212,0.01613378,0.07340742
121639551,0.19995369,0.015358044,0.07067487
121842485,0.2029397,0.01596114,0.06844003
122047286,0.18817206,0.01603653,0.06838427
122248423,0.19520755,0.016127396,0.066975825
122448989,0.19190522,0.0160965,0.07053201
122650907,0.18786453,0.015608332,0.06680645
122856331,0.19584306,0.016754916,0.072114006
123056366,0.19437031,0.01934362,0.06983775
123257313,0.19496857,0.015786737,0.061091874
123459677,0.20009303,0.020293333,0.06761975
123660364,0.19432609,0.017671771,0.06672318
123866704,0.19224045,0.015062644,0.06622341
124066908,0.18743777,0.015981656,0.061867133
124267679,0.19365668,0.018271107,0.05871386
124465993,0.19720094,0.019551042,0.06085069
124670032,0.1946913,0.01563342,0.061172795
124876280,0.1991589,0.016532186,0.069516435
125076163,0.20204595,0.016438369,0.057731476
125279395,0.19632356,0.017940167,0.068309434
125483682,0.19572024,0.014456473,0.073466055
125685351,0.20464927,0.016667388,0.069100805
125887293,0.21515712,0.016863104,0.06891111
126088930,0.21273123,0.015954433,0.074644074
126289196,0.2075244,0.015211422,0.0763443
126494650,0.20379548,0.017375002,0.070329584
126695515,0.2058664,0.01560548,0.06854903
126895647,0.20436175,0.01653081,0.068024375
127096372,0.2041237,0.016894748,0.073251925
127298790,0.20761138,0.017109899,0.073505804
127503653,0.20134999,0.017175633,0.06920016
127704616,0.20656595,0.017271867,0.06341719
127907614,0.2023892,0.016856397,0.06714372
128112517,0.20330775,0.016433708,0.067780755
128313697,0.20840682,0.016479554,0.06895635
128513455,0.21289513,0.015360377,0.067152835
128716402,0.21081468,0.016544841,0.06635521
128922747,0.19899525,0.0164824,0.06568692
129123452,0.19858323,0.019114943,0.062179543
129325992,0.20082715,0.01630622,0.066483706
129527269,0.19517669,0.015645877,0.06656691
129732421,0.19488756,0.016364522,0.07111073
129935708,0.19702725,0.01777833,0.07298697
130135604,0.1980947,0.014421245,0.062112123
130340374,0.1998205,0.016190333,0.07003888
130541249,0.19452517,0.018628819,0.07221182
130743654,0.2024586,0.020504005,0.0639192
130944402,0.205983,0.017799739,0.06533895
131143712,0.19721691,0.018748088,0.067697726
131349914,0.2001302,0.015323845,0.06489862
131552328,0.19607764,0.017508557,0.07081734
131756472,0.19922519,0.016449964,0.059800018
131957832,0.19329405,0.01864428,0.06405978
132160918,0.19436318,0.015272824,0.067161776
132361770,0.1969464,0.017297193,0.05934212
132562119,0.20433278,0.017081223,0.06627815
132768069,0.2053441,0.018195577,0.065201856
132967832,0.20486355,0.015916767,0.07040143
133170879,0.19001351,0.016522612,0.06454745
133375642,0.1992529,0.017795378,0.073284194
133579354,0.2054748,0.0148947025,0.06410086
133779717,0.2016608,0.016632514,0.061882842
133985035,0.2039559,0.01869507,0.06088271
134187471,0.20822129,0.016189048,0.06941262
134388218,0.20552818,0.017461797,0.06246143
134587605,0.20664167,0.019559488,0.07421631
134793323,0.2062961,0.018144934,0.075599656
134996444,0.20119196,0.014620646,0.07403662
135196969,0.20683953,0.018257534,0.064754464
135403541,0.20262744,0.016749121,0.069597825
135605904,0.20561987,0.017457394,0.06337452
135806548,0.20010309,0.017071093,0.06457249
136012265,0.20150569,0.015866298,0.059411086
136212222,0.20603569,0.018085962,0.06417867
136415376,0.19946957,0.015535483,0.07309503
136621011,0.20317592,0.017457638,0.071849465
136822787,0.19870058,0.017200936,0.059546955
137023585,0.1920381,0.016484968,0.06318087
137229915,0.19730324,0.017305216,0.0644548
137430044,0.20080556,0.01764567,0.065858215
137629189,0.20024693,0.014549892,0.0686836
137832459,0.1926465,0.017275432,0.06802829
138038050,0.19056319,0.015277573,0.06429745
138238502,0.1972701,0.01730306,0.06969741
138438820,0.19715005,0.019125784,0.06662577
138639457,0.1923326,0.018271806,0.06980678
138839648,0.20203559,0.018328235,0.06934128
139040320,0.19403379,0.01756565,0.07457035
139241833,0.19136097,0.013513328,0.071020156
139441790,0.19863202,0.01692488,0.0699927
139644504,0.19759262,0.016143342,0.06714324
139844900,0.19336009,0.01756445,0.0664182
140049755,0.19765665,0.017733855,0.069387
140250282,0.1953845,0.015961237,0.057284657
140450799,0.20216605,0.01670159,0.06756242
140655276,0.200323,0.01667613,0.063663945
140859409,0.18967935,0.016740551,0.06716491
141059721,0.19085777,0.017482616,0.0596708
141262863,0.1997066,0.015251149,0.056905534
141467692,0.20070262,0.016755816,0.06693314
141668278,0.19889143,0.01661906,0.06941561
141868941,0.1995681,0.015854282,0.06573659
142068485,0.19857188,0.01623486,0.069493845
142270808,0.19544066,0.019573864,0.07267916
142477226,0.19826138,0.016649261,0.067132086
142676432,0.19431885,0.019817544,0.07323086
142880196,0.20021531,0.017148767,0.07118151
143086645,0.20838965,0.01707019,0.06684703
143286571,0.19983673,0.017115645,0.072247
143488511,0.20460725,0.017701162,0.07028767
143694033,0.20188867,0.01646394,0.0642157
143894542,0.20746174,0.01610445,0.06843332
144095686,0.20737214,0.019897522,0.06726638
144296637,0.20716399,0.018439494,0.06606149
144498529,0.208465,0.015929455,0.06463997
144699292,0.21292108,0.015377568,0.070549436
144904970,0.20788455,0.018076165,0.06986763
145105740,0.2089968,0.01810414,0.06997759
145308222,0.2050889,0.018382134,0.06907576
145507561,0.21525039,0.016932419,0.06772879
145712504,0.20801973,0.015777119,0.06551837
145914052,0.19909109,0.017858027,0.06768791
146115543,0.20438042,0.017411556,0.06809605
146318020,0.20211911,0.019525256,0.062934875
146518841,0.20816949,0.018431956,0.065134175
146724433,0.20374641,0.016818775,0.0658892
146925212,0.20813048,0.015999256,0.06817144
147127550,0.20948394,0.016430257,0.071719326
147327682,0.20578976,0.020543458,0.075469196
147533100,0.19519885,0.019060139,0.07072016
147733116,0.20493776,0.020404078,0.072122976
147933663,0.19849102,0.017868685,0.07118537
148133293,0.19452147,0.015302263,0.06479089
148336352,0.19559626,0.017116038,0.06621546
148541806,0.20268711,0.014797212,0.064422585
148743516,0.1877283,0.016097425,0.0629992
148946118,0.19601524,0.017252352,0.060145747
149150830,0.19443898,0.017705048,0.063345924
149351580,0.19964948,0.016905287,0.06738226
149555352,0.20051402,0.015409639,0.07452224
149759542,0.20059732,0.017155496,0.068326294
149959695,0.20614347,0.016780362,0.06816045
150159599,0.2036368,0.01714826,0.062590316
150363390,0.20629685,0.016476462,0.067610614
150568331,0.20471823,0.018111145,0.07181896
150769234,0.20569316,0.017578771,0.06859983
150968980,0.20312746,0.019112935,0.06688722
151172139,0.20293161,0.016496658,0.06432361
151377945,0.21116093,0.017516011,0.06386193
151577823,0.20350626,0.017459843,0.064866215
151780408,0.19560727,0.019458355,0.070954956
