timestamp,roll,pitch,yaw,thrust_body[0],thrust_body[1],thrust_body[2]
11821545,0.05927522,0.05107591,-3.4906585,0.0,0.0,0.0
11845584,0.07443049,0.054123573,-3.4906585,0.0,0.0,0.0
11865713,0.0878591,0.061253693,-3.4906585,0.0,0.0,0.0
11890346,0.10966158,0.08591965,-3.4906585,0.0,0.0,0.0
11910358,0.12772904,0.10909248,-3.4906585,0.0,0.0,0.0
11930353,0.13671552,0.12070591,-3.4906585,0.0,0.0,0.0
11954382,0.1438255,0.123370886,-3.4906585,0.0,0.0,0.0
11978349,0.16284281,0.13440454,-3.4906585,0.0,0.0,0.0
12002350,0.15384947,0.12737525,-3.4906585,0.0,0.0,0.0
12022361,0.1278272,0.10714783,-3.4906585,0.0,0.0,0.0
12042390,0.11988664,0.09893716,-3.4906585,0.0,0.0,0.0
12066357,0.11472844,0.08142466,-3.4906585,0.0,0.0,0.0
12090353,0.08859512,0.059607968,-3.4906585,0.0,0.0,0.0
12115300,0.08282827,0.054943003,-3.4906585,0.0,0.0,0.0
12138344,0.08665872,0.061492532,-3.4906585,0.0,0.0,0.0
12163152,0.08409594,0.06610512,-3.4906585,0.0,0.0,0.0
12183149,0.07646023,0.07405381,-3.4906585,0.0,0.0,0.0
12202372,0.06906845,0.06850165,-3.4906585,0.0,0.0,0.0
12226374,0.06694059,0.060743745,-3.4906585,0.0,0.0,0.0
12247175,0.07461847,0.068297595,-3.4906585,0.0,0.0,0.0
12266355,0.08456574,0.07909709,-3.4906585,0.0,0.0,0.0
12286351,0.08689229,0.08650365,-3.4906585,0.0,0.0,0.0
12314356,0.09996029,0.08849704,-3.4906585,0.0,0.0,0.0
12338358,0.10106056,0.088678025,-3.4906585,0.0,0.0,0.0
12362350,0.09105222,0.083876625,-3.4906585,0.0,0.0,0.0
12386343,0.08844757,0.085451566,-3.4906585,0.0,0.0,0.0
12406385,0.09065015,0.08601629,-3.4906585,0.0,0.0,0.0
12426354,0.08749948,0.08503501,-3.4906585,0.0,0.0,0.0
12450348,0.08227363,0.09344086,-3.4906585,0.0,0.0,0.0
12471165,0.08240278,0.09810093,-3.4906585,0.0,0.0,0.0
12491164,0.08054344,0.093353,-3.4906585,0.0,0.0,0.0
12511147,0.07277525,0.0860424,-3.4906585,0.0,0.0,0.0
12531193,0.066103145,0.078077056,-3.4906585,0.0,0.0,0.0
12555156,0.051883925,0.06525732,-3.4906585,0.0,0.0,0.0
12575156,0.03966915,0.05163045,-3.4906585,0.0,0.0,0.0
12595947,0.03625656,0.043626264,-3.4906585,0.0,0.0,0.0
12619145,0.041660603,0.053821348,-3.4906585,0.0,0.0,0.0
12643171,0.050461516,0.070315175,-3.4906585,0.0,0.0,0.0
12667147,0.06813998,0.09941073,-3.4906585,0.0,0.0,0.0
12687314,0.07815689,0.11747242,-3.4906585,0.0,0.0,0.0
12707192,0.08400287,0.12449219,-3.4906585,0.0,0.0,0.0
12731149,0.080784366,0.12487375,-3.4906585,0.0,0.0,0.0
12755161,0.07367874,0.12657923,-3.4906585,0.0,0.0,0.0
12779173,0.07321006,0.12619498,-3.4906585,0.0,0.0,0.0
12803145,0.07902068,0.115257405,-3.4906585,0.0,0.0,0.0
12827140,0.06905668,0.10612633,-3.4906585,0.0,0.0,0.0
12847142,0.06531636,0.09947975,-3.4906585,0.0,0.0,0.0
12871175,0.04549171,0.081895046,-3.4906585,0.0,0.0,0.0
12892096,0.028761141,0.06901215,-3.4906585,0.0,0.0,0.0
12911961,0.025644839,0.066660665,-3.4906585,0.0,0.0,0.0
12931938,0.028885264,0.064518094,-3.4906585,0.0,0.0,0.0
12952747,0.032975312,0.07839517,-3.4906585,0.0,0.0,0.0
12975988,0.035090707,0.09688943,-3.4906585,0.0,0.0,0.0
12996760,0.028326372,0.10630151,-3.4906585,0.0,0.0,0.0
13020009,0.04673184,0.12108402,-3.4906585,0.0,0.0,0.0
13039960,0.068397775,0.12737857,-3.4906585,0.0,0.0,0.0
13059984,0.0761669,0.12467781,-3.4906585,0.0,0.0,0.0
13083959,0.08674814,0.12155002,-3.4906585,0.0,0.0,0.0
13107943,0.081443064,0.11500054,-3.4906585,0.0,0.0,0.0
13127937,0.08277828,0.11099128,-3.4906585,0.0,0.0,0.0
13147959,0.093536675,0.11530643,-3.4906585,0.0,0.0,0.0
13171945,0.084530115,0.11710569,-3.4906585,0.0,0.0,0.0
13195961,0.083531074,0.12499112,-3.4906585,0.0,0.0,0.0
13219957,0.083443545,0.13665816,-3.4906585,0.0,0.0,0.0
13243949,0.073747985,0.12543456,-3.4906585,0.0,0.0,0.0
13264793,0.068122156,0.11723066,-3.4906585,0.0,0.0,0.0
13283962,0.051712573,0.11282604,-3.4906585,0.0,0.0,0.0
13308752,0.037182692,0.09729105,-3.4906585,0.0,0.0,0.0
13328874,0.036502253,0.087819204,-3.4906585,0.0,0.0,0.0
13348775,0.03820432,0.08472711,-3.4906585,0.0,0.0,0.0
13371943,0.039565943,0.08250638,-3.4906585,0.0,0.0,0.0
13395980,0.04968366,0.08343233,-3.4906585,0.0,0.0,0.0
13419955,0.070426896,0.09433142,-3.4906585,0.0,0.0,0.0
13443948,0.07953449,0.10406943,-3.4906585,0.0,0.0,0.0
13465543,0.079992905,0.10540834,-3.4906585,0.0,0.0,0.0
13484742,0.08781323,0.11156677,-3.4906585,0.0,0.0,0.0
13508910,0.092272244,0.11199851,-3.4906585,0.0,0.0,0.0
13532751,0.08068576,0.099980846,-3.4906585,0.0,0.0,0.0
13556758,0.06315765,0.08737253,-3.4906585,0.0,0.0,0.0
13576748,0.05695098,0.0784545,-3.4906585,0.0,0.0,0.0
13596742,0.053849183,0.07436612,-3.4906585,0.0,0.0,0.0
13616740,0.04778258,0.07462543,-3.4906585,0.0,0.0,0.0
13640766,0.054389957,0.0759647,-3.4906585,0.0,0.0,0.0
13660751,0.06669664,0.08724893,-3.4906585,0.0,0.0,0.0
13681581,0.06965205,0.10571937,-3.4906585,0.0,0.0,0.0
13701596,0.068213135,0.108246796,-3.4906585,0.0,0.0,0.0
13725608,0.06510126,0.103972025,-3.4906585,0.0,0.0,0.0
13748791,0.06475245,0.09223565,-3.4906585,0.0,0.0,0.0
13772751,0.060420252,0.06849766,-3.4906585,0.0,0.0,0.0
13792752,0.05434739,0.058789305,-3.4906585,0.0,0.0,0.0
13812756,0.05862369,0.053145796,-3.4906585,0.0,0.0,0.0
13837545,0.055151936,0.04629246,-3.4906585,0.0,0.0,0.0
13861566,0.062443517,0.049297817,-3.4906585,0.0,0.0,0.0
13885580,0.07100774,0.06650649,-3.4906585,0.0,0.0,0.0
13909539,0.07607668,0.08679113,-3.4906585,0.0,0.0,0.0
13929554,0.08122612,0.100223474,-3.4906585,0.0,0.0,0.0
13949553,0.08378259,0.10583758,-3.4906585,0.0,0.0,0.0
13973567,0.083478115,0.103316225,-3.4906585,0.0,0.0,0.0
13997700,0.07879001,0.105913766,-3.4906585,0.0,0.0,0.0
14021564,0.06975636,0.098096654,-3.4906585,0.0,0.0,0.0
14045579,0.058319442,0.08331332,-3.4906585,0.0,0.0,0.0
14066348,0.05344363,0.073413074,-3.4906585,0.0,0.0,0.0
14085585,0.050518744,0.0682289,-3.4906585,0.0,0.0,0.0
14109539,0.051782213,0.070439875,-3.4906585,0.0,0.0,0.0
14129704,0.056994215,0.07355817,-3.4906585,0.0,0.0,0.0
14149544,0.061755124,0.077324726,-3.4906585,0.0,0.0,0.0
14173555,0.06504089,0.07808243,-3.4906585,0.0,0.0,0.0
14197551,0.067337155,0.07972017,-3.4906585,0.0,0.0,0.0
14221543,0.07262618,0.08410838,-3.4906585,0.0,0.0,0.0
14245572,0.0765917,0.089269616,-3.4906585,0.0,0.0,0.0
14269587,0.0791265,0.09386694,-3.4906585,0.0,0.0,0.0
14289588,0.07859611,0.097761184,-3.4906585,0.0,0.0,0.0
14313565,0.07612618,0.10319631,-3.4906585,0.0,0.0,0.0
14333562,0.07313059,0.10754377,-3.4906585,0.0,0.0,0.0
14353588,0.070963494,0.110235624,-3.4906585,0.0,0.0,0.0
14373588,0.07081637,0.11049181,-3.4906585,0.0,0.0,0.0
14397550,0.075955994,0.10859506,-3.4906585,0.0,0.0,0.0
14421545,0.07224096,0.10410447,-3.4906585,0.0,0.0,0.0
14445591,0.070521384,0.0992705,-3.4906585,0.0,0.0,0.0
14469572,0.050759982,0.08307864,-3.4906585,0.0,0.0,0.0
14489553,0.04204774,0.06324797,-3.4906585,0.0,0.0,0.0
14509551,0.037199214,0.050499246,-3.4906585,0.0,0.0,0.0
14533542,0.039756216,0.048392504,-3.4906585,0.0,0.0,0.0
14557537,0.0427702,0.052322406,-3.4906585,0.0,0.0,0.0
14581543,0.062046528,0.067606196,-3.4906585,0.0,0.0,0.0
14602354,0.0695788,0.081084214,-3.4906585,0.0,0.0,0.0
14621726,0.06976187,0.09360302,-3.4906585,0.0,0.0,0.0
14643152,0.06967878,0.10241851,-3.4906585,0.0,0.0,0.0
14666368,0.07116185,0.10111512,-3.4906585,0.0,0.0,0.0
14686357,0.06843469,0.093036905,-3.4906585,0.0,0.0,0.0
14706386,0.06943158,0.090195045,-3.4906585,0.0,0.0,0.0
14726362,0.07161188,0.089859255,-3.4906585,0.0,0.0,0.0
14750374,0.06447616,0.08282868,-3.4906585,0.0,0.0,0.0
14775145,0.05790364,0.07105986,-3.4906585,0.0,0.0,0.0
14799159,0.061112598,0.06477357,-3.4906585,0.0,0.0,0.0
14824014,0.057390023,0.0669538,-3.4906585,0.0,0.0,0.0
14847166,0.06056253,0.07273196,-3.4906585,0.0,0.0,0.0
14867147,0.06694729,0.076847956,-3.4906585,0.0,0.0,0.0
14887144,0.064481735,0.0764047,-3.4906585,0.0,0.0,0.0
14911174,0.058450926,0.071619175,-3.4906585,0.0,0.0,0.0
14931158,0.04823665,0.06953819,-3.4906585,0.0,0.0,0.0
14951152,0.039881364,0.066615894,-3.4906585,0.0,0.0,0.0
14971156,0.04389028,0.06540925,-3.4906585,0.0,0.0,0.0
14995190,0.05449811,0.06909454,-3.4906585,0.0,0.0,0.0
15015142,0.058944985,0.0732367,-3.4906585,0.0,0.0,0.0
15035945,0.05823232,0.07101467,-3.4906585,0.0,0.0,0.0
15055946,0.057969008,0.06806528,-3.4906585,0.0,0.0,0.0
15079210,0.07096942,0.07098636,-3.4906585,0.0,0.0,0.0
15103159,0.07751249,0.08032528,-3.4906585,0.0,0.0,0.0
15123159,0.08233122,0.082875274,-3.4906585,0.0,0.0,0.0
15143187,0.0817036,0.08998919,-3.4906585,0.0,0.0,0.0
15167153,0.08799244,0.09919683,-3.4906585,0.0,0.0,0.0
15191154,0.08721904,0.09957063,-3.4906585,0.0,0.0,0.0
15215945,0.07697823,0.097901985,-3.4906585,0.0,0.0,0.0
15235182,0.062688,0.08897905,-3.4906585,0.0,0.0,0.0
15255150,0.0497136,0.07393373,-3.4906585,0.0,0.0,0.0
15279193,0.038870763,0.06352872,-3.4906585,0.0,0.0,0.0
15303158,0.03247129,0.055591885,-3.4906585,0.0,0.0,0.0
15327155,0.02939567,0.049476434,-3.4906585,0.0,0.0,0.0
15347161,0.03583493,0.05680175,-3.4906585,0.0,0.0,0.0
15367145,0.050976213,0.066253394,-3.4906585,0.0,0.0,0.0
15391186,0.053496048,0.07461223,-3.4906585,0.0,0.0,0.0
15415183,0.04979962,0.07940168,-3.4906585,0.0,0.0,0.0
15435154,0.051853113,0.078130566,-3.4906585,0.0,0.0,0.0
15455151,0.06033698,0.081847854,-3.4906585,0.0,0.0,0.0
15475956,0.06574874,0.085305616,-3.4906585,0.0,0.0,0.0
15499177,0.056154955,0.08258996,-3.4906585,0.0,0.0,0.0
15519156,0.048560202,0.076312095,-3.4906585,0.0,0.0,0.0
15539154,0.05324984,0.07187792,-3.4906585,0.0,0.0,0.0
15559143,0.056606136,0.074124925,-3.4906585,0.0,0.0,0.0
15583173,0.05329696,0.08098119,-3.4906585,0.0,0.0,0.0
15603154,0.05219135,0.08149159,-3.4906585,0.0,0.0,0.0
15623150,0.060028102,0.08178847,-3.4906585,0.0,0.0,0.0
15643152,0.07216797,0.0860014,-3.4906585,0.0,0.0,0.0
15667183,0.06785467,0.09130284,-3.4906585,0.0,0.0,0.0
15687152,0.06576463,0.08690634,-3.4906585,0.0,0.0,0.0
15707148,0.06670874,0.077345096,-3.4906585,0.0,0.0,0.0
15727164,0.06687831,0.06184552,-3.4906585,0.0,0.0,0.0
15751964,0.06692567,0.037300777,-3.4906585,0.0,0.0,0.0
15775987,0.0518729,0.006500202,-3.4906585,0.0,0.0,0.0
15799947,0.030405026,-0.015712252,-3.4906585,0.0,0.0,0.0
15823985,0.023427041,-0.018211232,-3.4906585,0.0,0.0,0.0
15847947,0.026946554,0.001516872,-3.4906585,0.0,0.0,0.0
15867942,0.023965692,0.022785734,-3.4906585,0.0,0.0,0.0
15891946,0.03170423,0.04137534,-3.4906585,0.0,0.0,0.0
15911943,0.046495322,0.06230393,-3.4906585,0.0,0.0,0.0
15931979,0.05083882,0.07712881,-3.4906585,0.0,0.0,0.0
15951954,0.06806583,0.087808564,-3.4906585,0.0,0.0,0.0
15975957,0.09804983,0.10514085,-3.4906585,0.0,0.0,0.0
15999994,0.12060196,0.116616525,-3.4906585,0.0,0.0,0.0
16023984,0.1204114,0.10232465,-3.4906585,0.0,0.0,0.0
16047986,0.10432581,0.0840788,-3.4906585,0.0,0.0,0.0
16071942,0.098136194,0.06991014,-3.4906585,0.0,0.0,0.0
16091955,0.09822984,0.06394411,-3.4906585,0.0,0.0,0.0
16115981,0.09646407,0.052470814,-3.4906585,0.0,0.0,0.0
16135969,0.07800463,0.03331578,-3.4906585,0.0,0.0,0.0
16155945,0.06474213,0.021028344,-3.4906585,0.0,0.0,0.0
16175938,0.064313084,0.01632901,-3.4906585,0.0,0.0,0.0
16199937,0.045038328,0.009565927,-3.4906585,0.0,0.0,0.0
16220114,0.03643594,0.019747846,-3.4906585,0.0,0.0,0.0
16248752,0.062132306,0.041851863,-3.4906585,0.0,0.0,0.0
16272757,0.063512936,0.05289192,-3.4906585,0.0,0.0,0.0
16296748,0.07245963,0.061394893,-3.4906585,0.0,0.0,0.0
16321547,0.08946394,0.06487389,-3.4906585,0.0,0.0,0.0
16340756,0.10367097,0.06977971,-3.4906585,0.0,0.0,0.0
16360756,0.117566064,0.08175315,-3.4906585,0.0,0.0,0.0
16385587,0.113640964,0.0801299,-3.4906585,0.0,0.0,0.0
16408744,0.11086102,0.07427203,-3.4906585,0.0,0.0,0.0
16429553,0.11305007,0.07438841,-3.4906585,0.0,0.0,0.0
16448756,0.11438247,0.07115386,-3.4906585,0.0,0.0,0.0
16472787,0.11632295,0.07565533,-3.4906585,0.0,0.0,0.0
16496759,0.11829382,0.07883915,-3.4906585,0.0,0.0,0.0
16520796,0.111353785,0.07499744,-3.4906585,0.0,0.0,0.0
16544760,0.113468096,0.08013856,-3.4906585,0.0,0.0,0.0
16565667,0.11777669,0.09121807,-3.4906585,0.0,0.0,0.0
16585575,0.125765,0.105650775,-3.4906585,0.0,0.0,0.0
16608757,0.1391396,0.11840548,-3.4906585,0.0,0.0,0.0
16632738,0.1414754,0.118988484,-3.4906585,0.0,0.0,0.0
16656759,0.1337304,0.10973164,-3.4906585,0.0,0.0,0.0
16676754,0.12218014,0.10209113,-3.4906585,0.0,0.0,0.0
16696744,0.10527507,0.086249754,-3.4906585,0.0,0.0,0.0
16720750,0.082594156,0.0631073,-3.4906585,0.0,0.0,0.0
16740739,0.05229028,0.054875817,-3.4906585,0.0,0.0,0.0
16760749,0.029802045,0.029510567,-3.4906585,0.0,0.0,0.0
16780753,0.006251688,0.0014926523,-3.4906585,0.0,0.0,0.0
16804765,-0.007937389,-0.0050833514,-3.4906585,0.0,0.0,0.0
16825591,0.0010379422,8.707691e-05,-3.4906585,0.0,0.0,0.0
16849547,0.008836736,0.007554425,-3.4906585,0.0,0.0,0.0
16869539,0.017211096,0.02395404,-3.4906585,0.0,0.0,0.0
16890393,0.028262258,0.039304137,-3.4906585,0.0,0.0,0.0
16913549,0.048626326,0.050409835,-3.4906585,0.0,0.0,0.0
16933548,0.062284507,0.05020174,-3.4906585,0.0,0.0,0.0
16953547,0.065441236,0.06329164,-3.4906585,0.0,0.0,0.0
16973546,0.07341146,0.06935668,-3.4906585,0.0,0.0,0.0
16997568,0.101029,0.07206535,-3.4906585,0.0,0.0,0.0
17017544,0.11733926,0.08588329,-3.4906585,0.0,0.0,0.0
17037552,0.10679498,0.085557416,-3.4906585,0.0,0.0,0.0
17058399,0.094548665,0.08282631,-3.4906585,0.0,0.0,0.0
17081563,0.07126793,0.06829592,-3.4906585,0.0,0.0,0.0
17105595,0.056967106,0.04000722,-3.4906585,0.0,0.0,0.0
17125710,0.0428676,0.02595759,-3.4906585,0.0,0.0,0.0
17145787,0.045179658,0.022234142,-3.4906585,0.0,0.0,0.0
17169583,0.03480414,0.02316059,-3.4906585,0.0,0.0,0.0
17193546,0.026487406,0.023088504,-3.4906585,0.0,0.0,0.0
17217550,0.040231016,0.029657688,-3.4906585,0.0,0.0,0.0
17237542,0.051494423,0.045009356,-3.4906585,0.0,0.0,0.0
17257539,0.056381784,0.05267187,-3.4906585,0.0,0.0,0.0
17281543,0.06167417,0.064211674,-3.4906585,0.0,0.0,0.0
17305572,0.08631403,0.06810036,-3.4906585,0.0,0.0,0.0
17329574,0.093730986,0.06645732,-3.4906585,0.0,0.0,0.0
17353585,0.08622673,0.07034354,-3.4906585,0.0,0.0,0.0
17377714,0.07669547,0.06288794,-3.4906585,0.0,0.0,0.0
17402354,0.0687675,0.051003885,-3.4906585,0.0,0.0,0.0
17426356,0.062363517,0.03952869,-3.4906585,0.0,0.0,0.0
17446353,0.05351385,0.042976376,-3.4906585,0.0,0.0,0.0
17470355,0.05387919,0.042937182,-3.4906585,0.0,0.0,0.0
17490345,0.050861806,0.044760723,-3.4906585,0.0,0.0,0.0
17510351,0.048130073,0.047472436,-3.4906585,0.0,0.0,0.0
17530356,0.04668236,0.046698026,-3.4906585,0.0,0.0,0.0
17554508,0.039922535,0.048117936,-3.4906585,0.0,0.0,0.0
17578353,0.051875122,0.048828196,-3.4906585,0.0,0.0,0.0
17602354,0.06261192,0.048315782,-3.4906585,0.0,0.0,0.0
17626359,0.07445947,0.0473599,-3.4906585,0.0,0.0,0.0
17646408,0.08001286,0.045650076,-3.4906585,0.0,0.0,0.0
17666367,0.08383057,0.046770338,-3.4906585,0.0,0.0,0.0
17690348,0.088282116,0.050301924,-3.4906585,0.0,0.0,0.0
17714359,0.08371004,0.048901685,-3.4906585,0.0,0.0,0.0
17738360,0.07797652,0.0598802,-3.4906585,0.0,0.0,0.0
17758355,0.08149984,0.06901769,-3.4906585,0.0,0.0,0.0
17778352,0.08823534,0.0776663,-3.4906585,0.0,0.0,0.0
17798352,0.087062344,0.08243021,-3.4906585,0.0,0.0,0.0
17819144,0.069793604,0.07380613,-3.4906585,0.0,0.0,0.0
17843141,0.04378509,0.05888558,-3.4906585,0.0,0.0,0.0
17863151,0.03740665,0.05421761,-3.4906585,0.0,0.0,0.0
17887305,0.03238805,0.038700223,-3.4906585,0.0,0.0,0.0
17907157,0.028420895,0.036458332,-3.4906585,0.0,0.0,0.0
17931162,0.028155793,0.0317031,-3.4906585,0.0,0.0,0.0
17955143,0.037740946,0.037200633,-3.4906585,0.0,0.0,0.0
17975945,0.04740032,0.049159512,-3.4906585,0.0,0.0,0.0
17995947,0.05417978,0.061468728,-3.4906585,0.0,0.0,0.0
18019188,0.05924971,0.072608374,-3.4906585,0.0,0.0,0.0
18039149,0.06742202,0.073244534,-3.4906585,0.0,0.0,0.0
18059141,0.06928151,0.075887926,-3.4906585,0.0,0.0,0.0
18079154,0.07452737,0.08141106,-3.4906585,0.0,0.0,0.0
18103173,0.08193987,0.082837604,-3.4906585,0.0,0.0,0.0
18123973,0.07178079,0.07461754,-3.4906585,0.0,0.0,0.0
18147287,0.05718609,0.06181746,-3.4906585,0.0,0.0,0.0
18167269,0.050865073,0.052117314,-3.4906585,0.0,0.0,0.0
18191153,0.043623727,0.046573553,-3.4906585,0.0,0.0,0.0
18211153,0.035186674,0.04275596,-3.4906585,0.0,0.0,0.0
18231149,0.032299884,0.03596504,-3.4906585,0.0,0.0,0.0
18251295,0.032902908,0.04113686,-3.4906585,0.0,0.0,0.0
18275155,0.042154253,0.050076682,-3.4906585,0.0,0.0,0.0
18299160,0.045566652,0.06333093,-3.4906585,0.0,0.0,0.0
18319144,0.05627808,0.07099569,-3.4906585,0.0,0.0,0.0
18339152,0.061272144,0.07148872,-3.4906585,0.0,0.0,0.0
18359159,0.06349976,0.0763436,-3.4906585,0.0,0.0,0.0
18383166,0.071089946,0.075823374,-3.4906585,0.0,0.0,0.0
18403965,0.064455576,0.06715484,-3.4906585,0.0,0.0,0.0
18423977,0.05845822,0.061502848,-3.4906585,0.0,0.0,0.0
18443949,0.060442112,0.055653136,-3.4906585,0.0,0.0,0.0
18467938,0.05724138,0.058693223,-3.4906585,0.0,0.0,0.0
18491939,0.05799518,0.06225665,-3.4906585,0.0,0.0,0.0
18515939,0.05172472,0.07088942,-3.4906585,0.0,0.0,0.0
18536908,0.05523548,0.07529488,-3.4906585,0.0,0.0,0.0
18556775,0.05376045,0.06944588,-3.4906585,0.0,0.0,0.0
18579957,0.049718,0.06365021,-3.4906585,0.0,0.0,0.0
18603996,0.056286626,0.05654216,-3.4906585,0.0,0.0,0.0
18623992,0.059263743,0.057922598,-3.4906585,0.0,0.0,0.0
18643971,0.052465096,0.057203233,-3.4906585,0.0,0.0,0.0
18663982,0.0358442,0.044927828,-3.4906585,0.0,0.0,0.0
18688138,0.03470743,0.036808614,-3.4906585,0.0,0.0,0.0
18707967,0.052579846,0.046639726,-3.4906585,0.0,0.0,0.0
18727963,0.060458634,0.0613895,-3.4906585,0.0,0.0,0.0
18748758,0.077431716,0.075123906,-3.4906585,0.0,0.0,0.0
18771980,0.084109284,0.08608242,-3.4906585,0.0,0.0,0.0
18795946,0.0938489,0.083371386,-3.4906585,0.0,0.0,0.0
18819959,0.08622658,0.071666434,-3.4906585,0.0,0.0,0.0
18843993,0.061678812,0.057142377,-3.4906585,0.0,0.0,0.0
18863956,0.044305947,0.04438396,-3.4906585,0.0,0.0,0.0
18888122,0.03922704,0.02927623,-3.4906585,0.0,0.0,0.0
18907945,0.049884982,0.03278738,-3.4906585,0.0,0.0,0.0
18927942,0.044857383,0.03541942,-3.4906585,0.0,0.0,0.0
18947991,0.029200274,0.04979726,-3.4906585,0.0,0.0,0.0
18971953,0.053803634,0.07637462,-3.4906585,0.0,0.0,0.0
18995953,0.06909484,0.09461099,-3.4906585,0.0,0.0,0.0
19019963,0.062158488,0.09781191,-3.4906585,0.0,0.0,0.0
19043983,0.05287159,0.094149336,-3.4906585,0.0,0.0,0.0
19068750,0.05593478,0.0818364,-3.4906585,0.0,0.0,0.0
19092747,0.0701025,0.078907914,-3.4906585,0.0,0.0,0.0
19116751,0.07241346,0.08811946,-3.4906585,0.0,0.0,0.0
19136749,0.05551747,0.081070915,-3.4906585,0.0,0.0,0.0
19156756,0.05629468,0.0669359,-3.4906585,0.0,0.0,0.0
19181563,0.06494973,0.062944055,-3.4906585,0.0,0.0,0.0
19200770,0.061610386,0.06342651,-3.4906585,0.0,0.0,0.0
19220751,0.056854002,0.06378908,-3.4906585,0.0,0.0,0.0
19245593,0.057329267,0.07322596,-3.4906585,0.0,0.0,0.0
19269554,0.06237711,0.077981316,-3.4906585,0.0,0.0,0.0
19292788,0.07829389,0.088582516,-3.4906585,0.0,0.0,0.0
19312764,0.08012177,0.09630841,-3.4906585,0.0,0.0,0.0
19332786,0.0769971,0.09353399,-3.4906585,0.0,0.0,0.0
19356748,0.07331238,0.09285659,-3.4906585,0.0,0.0,0.0
19380769,0.06674683,0.086299114,-3.4906585,0.0,0.0,0.0
19400759,0.041454773,0.062574536,-3.4906585,0.0,0.0,0.0
19420745,0.019320816,0.046465475,-3.4906585,0.0,0.0,0.0
19441547,0.022891803,0.044397056,-3.4906585,0.0,0.0,0.0
19460891,0.036390435,0.04275284,-3.4906585,0.0,0.0,0.0
19485674,0.035952847,0.051447988,-3.4906585,0.0,0.0,0.0
19504758,0.0400919,0.06358516,-3.4906585,0.0,0.0,0.0
19524761,0.05808396,0.07122548,-3.4906585,0.0,0.0,0.0
19548763,0.073675476,0.09089404,-3.4906585,0.0,0.0,0.0
19572912,0.081298105,0.09154173,-3.4906585,0.0,0.0,0.0
19592786,0.07880616,0.08709549,-3.4906585,0.0,0.0,0.0
19613684,0.08414928,0.085536905,-3.4906585,0.0,0.0,0.0
19634527,0.08722976,0.084221736,-3.4906585,0.0,0.0,0.0
19653590,0.07704011,0.07760327,-3.4906585,0.0,0.0,0.0
19677558,0.0537307,0.06552435,-3.4906585,0.0,0.0,0.0
19697544,0.049815137,0.0571618,-3.4906585,0.0,0.0,0.0
19717578,0.051067427,0.055327974,-3.4906585,0.0,0.0,0.0
19741546,0.049351722,0.06251879,-3.4906585,0.0,0.0,0.0
19765615,0.03426966,0.068067886,-3.4906585,0.0,0.0,0.0
19790381,0.022078633,0.062303927,-3.4906585,0.0,0.0,0.0
19814366,0.03593839,0.05420007,-3.4906585,0.0,0.0,0.0
19838348,0.046654627,0.058219794,-3.4906585,0.0,0.0,0.0
19862348,0.039342847,0.06875827,-3.4906585,0.0,0.0,0.0
19882345,0.03606695,0.0627787,-3.4906585,0.0,0.0,0.0
19902350,0.04561168,0.052104943,-3.4906585,0.0,0.0,0.0
19927150,0.061332773,0.050668277,-3.4906585,0.0,0.0,0.0
19946376,0.05702019,0.053618897,-3.4906585,0.0,0.0,0.0
19966353,0.057055954,0.0621334,-3.4906585,0.0,0.0,0.0
19990345,0.072127834,0.071016,-3.4906585,0.0,0.0,0.0
20014354,0.081557654,0.07415728,-3.4906585,0.0,0.0,0.0
20034358,0.07271662,0.071603365,-3.4906585,0.0,0.0,0.0
20054353,0.059510246,0.07059795,-3.4906585,0.0,0.0,0.0
20074366,0.059613653,0.07204098,-3.4906585,0.0,0.0,0.0
20098384,0.061670642,0.06889912,-3.4906585,0.0,0.0,0.0
20118358,0.053907007,0.06350931,-3.4906585,0.0,0.0,0.0
20138345,0.04371034,0.05967445,-3.4906585,0.0,0.0,0.0
20159140,0.038727373,0.05381713,-3.4906585,0.0,0.0,0.0
20182391,0.04204238,0.0463636,-3.4906585,0.0,0.0,0.0
20206376,0.044120833,0.047402434,-3.4906585,0.0,0.0,0.0
20230355,0.049412146,0.048480183,-3.4906585,0.0,0.0,0.0
20250406,0.05677022,0.05246627,-3.4906585,0.0,0.0,0.0
20270372,0.064685516,0.06360848,-3.4906585,0.0,0.0,0.0
20294360,0.07301293,0.06508861,-3.4906585,0.0,0.0,0.0
20318350,0.07456567,0.062100876,-3.4906585,0.0,0.0,0.0
20338431,0.07332082,0.06329901,-3.4906585,0.0,0.0,0.0
20358359,0.06792024,0.061743177,-3.4906585,0.0,0.0,0.0
20383174,0.055369705,0.056967646,-3.4906585,0.0,0.0,0.0
20406344,0.051048353,0.041800305,-3.4906585,0.0,0.0,0.0
20430344,0.05041856,0.036103234,-3.4906585,0.0,0.0,0.0
20454358,0.049817357,0.046277538,-3.4906585,0.0,0.0,0.0
20475142,0.043384116,0.04726302,-3.4906585,0.0,0.0,0.0
20495163,0.03760495,0.040204242,-3.4906585,0.0,0.0,0.0
20518378,0.042458232,0.037714176,-3.4906585,0.0,0.0,0.0
20542358,0.041096035,0.039300326,-3.4906585,0.0,0.0,0.0
20562351,0.04579038,0.041769076,-3.4906585,0.0,0.0,0.0
20582357,0.060665455,0.04721688,-3.4906585,0.0,0.0,0.0
20606367,0.06774912,0.04975177,-3.4906585,0.0,0.0,0.0
20630393,0.069603354,0.048597395,-3.4906585,0.0,0.0,0.0
20655178,0.07120339,0.04752796,-3.4906585,0.0,0.0,0.0
20678351,0.06913012,0.047419704,-3.4906585,0.0,0.0,0.0
20699941,0.06707153,0.046763867,-3.4906585,0.0,0.0,0.0
20719149,0.068263635,0.046061445,-3.4906585,0.0,0.0,0.0
20739167,0.06119894,0.045669444,-3.4906585,0.0,0.0,0.0
20763160,0.06186007,0.049550846,-3.4906585,0.0,0.0,0.0
20783150,0.061639514,0.05128219,-3.4906585,0.0,0.0,0.0
20807962,0.056432694,0.044840757,-3.4906585,0.0,0.0,0.0
20827160,0.053526312,0.042251915,-3.4906585,0.0,0.0,0.0
20851309,0.051356614,0.042936195,-3.4906585,0.0,0.0,0.0
20871167,0.058199957,0.040646594,-3.4906585,0.0,0.0,0.0
20891141,0.06421184,0.044761896,-3.4906585,0.0,0.0,0.0
20911148,0.06906584,0.04860597,-3.4906585,0.0,0.0,0.0
20935951,0.075536534,0.05544868,-3.4906585,0.0,0.0,0.0
20959201,0.082633585,0.05585435,-3.4906585,0.0,0.0,0.0
20983164,0.08532558,0.059627034,-3.4906585,0.0,0.0,0.0
21007186,0.08578844,0.05930729,-3.4906585,0.0,0.0,0.0
21027149,0.08830114,0.053805083,-3.4906585,0.0,0.0,0.0
21047161,0.08523843,0.049602233,-3.4906585,0.0,0.0,0.0
21071165,0.07746982,0.04934381,-3.4906585,0.0,0.0,0.0
21095148,0.083208784,0.045022495,-3.4906585,0.0,0.0,0.0
21115947,0.09480451,0.04570011,-3.4906585,0.0,0.0,0.0
21135938,0.08177204,0.0452993,-3.4906585,0.0,0.0,0.0
21155947,0.071841694,0.04176747,-3.4906585,0.0,0.0,0.0
21175963,0.06682475,0.027340986,-3.4906585,0.0,0.0,0.0
21199957,0.07852479,0.025792787,-3.4906585,0.0,0.0,0.0
21219939,0.08704884,0.034913875,-3.4906585,0.0,0.0,0.0
21239956,0.08322916,0.039457887,-3.4906585,0.0,0.0,0.0
21264010,0.06835779,0.037110347,-3.4906585,0.0,0.0,0.0
21287989,0.06014138,0.03122838,-3.4906585,0.0,0.0,0.0
21307948,0.06023927,0.02513096,-3.4906585,0.0,0.0,0.0
21327942,0.06171852,0.031128593,-3.4906585,0.0,0.0,0.0
21351939,0.06588578,0.04081489,-3.4906585,0.0,0.0,0.0
21376743,0.070847705,0.041788243,-3.4906585,0.0,0.0,0.0
21399956,0.067478545,0.03571435,-3.4906585,0.0,0.0,0.0
21419957,0.060359485,0.029497758,-3.4906585,0.0,0.0,0.0
21439967,0.075522974,0.034562558,-3.4906585,0.0,0.0,0.0
21463972,0.09816723,0.051077623,-3.4906585,0.0,0.0,0.0
21487961,0.08300997,0.050748505,-3.4906585,0.0,0.0,0.0
21511944,0.093369916,0.04503389,-3.4906585,0.0,0.0,0.0
21535938,0.09354526,0.04775648,-3.4906585,0.0,0.0,0.0
21559944,0.10239264,0.0477778,-3.4906585,0.0,0.0,0.0
21579943,0.10130013,0.046448514,-3.4906585,0.0,0.0,0.0
21603955,0.08870414,0.031833306,-3.4906585,0.0,0.0,0.0
21623973,0.07813375,0.02246382,-3.4906585,0.0,0.0,0.0
21647973,0.058628835,0.016160488,-3.4906585,0.0,0.0,0.0
21667948,0.040706016,0.009390813,-3.4906585,0.0,0.0,0.0
21688756,0.046080954,0.0053408765,-3.4906585,0.0,0.0,0.0
21711989,0.056875594,0.019524371,-3.4906585,0.0,0.0,0.0
21735956,0.05569505,0.027378036,-3.4906585,0.0,0.0,0.0
21759951,0.078948446,0.04753066,-3.4906585,0.0,0.0,0.0
21779983,0.09501049,0.058681138,-3.4906585,0.0,0.0,0.0
21799962,0.094280235,0.057760827,-3.4906585,0.0,0.0,0.0
21823957,0.07833391,0.05012565,-3.4906585,0.0,0.0,0.0
21848752,0.08360076,0.037147235,-3.4906585,0.0,0.0,0.0
21873552,0.08968031,0.03049265,-3.4906585,0.0,0.0,0.0
21896774,0.083379865,0.031811062,-3.4906585,0.0,0.0,0.0
21916776,0.07300043,0.034540605,-3.4906585,0.0,0.0,0.0
21936743,0.06325263,0.026295217,-3.4906585,0.0,0.0,0.0
21960757,0.06457408,0.024041511,-3.4906585,0.0,0.0,0.0
21984797,0.07180154,0.033323463,-3.4906585,0.0,0.0,0.0
22008746,0.061555758,0.038341917,-3.4906585,0.0,0.0,0.0
22032751,0.05426474,0.03848255,-3.4906585,0.0,0.0,0.0
22056747,0.06249064,0.039414857,-3.4906585,0.0,0.0,0.0
22076754,0.06835423,0.0427057,-3.4906585,0.0,0.0,0.0
22096755,0.06621366,0.044019338,-3.4906585,0.0,0.0,0.0
22121572,0.057243295,0.033340678,-3.4906585,0.0,0.0,0.0
22140943,0.05971545,0.029157057,-3.4906585,0.0,0.0,0.0
22160754,0.071264125,0.033438995,-3.4906585,0.0,0.0,0.0
22184753,0.07692361,0.039700013,-3.4906585,0.0,0.0,0.0
22208764,0.07537539,0.037669215,-3.4906585,0.0,0.0,0.0
22232784,0.08060666,0.037626904,-3.4906585,0.0,0.0,0.0
22252768,0.078800425,0.04064334,-3.4906585,0.0,0.0,0.0
22272764,0.07862652,0.04546206,-3.4906585,0.0,0.0,0.0
22296895,0.07804448,0.04239725,-3.4906585,0.0,0.0,0.0
22320763,0.07226105,0.039476532,-3.4906585,0.0,0.0,0.0
22345569,0.07125566,0.038800877,-3.4906585,0.0,0.0,0.0
22369589,0.06690217,0.034459323,-3.4906585,0.0,0.0,0.0
22390384,0.059647232,0.030048834,-3.4906585,0.0,0.0,0.0
22409544,0.06334272,0.024873648,-3.4906585,0.0,0.0,0.0
22434407,0.07656858,0.028753549,-3.4906585,0.0,0.0,0.0
22457564,0.08778535,0.039380543,-3.4906585,0.0,0.0,0.0
22477554,0.08545682,0.04942801,-3.4906585,0.0,0.0,0.0
22497555,0.08195854,0.050799634,-3.4906585,0.0,0.0,0.0
22521596,0.08957904,0.04543539,-3.4906585,0.0,0.0,0.0
22545593,0.091902986,0.05152345,-3.4906585,0.0,0.0,0.0
22569545,0.08796518,0.05198513,-3.4906585,0.0,0.0,0.0
22593544,0.089538164,0.04361954,-3.4906585,0.0,0.0,0.0
22617544,0.0921354,0.042556893,-3.4906585,0.0,0.0,0.0
22637540,0.08562884,0.041231945,-3.4906585,0.0,0.0,0.0
22657575,0.08119476,0.038543355,-3.4906585,0.0,0.0,0.0
22681572,0.073729984,0.03707939,-3.4906585,0.0,0.0,0.0
22701562,0.07654093,0.03794364,-3.4906585,0.0,0.0,0.0
22721538,0.079813436,0.04060258,-3.4906585,0.0,0.0,0.0
22741550,0.077588074,0.042317968,-3.4906585,0.0,0.0,0.0
22765571,0.07934364,0.043781135,-3.4906585,0.0,0.0,0.0
22785745,0.07753484,0.042893276,-3.4906585,0.0,0.0,0.0
22805593,0.06950525,0.033842944,-3.4906585,0.0,0.0,0.0
22825573,0.063335955,0.028101873,-3.4906585,0.0,0.0,0.0
22849539,0.072683655,0.03172455,-3.4906585,0.0,0.0,0.0
22873540,0.08874813,0.04261479,-3.4906585,0.0,0.0,0.0
22898349,0.09178452,0.049973805,-3.4906585,0.0,0.0,0.0
22922375,0.08480774,0.045788113,-3.4906585,0.0,0.0,0.0
22947153,0.077254996,0.04106094,-3.4906585,0.0,0.0,0.0
22970345,0.0870235,0.042320784,-3.4906585,0.0,0.0,0.0
22990364,0.08596904,0.04480622,-3.4906585,0.0,0.0,0.0
23014507,0.08562324,0.040780053,-3.4906585,0.0,0.0,0.0
23034366,0.08546695,0.03740232,-3.4906585,0.0,0.0,0.0
23059172,0.08346317,0.03376109,-3.4906585,0.0,0.0,0.0
23078355,0.085202634,0.039374746,-3.4906585,0.0,0.0,0.0
23099147,0.084250644,0.04232187,-3.4906585,0.0,0.0,0.0
23122387,0.08443987,0.03315128,-3.4906585,0.0,0.0,0.0
23146380,0.09120239,0.035430145,-3.4906585,0.0,0.0,0.0
23166353,0.087021254,0.04307147,-3.4906585,0.0,0.0,0.0
23186344,0.075215265,0.042570002,-3.4906585,0.0,0.0,0.0
23210366,0.06760182,0.032923494,-3.4906585,0.0,0.0,0.0
23234363,0.08115698,0.03217817,-3.4906585,0.0,0.0,0.0
23258351,0.09443937,0.04506153,-3.4906585,0.0,0.0,0.0
23278346,0.08064719,0.054415114,-3.4906585,0.0,0.0,0.0
23298361,0.074435,0.055092108,-3.4906585,0.0,0.0,0.0
23322381,0.09352717,0.054744605,-3.4906585,0.0,0.0,0.0
23346347,0.10030438,0.05381374,-3.4906585,0.0,0.0,0.0
23370345,0.09457429,0.05581273,-3.4906585,0.0,0.0,0.0
23387154,0.091327004,0.05680454,-3.4906585,0.0,0.0,0.0
23411178,0.09143968,0.045549028,-3.4906585,0.0,0.0,0.0
23431148,0.093327686,0.04183477,-3.4906585,0.0,0.0,0.0
23451194,0.093933105,0.036253918,-3.4906585,0.0,0.0,0.0
23475151,0.067747526,0.029014675,-3.4906585,0.0,0.0,0.0
23495981,0.06608618,0.028135408,-3.4906585,0.0,0.0,0.0
23515160,0.08645002,0.033520438,-3.4906585,0.0,0.0,0.0
23539149,0.088575386,0.038331375,-3.4906585,0.0,0.0,0.0
23563176,0.07360501,0.04725511,-3.4906585,0.0,0.0,0.0
23587155,0.06726328,0.040378403,-3.4906585,0.0,0.0,0.0
23607190,0.07414787,0.03254553,-3.4906585,0.0,0.0,0.0
23627312,0.08797119,0.035232805,-3.4906585,0.0,0.0,0.0
23651153,0.09012537,0.044137325,-3.4906585,0.0,0.0,0.0
23675958,0.07454894,0.042701628,-3.4906585,0.0,0.0,0.0
23699150,0.08125092,0.033891417,-3.4906585,0.0,0.0,0.0
23719147,0.08846885,0.034287352,-3.4906585,0.0,0.0,0.0
23739159,0.08541306,0.035785478,-3.4906585,0.0,0.0,0.0
23763186,0.08508196,0.04321097,-3.4906585,0.0,0.0,0.0
23787170,0.09243905,0.036199935,-3.4906585,0.0,0.0,0.0
23811159,0.08419835,0.023672037,-3.4906585,0.0,0.0,0.0
23835984,0.087286934,0.02878971,-3.4906585,0.0,0.0,0.0
23859166,0.093318954,0.03328174,-3.4906585,0.0,0.0,0.0
23879193,0.088557504,0.034444373,-3.4906585,0.0,0.0,0.0
23903332,0.09449511,0.032092094,-3.4906585,0.0,0.0,0.0
23923161,0.099755086,0.035536844,-3.4906585,0.0,0.0,0.0
23943954,0.09422963,0.041324653,-3.4906585,0.0,0.0,0.0
23963973,0.08678286,0.047394358,-3.4906585,0.0,0.0,0.0
23983973,0.08625992,0.047923684,-3.4906585,0.0,0.0,0.0
24007958,0.081238665,0.041586146,-3.4906585,0.0,0.0,0.0
24027944,0.071047045,0.037150905,-3.4906585,0.0,0.0,0.0
24047942,0.06583006,0.031248739,-3.4906585,0.0,0.0,0.0
24068743,0.068649605,0.029834624,-3.4906585,0.0,0.0,0.0
24088760,0.070269935,0.029290967,-3.4906585,0.0,0.0,0.0
24112762,0.06292207,0.027808338,-3.4906585,0.0,0.0,0.0
24132739,0.060340807,0.024770595,-3.4906585,0.0,0.0,0.0
24152738,0.07027633,0.027717598,-3.4906585,0.0,0.0,0.0
24172738,0.08091068,0.03864149,-3.4906585,0.0,0.0,0.0
24196757,0.097218595,0.049681734,-3.4906585,0.0,0.0,0.0
24216748,0.10244884,0.060251024,-3.4906585,0.0,0.0,0.0
24236739,0.10338933,0.06061731,-3.4906585,0.0,0.0,0.0
24256740,0.10866417,0.056730803,-3.4906585,0.0,0.0,0.0
24280751,0.10038715,0.05160297,-3.4906585,0.0,0.0,0.0
24300749,0.08724067,0.042163268,-3.4906585,0.0,0.0,0.0
24324895,0.06876611,0.026965324,-3.4906585,0.0,0.0,0.0
24345732,0.058245197,0.017204585,-3.4906585,0.0,0.0,0.0
24365583,0.0588253,0.015947415,-3.4906585,0.0,0.0,0.0
24388739,0.069148615,0.03288532,-3.4906585,0.0,0.0,0.0
24408740,0.0761799,0.04232172,-3.4906585,0.0,0.0,0.0
24428779,0.07114615,0.048045326,-3.4906585,0.0,0.0,0.0
24452747,0.06466187,0.04861461,-3.4906585,0.0,0.0,0.0
24476757,0.08137321,0.04976633,-3.4906585,0.0,0.0,0.0
24496744,0.089129075,0.050917085,-3.4906585,0.0,0.0,0.0
24516739,0.09385194,0.047140427,-3.4906585,0.0,0.0,0.0
24536741,0.09053044,0.04469342,-3.4906585,0.0,0.0,0.0
24560756,0.09301715,0.04177016,-3.4906585,0.0,0.0,0.0
24580759,0.10349022,0.04290689,-3.4906585,0.0,0.0,0.0
24600757,0.107640654,0.047614265,-3.4906585,0.0,0.0,0.0
24620744,0.10018323,0.045474,-3.4906585,0.0,0.0,0.0
24645585,0.08965249,0.043038115,-3.4906585,0.0,0.0,0.0
24668971,0.088403605,0.042573918,-3.4906585,0.0,0.0,0.0
24692752,0.09800783,0.043381616,-3.4906585,0.0,0.0,0.0
24712759,0.087147355,0.044443537,-3.4906585,0.0,0.0,0.0
24732771,0.07984276,0.042362094,-3.4906585,0.0,0.0,0.0
24756763,0.076543786,0.03753361,-3.4906585,0.0,0.0,0.0
24780743,0.078896396,0.02938181,-3.4906585,0.0,0.0,0.0
24800753,0.08055605,0.031184493,-3.4906585,0.0,0.0,0.0
24820756,0.080201544,0.029294949,-3.4906585,0.0,0.0,0.0
24845571,0.07944424,0.023083808,-3.4906585,0.0,0.0,0.0
24868754,0.07399003,0.020718016,-3.4906585,0.0,0.0,0.0
24892750,0.07082994,0.017246744,-3.4906585,0.0,0.0,0.0
24916755,0.09268387,0.03901473,-3.4906585,0.0,0.0,0.0
24936742,0.10738135,0.053116746,-3.4906585,0.0,0.0,0.0
24956738,0.1115994,0.05212573,-3.4906585,0.0,0.0,0.0
24980757,0.104791775,0.049484357,-3.4906585,0.0,0.0,0.0
25004794,0.091132544,0.04043979,-3.4906585,0.0,0.0,0.0
25028757,0.08705983,0.025318256,-3.4906585,0.0,0.0,0.0
25048755,0.092102714,0.020991137,-3.4906585,0.0,0.0,0.0
25068752,0.091439694,0.02490341,-3.4906585,0.0,0.0,0.0
25092758,0.09998779,0.03451577,-3.4906585,0.0,0.0,0.0
25117546,0.102840096,0.048338994,-3.4906585,0.0,0.0,0.0
25141564,0.094467446,0.04934265,-3.4906585,0.0,0.0,0.0
25165581,0.07646198,0.041286312,-3.4906585,0.0,0.0,0.0
25185694,0.07782188,0.03598122,-3.4906585,0.0,0.0,0.0
25205575,0.07991634,0.026160764,-3.4906585,0.0,0.0,0.0
25229698,0.08749574,0.027812915,-3.4906585,0.0,0.0,0.0
25253569,0.08898431,0.03323082,-3.4906585,0.0,0.0,0.0
25277552,0.091431215,0.03067786,-3.4906585,0.0,0.0,0.0
25301547,0.097431734,0.036136746,-3.4906585,0.0,0.0,0.0
25321558,0.094474986,0.026123244,-3.4906585,0.0,0.0,0.0
25345585,0.08894149,0.029065086,-3.4906585,0.0,0.0,0.0
25365598,0.095328234,0.03904175,-3.4906585,0.0,0.0,0.0
25389554,0.110841244,0.042723086,-3.4906585,0.0,0.0,0.0
25409547,0.112699956,0.050497457,-3.4906585,0.0,0.0,0.0
25429554,0.10857317,0.05221301,-3.4906585,0.0,0.0,0.0
25453543,0.09169294,0.044499576,-3.4906585,0.0,0.0,0.0
25477544,0.08508861,0.033396397,-3.4906585,0.0,0.0,0.0
25497544,0.07980521,0.027244218,-3.4906585,0.0,0.0,0.0
25517666,0.08100182,0.0258568,-3.4906585,0.0,0.0,0.0
25541592,0.084494196,0.024408624,-3.4906585,0.0,0.0,0.0
25565582,0.08004812,0.030610427,-3.4906585,0.0,0.0,0.0
25589556,0.08323858,0.033367805,-3.4906585,0.0,0.0,0.0
25613548,0.08615009,0.03829588,-3.4906585,0.0,0.0,0.0
25633548,0.088667355,0.038529795,-3.4906585,0.0,0.0,0.0
25653551,0.08803053,0.038206633,-3.4906585,0.0,0.0,0.0
25674353,0.079615176,0.038357228,-3.4906585,0.0,0.0,0.0
25698351,0.08488628,0.030803222,-3.4906585,0.0,0.0,0.0
25718375,0.092126116,0.0279145,-3.4906585,0.0,0.0,0.0
25738353,0.093833074,0.032661527,-3.4906585,0.0,0.0,0.0
25758358,0.08871409,0.031123009,-3.4906585,0.0,0.0,0.0
25782345,0.08496153,0.02803752,-3.4906585,0.0,0.0,0.0
25806346,0.098577484,0.03165457,-3.4906585,0.0,0.0,0.0
25830345,0.10763177,0.043333724,-3.4906585,0.0,0.0,0.0
25850375,0.09006036,0.043945726,-3.4906585,0.0,0.0,0.0
25870348,0.087682314,0.035720564,-3.4906585,0.0,0.0,0.0
25894366,0.097294845,0.0335204,-3.4906585,0.0,0.0,0.0
25918344,0.099592924,0.038875468,-3.4906585,0.0,0.0,0.0
25942359,0.084864624,0.04165122,-3.4906585,0.0,0.0,0.0
25966351,0.077236794,0.03573847,-3.4906585,0.0,0.0,0.0
25986350,0.08821533,0.02723993,-3.4906585,0.0,0.0,0.0
26006394,0.09148784,0.032340772,-3.4906585,0.0,0.0,0.0
26030388,0.0795991,0.036373574,-3.4906585,0.0,0.0,0.0
26050347,0.07105368,0.026246399,-3.4906585,0.0,0.0,0.0
26070354,0.07125011,0.025061553,-3.4906585,0.0,0.0,0.0
26094360,0.084042184,0.032234143,-3.4906585,0.0,0.0,0.0
26118355,0.09123973,0.037362825,-3.4906585,0.0,0.0,0.0
26142351,0.08995564,0.042395465,-3.4906585,0.0,0.0,0.0
26167173,0.09835818,0.04228932,-3.4906585,0.0,0.0,0.0
26190352,0.109612465,0.04651123,-3.4906585,0.0,0.0,0.0
26211160,0.097079076,0.03774933,-3.4906585,0.0,0.0,0.0
26231184,0.0737511,0.028695153,-3.4906585,0.0,0.0,0.0
26255153,0.06380454,0.0162368,-3.4906585,0.0,0.0,0.0
26279156,0.07707741,0.019261915,-3.4906585,0.0,0.0,0.0
26299145,0.0853564,0.023876907,-3.4906585,0.0,0.0,0.0
26319159,0.090338096,0.037550468,-3.4906585,0.0,0.0,0.0
26339165,0.08842916,0.049661763,-3.4906585,0.0,0.0,0.0
26363208,0.094862066,0.03956716,-3.4906585,0.0,0.0,0.0
26383149,0.092603266,0.03896038,-3.4906585,0.0,0.0,0.0
26403154,0.0881504,0.033144716,-3.4906585,0.0,0.0,0.0
26423165,0.0865686,0.024998209,-3.4906585,0.0,0.0,0.0
26447154,0.09326586,0.026706543,-3.4906585,0.0,0.0,0.0
26471150,0.10699174,0.02562167,-3.4906585,0.0,0.0,0.0
26495943,0.08667641,0.02262251,-3.4906585,0.0,0.0,0.0
26515159,0.07699179,0.0181277,-3.4906585,0.0,0.0,0.0
26535153,0.08785443,0.017014954,-3.4906585,0.0,0.0,0.0
26559152,0.09706812,0.02513846,-3.4906585,0.0,0.0,0.0
26583155,0.09808156,0.031004533,-3.4906585,0.0,0.0,0.0
26603155,0.09332242,0.033930287,-3.4906585,0.0,0.0,0.0
26623303,0.09507669,0.030767823,-3.4906585,0.0,0.0,0.0
26647159,0.09563115,0.030450284,-3.4906585,0.0,0.0,0.0
26671191,0.089447185,0.029509552,-3.4906585,0.0,0.0,0.0
26695987,0.07693959,0.017668016,-3.4906585,0.0,0.0,0.0
26719947,0.08235728,0.013137222,-3.4906585,0.0,0.0,0.0
26743963,0.09088875,0.016473187,-3.4906585,0.0,0.0,0.0
26763967,0.09450877,0.021574832,-3.4906585,0.0,0.0,0.0
26783956,0.09039983,0.025438953,-3.4906585,0.0,0.0,0.0
26807944,0.09300841,0.027693797,-3.4906585,0.0,0.0,0.0
26831939,0.108070575,0.031923015,-3.4906585,0.0,0.0,0.0
26855981,0.107072435,0.041417964,-3.4906585,0.0,0.0,0.0
26875960,0.10254593,0.04073818,-3.4906585,0.0,0.0,0.0
26895945,0.10390955,0.036253683,-3.4906585,0.0,0.0,0.0
26920083,0.10156502,0.029202893,-3.4906585,0.0,0.0,0.0
26943964,0.09081172,0.016621582,-3.4906585,0.0,0.0,0.0
26967944,0.07274502,0.013105478,-3.4906585,0.0,0.0,0.0
26988742,0.07442577,0.0067686476,-3.4906585,0.0,0.0,0.0
27007999,0.07900168,0.005761668,-3.4906585,0.0,0.0,0.0
27031957,0.08314141,0.013357515,-3.4906585,0.0,0.0,0.0
27051970,0.08573047,0.017893156,-3.4906585,0.0,0.0,0.0
27071944,0.086622246,0.021799615,-3.4906585,0.0,0.0,0.0
27091948,0.08830927,0.021525688,-3.4906585,0.0,0.0,0.0
27111989,0.09254983,0.023633014,-3.4906585,0.0,0.0,0.0
27135959,0.09469513,0.027572855,-3.4906585,0.0,0.0,0.0
27159945,0.09589342,0.024854217,-3.4906585,0.0,0.0,0.0
27180753,0.09522022,0.023596644,-3.4906585,0.0,0.0,0.0
27199944,0.09759193,0.019218568,-3.4906585,0.0,0.0,0.0
27223963,0.09043665,0.018084602,-3.4906585,0.0,0.0,0.0
27247948,0.09614014,0.01709605,-3.4906585,0.0,0.0,0.0
27272784,0.09962358,0.025563976,-3.4906585,0.0,0.0,0.0
27292769,0.094396204,0.03136782,-3.4906585,0.0,0.0,0.0
27312747,0.08620556,0.028002942,-3.4906585,0.0,0.0,0.0
27336753,0.0806574,0.024498578,-3.4906585,0.0,0.0,0.0
27360760,0.08433635,0.017912315,-3.4906585,0.0,0.0,0.0
27380747,0.07736941,0.016674984,-3.4906585,0.0,0.0,0.0
27400775,0.07808315,0.017199118,-3.4906585,0.0,0.0,0.0
27420792,0.08638013,0.012426497,-3.4906585,0.0,0.0,0.0
27444910,0.08355553,0.016394818,-3.4906585,0.0,0.0,0.0
27464751,0.08765214,0.017568978,-3.4906585,0.0,0.0,0.0
27485549,0.090112664,0.021671321,-3.4906585,0.0,0.0,0.0
27504767,0.10379381,0.031782262,-3.4906585,0.0,0.0,0.0
27528758,0.11747828,0.042510685,-3.4906585,0.0,0.0,0.0
27552772,0.10824637,0.044549335,-3.4906585,0.0,0.0,0.0
27572749,0.10759095,0.03993244,-3.4906585,0.0,0.0,0.0
27592752,0.11287418,0.044655968,-3.4906585,0.0,0.0,0.0
27616743,0.10935477,0.04362681,-3.4906585,0.0,0.0,0.0
27640749,0.08204564,0.026535325,-3.4906585,0.0,0.0,0.0
27664746,0.0770385,0.01957426,-3.4906585,0.0,0.0,0.0
27688742,0.09528563,0.026050631,-3.4906585,0.0,0.0,0.0
27712770,0.08967183,0.030837802,-3.4906585,0.0,0.0,0.0
27732775,0.08099394,0.0260553,-3.4906585,0.0,0.0,0.0
27752757,0.07579279,0.012873535,-3.4906585,0.0,0.0,0.0
27776785,0.08542067,-0.0011451617,-3.4906585,0.0,0.0,0.0
27796772,0.10054662,-0.0060432036,-3.4906585,0.0,0.0,0.0
27816738,0.10222425,-0.012993232,-3.4906585,0.0,0.0,0.0
27837547,0.09897933,-0.019147689,-3.4906585,0.0,0.0,0.0
27861542,0.10409559,-0.013118982,-3.4906585,0.0,0.0,0.0
27881731,0.105037384,0.008071139,-3.4906585,0.0,0.0,0.0
27905585,0.12510905,0.02869825,-3.4906585,0.0,0.0,0.0
27925595,0.12463611,0.046151645,-3.4906585,0.0,0.0,0.0
27949549,0.11681243,0.06556891,-3.4906585,0.0,0.0,0.0
27969544,0.11936492,0.06330869,-3.4906585,0.0,0.0,0.0
27989560,0.11467374,0.065727316,-3.4906585,0.0,0.0,0.0
28009546,0.09968339,0.06503178,-3.4906585,0.0,0.0,0.0
28033546,0.082388215,0.04699676,-3.4906585,0.0,0.0,0.0
28057547,0.07870676,0.022380946,-3.4906585,0.0,0.0,0.0
28081552,0.08218223,-0.002185359,-3.4906585,0.0,0.0,0.0
28106361,0.07843981,-0.007688136,-3.4906585,0.0,0.0,0.0
28129589,0.07652069,-0.0064028567,-3.4906585,0.0,0.0,0.0
28149702,0.08266317,0.0010995367,-3.4906585,0.0,0.0,0.0
28173596,0.10378257,0.027267676,-3.4906585,0.0,0.0,0.0
28193757,0.1055121,0.034462683,-3.4906585,0.0,0.0,0.0
28217558,0.10274738,0.042496134,-3.4906585,0.0,0.0,0.0
28237564,0.09954645,0.050876826,-3.4906585,0.0,0.0,0.0
28257551,0.111569315,0.05817516,-3.4906585,0.0,0.0,0.0
28282345,0.10787449,0.05830842,-3.4906585,0.0,0.0,0.0
28305583,0.08820478,0.0423904,-3.4906585,0.0,0.0,0.0
28329550,0.0911015,0.029068137,-3.4906585,0.0,0.0,0.0
28354355,0.08687885,0.007965021,-3.4906585,0.0,0.0,0.0
28373546,0.06973406,-0.0076691248,-3.4906585,0.0,0.0,0.0
28394368,0.055503376,-0.019001918,-3.4906585,0.0,0.0,0.0
28418366,0.057594646,-0.013962118,-3.4906585,0.0,0.0,0.0
28442352,0.08230147,0.0018734204,-3.4906585,0.0,0.0,0.0
28462355,0.09842451,0.018427474,-3.4906585,0.0,0.0,0.0
28482393,0.10555825,0.039978754,-3.4906585,0.0,0.0,0.0
28502393,0.100460224,0.045766458,-3.4906585,0.0,0.0,0.0
28522354,0.0977554,0.043155685,-3.4906585,0.0,0.0,0.0
28546371,0.107089266,0.045365296,-3.4906585,0.0,0.0,0.0
28566570,0.12323852,0.033030365,-3.4906585,0.0,0.0,0.0
28586378,0.12038049,0.028246528,-3.4906585,0.0,0.0,0.0
28610353,0.10242023,0.013097206,-3.4906585,0.0,0.0,0.0
28631155,0.0884707,-0.00072715175,-3.4906585,0.0,0.0,0.0
28651319,0.080594584,-0.008087189,-3.4906585,0.0,0.0,0.0
28675162,0.07910466,-0.010612616,-3.4906585,0.0,0.0,0.0
28695156,0.076990224,0.00093732495,-3.4906585,0.0,0.0,0.0
28719164,0.08000328,0.014063142,-3.4906585,0.0,0.0,0.0
28739161,0.082123846,0.022359274,-3.4906585,0.0,0.0,0.0
28759147,0.09934394,0.027240552,-3.4906585,0.0,0.0,0.0
28779155,0.099586286,0.039562177,-3.4906585,0.0,0.0,0.0
28803148,0.08938363,0.040342838,-3.4906585,0.0,0.0,0.0
28827167,0.09005855,0.029491294,-3.4906585,0.0,0.0,0.0
28851153,0.09700163,0.020825272,-3.4906585,0.0,0.0,0.0
28871150,0.100988396,0.012446874,-3.4906585,0.0,0.0,0.0
28891149,0.091540925,0.010248549,-3.4906585,0.0,0.0,0.0
28915956,0.08918938,0.0043647815,-3.4906585,0.0,0.0,0.0
28939352,0.09304735,0.0039734417,-3.4906585,0.0,0.0,0.0
28963186,0.0958376,0.012792132,-3.4906585,0.0,0.0,0.0
28987152,0.0952321,0.018109528,-3.4906585,0.0,0.0,0.0
29007154,0.09107633,0.021145206,-3.4906585,0.0,0.0,0.0
29027152,0.0962488,0.021259924,-3.4906585,0.0,0.0,0.0
29051154,0.098147914,0.022528319,-3.4906585,0.0,0.0,0.0
29075141,0.09209569,0.019274699,-3.4906585,0.0,0.0,0.0
29095143,0.08910258,0.015449714,-3.4906585,0.0,0.0,0.0
29115156,0.08648005,0.009094433,-3.4906585,0.0,0.0,0.0
29139159,0.086812824,0.001072012,-3.4906585,0.0,0.0,0.0
29163161,0.0827946,0.0012919072,-3.4906585,0.0,0.0,0.0
29183149,0.08543425,-0.0004906481,-3.4906585,0.0,0.0,0.0
29203959,0.092852205,0.003976683,-3.4906585,0.0,0.0,0.0
29223964,0.10334497,0.012974494,-3.4906585,0.0,0.0,0.0
29247166,0.10999027,0.02366743,-3.4906585,0.0,0.0,0.0
29267160,0.10397758,0.02786781,-3.4906585,0.0,0.0,0.0
29287150,0.10287565,0.026298692,-3.4906585,0.0,0.0,0.0
29307146,0.10070405,0.018774653,-3.4906585,0.0,0.0,0.0
29331156,0.08565694,0.012137847,-3.4906585,0.0,0.0,0.0
29356108,0.08161423,0.0043220394,-3.4906585,0.0,0.0,0.0
29376113,0.09206987,0.004626048,-3.4906585,0.0,0.0,0.0
29395963,0.10281137,0.008277456,-3.4906585,0.0,0.0,0.0
29419143,0.10056933,0.012063135,-3.4906585,0.0,0.0,0.0
29443966,0.08913584,0.010478806,-3.4906585,0.0,0.0,0.0
29467159,0.09137018,0.004627712,-3.4906585,0.0,0.0,0.0
29487154,0.092868894,0.0052446253,-3.4906585,0.0,0.0,0.0
29507938,0.086222395,0.005160227,-3.4906585,0.0,0.0,0.0
29527971,0.0821545,0.0038404164,-3.4906585,0.0,0.0,0.0
29547956,0.09067832,0.007908112,-3.4906585,0.0,0.0,0.0
29571939,0.10286572,0.018089801,-3.4906585,0.0,0.0,0.0
29591941,0.10141355,0.02326782,-3.4906585,0.0,0.0,0.0
29611954,0.095778264,0.022575842,-3.4906585,0.0,0.0,0.0
29635957,0.09243579,0.01834444,-3.4906585,0.0,0.0,0.0
29659983,0.09377453,0.012434921,-3.4906585,0.0,0.0,0.0
29679966,0.09628998,0.007169784,-3.4906585,0.0,0.0,0.0
29700749,0.09462585,0.008732972,-3.4906585,0.0,0.0,0.0
29723966,0.09250091,0.0046916646,-3.4906585,0.0,0.0,0.0
29747943,0.08876602,0.0015227367,-3.4906585,0.0,0.0,0.0
29768749,0.08648603,0.006544215,-3.4906585,0.0,0.0,0.0
29787961,0.09025344,0.0116677,-3.4906585,0.0,0.0,0.0
29807967,0.101737715,0.018791314,-3.4906585,0.0,0.0,0.0
29827945,0.10843162,0.025471844,-3.4906585,0.0,0.0,0.0
29851949,0.10251211,0.024322595,-3.4906585,0.0,0.0,0.0
29871955,0.09889261,0.0239674,-3.4906585,0.0,0.0,0.0
29891946,0.0981321,0.020336224,-3.4906585,0.0,0.0,0.0
29915961,0.087740004,0.00909702,-3.4906585,0.0,0.0,0.0
29939947,0.07642593,0.0053267768,-3.4906585,0.0,0.0,0.0
29963988,0.08879633,0.0019116281,-3.4906585,0.0,0.0,0.0
29983958,0.09097994,0.0033862682,-3.4906585,0.0,0.0,0.0
30003949,0.08687039,0.009630556,-3.4906585,0.0,0.0,0.0
30027994,0.08293839,0.012826574,-3.4906585,0.0,0.0,0.0
30051960,0.088397525,0.016623193,-3.4906585,0.0,0.0,0.0
30071959,0.094476245,0.02046027,-3.4906585,0.0,0.0,0.0
30092748,0.089644834,0.021527305,-3.4906585,0.0,0.0,0.0
30112745,0.08609285,0.021461055,-3.4906585,0.0,0.0,0.0
30132758,0.08913024,0.019712033,-3.4906585,0.0,0.0,0.0
30156739,0.09329732,0.016517453,-3.4906585,0.0,0.0,0.0
30176745,0.08888345,0.0137152225,-3.4906585,0.0,0.0,0.0
30196751,0.08367812,0.0108182775,-3.4906585,0.0,0.0,0.0
30220750,0.08525812,0.0049749324,-3.4906585,0.0,0.0,0.0
30244770,0.08894562,0.0024427995,-3.4906585,0.0,0.0,0.0
30268744,0.093061164,0.004931997,-3.4906585,0.0,0.0,0.0
30292744,0.0869539,0.0090339165,-3.4906585,0.0,0.0,0.0
30312744,0.086803906,0.009681551,-3.4906585,0.0,0.0,0.0
30333587,0.091493614,0.0090090465,-3.4906585,0.0,0.0,0.0
30356789,0.096821696,0.013085489,-3.4906585,0.0,0.0,0.0
30380887,0.095559865,0.01728152,-3.4906585,0.0,0.0,0.0
30400770,0.0934276,0.01605377,-3.4906585,0.0,0.0,0.0
30420744,0.09091268,0.011540766,-3.4906585,0.0,0.0,0.0
30444748,0.082122475,0.003729991,-3.4906585,0.0,0.0,0.0
30468768,0.076161265,-0.0023584128,-3.4906585,0.0,0.0,0.0
30492738,0.07837495,-0.0017929506,-3.4906585,0.0,0.0,0.0
30516738,0.0834974,0.0012397163,-3.4906585,0.0,0.0,0.0
30540764,0.08389922,0.0035433068,-3.4906585,0.0,0.0,0.0
30560762,0.08871393,0.0063804304,-3.4906585,0.0,0.0,0.0
30584755,0.097216286,0.012925441,-3.4906585,0.0,0.0,0.0
30605577,0.10278955,0.016762154,-3.4906585,0.0,0.0,0.0
30629558,0.10405408,0.016729554,-3.4906585,0.0,0.0,0.0
30649580,0.104944706,0.013688093,-3.4906585,0.0,0.0,0.0
30669583,0.10322741,0.012097441,-3.4906585,0.0,0.0,0.0
30693573,0.102159955,0.0058041923,-3.4906585,0.0,0.0,0.0
30717571,0.097727284,0.0023984357,-3.4906585,0.0,0.0,0.0
30741743,0.09254769,0.0016727934,-3.4906585,0.0,0.0,0.0
30765590,0.09700394,0.0037155391,-3.4906585,0.0,0.0,0.0
30789558,0.09687714,0.006387835,-3.4906585,0.0,0.0,0.0
30809545,0.09518627,0.007964304,-3.4906585,0.0,0.0,0.0
30833544,0.08977769,0.007375063,-3.4906585,0.0,0.0,0.0
30853550,0.082412735,0.0055187796,-3.4906585,0.0,0.0,0.0
30877544,0.0887246,0.0013416252,-3.4906585,0.0,0.0,0.0
30897577,0.10100886,0.0042105783,-3.4906585,0.0,0.0,0.0
30917547,0.10539984,0.008904361,-3.4906585,0.0,0.0,0.0
30941578,0.098089784,0.0073060626,-3.4906585,0.0,0.0,0.0
30961546,0.097527616,0.0013571443,-3.4906585,0.0,0.0,0.0
30981547,0.10056028,-0.0021967643,-3.4906585,0.0,0.0,0.0
31001710,0.098932266,-0.002017491,-3.4906585,0.0,0.0,0.0
31025587,0.09522271,0.001169442,-3.4906585,0.0,0.0,0.0
31045589,0.09961819,0.0028779593,-3.4906585,0.0,0.0,0.0
31066369,0.104684204,0.006238279,-3.4906585,0.0,0.0,0.0
31086393,0.10200667,0.0061576595,-3.4906585,0.0,0.0,0.0
31109563,0.09772563,0.002493431,-3.4906585,0.0,0.0,0.0
31130372,0.09087652,-0.0037725617,-3.4906585,0.0,0.0,0.0
31150361,0.079533786,-0.0134703955,-3.4906585,0.0,0.0,0.0
31170407,0.072994865,-0.020371435,-3.4906585,0.0,0.0,0.0
31190362,0.07833799,-0.01849665,-3.4906585,0.0,0.0,0.0
31214359,0.087252945,-0.007822787,-3.4906585,0.0,0.0,0.0
31238346,0.091851585,0.002954204,-3.4906585,0.0,0.0,0.0
31262351,0.10403531,0.01587535,-3.4906585,0.0,0.0,0.0
31282376,0.111646384,0.018719558,-3.4906585,0.0,0.0,0.0
31302354,0.11517788,0.023911517,-3.4906585,0.0,0.0,0.0
31326344,0.112842396,0.022878733,-3.4906585,0.0,0.0,0.0
31350345,0.11169362,0.016154187,-3.4906585,0.0,0.0,0.0
31370367,0.10652784,0.012964752,-3.4906585,0.0,0.0,0.0
31391143,0.10419778,0.007850365,-3.4906585,0.0,0.0,0.0
31414369,0.096848816,0.0011341769,-3.4906585,0.0,0.0,0.0
31438399,0.0847815,-0.003448671,-3.4906585,0.0,0.0,0.0
31462358,0.0799356,-0.0031707357,-3.4906585,0.0,0.0,0.0
31486361,0.085512094,-0.0021510036,-3.4906585,0.0,0.0,0.0
31510348,0.087689124,0.0045245197,-3.4906585,0.0,0.0,0.0
31530359,0.08942267,0.012178736,-3.4906585,0.0,0.0,0.0
31554354,0.09430632,0.013749,-3.4906585,0.0,0.0,0.0
31575150,0.09711023,0.014586188,-3.4906585,0.0,0.0,0.0
31598353,0.10043252,0.01089291,-3.4906585,0.0,0.0,0.0
31619941,0.096170396,0.008871015,-3.4906585,0.0,0.0,0.0
31639168,0.09074439,0.003813611,-3.4906585,0.0,0.0,0.0
31659156,0.09617247,-0.0034775115,-3.4906585,0.0,0.0,0.0
31679195,0.10029932,-0.0008705423,-3.4906585,0.0,0.0,0.0
31703954,0.096576706,0.006446165,-3.4906585,0.0,0.0,0.0
31723948,0.09255073,0.006782315,-3.4906585,0.0,0.0,0.0
31743158,0.094809674,0.012658028,-3.4906585,0.0,0.0,0.0
31767157,0.091049746,0.011640965,-3.4906585,0.0,0.0,0.0
31787146,0.083399236,0.0110307,-3.4906585,0.0,0.0,0.0
31807150,0.07875154,0.009286379,-3.4906585,0.0,0.0,0.0
31827148,0.07786241,0.004352292,-3.4906585,0.0,0.0,0.0
31851181,0.08054108,0.0016851149,-3.4906585,0.0,0.0,0.0
31871164,0.085334316,0.005175966,-3.4906585,0.0,0.0,0.0
31891147,0.079976715,0.0008456659,-3.4906585,0.0,0.0,0.0
31911144,0.077988006,-0.005736738,-3.4906585,0.0,0.0,0.0
31935154,0.09269994,0.0022797866,-3.4906585,0.0,0.0,0.0
31959148,0.09929524,0.007751791,-3.4906585,0.0,0.0,0.0
31983143,0.09487838,0.012132527,-3.4906585,0.0,0.0,0.0
32003156,0.099290915,0.010953612,-3.4906585,0.0,0.0,0.0
32023156,0.09794372,0.010062468,-3.4906585,0.0,0.0,0.0
32047168,0.09297839,0.015859153,-3.4906585,0.0,0.0,0.0
32067147,0.09391245,0.015172164,-3.4906585,0.0,0.0,0.0
32087153,0.0886734,0.009694652,-3.4906585,0.0,0.0,0.0
32107171,0.08481152,0.005005896,-3.4906585,0.0,0.0,0.0
32131179,0.08363057,0.0012329125,-3.4906585,0.0,0.0,0.0
32151949,0.08427733,0.0014394637,-3.4906585,0.0,0.0,0.0
32175947,0.08121942,-0.0010619194,-3.4906585,0.0,0.0,0.0
32195940,0.08399091,-0.0017206399,-3.4906585,0.0,0.0,0.0
32215947,0.091837615,0.0011777694,-3.4906585,0.0,0.0,0.0
32239944,0.10103976,0.009824394,-3.4906585,0.0,0.0,0.0
32264755,0.099040724,0.01853441,-3.4906585,0.0,0.0,0.0
32284742,0.09309501,0.01409671,-3.4906585,0.0,0.0,0.0
32303949,0.08961665,0.008554647,-3.4906585,0.0,0.0,0.0
32327944,0.08968596,0.004507731,-3.4906585,0.0,0.0,0.0
32351948,0.08543888,0.005373086,-3.4906585,0.0,0.0,0.0
32375939,0.08201794,0.002633843,-3.4906585,0.0,0.0,0.0
32399962,0.08537713,0.0017685256,-3.4906585,0.0,0.0,0.0
32419972,0.09020074,0.0050433585,-3.4906585,0.0,0.0,0.0
32439958,0.08751389,0.011585238,-3.4906585,0.0,0.0,0.0
32464005,0.083982676,0.012844241,-3.4906585,0.0,0.0,0.0
32487948,0.09712545,0.010754207,-3.4906585,0.0,0.0,0.0
32507947,0.10196568,0.015171568,-3.4906585,0.0,0.0,0.0
32527967,0.10560018,0.01846474,-3.4906585,0.0,0.0,0.0
32551963,0.10061904,0.015045933,-3.4906585,0.0,0.0,0.0
32576746,0.09844661,0.007702983,-3.4906585,0.0,0.0,0.0
32599945,0.08938887,-0.0011845236,-3.4906585,0.0,0.0,0.0
32623988,0.081160046,-0.0026005087,-3.4906585,0.0,0.0,0.0
32647961,0.074823216,-0.0030433363,-3.4906585,0.0,0.0,0.0
32667953,0.06910782,-0.0030122853,-3.4906585,0.0,0.0,0.0
32688756,0.06753412,0.0016955629,-3.4906585,0.0,0.0,0.0
32712760,0.06492229,0.010320285,-3.4906585,0.0,0.0,0.0
32736758,0.060451187,0.013933621,-3.4906585,0.0,0.0,0.0
32756879,0.060644653,0.012157374,-3.4906585,0.0,0.0,0.0
32776760,0.059339758,0.014039405,-3.4906585,0.0,0.0,0.0
32796765,0.06518757,0.016093658,-3.4906585,0.0,0.0,0.0
32820761,0.07059918,0.011217476,-3.4906585,0.0,0.0,0.0
32840747,0.08041839,0.0044378117,-3.4906585,0.0,0.0,0.0
32860750,0.09351624,0.0014693198,-3.4906585,0.0,0.0,0.0
32880748,0.09850106,0.001751996,-3.4906585,0.0,0.0,0.0
32905572,0.10030732,0.007619765,-3.4906585,0.0,0.0,0.0
32929562,0.09948243,0.0010683859,-3.4906585,0.0,0.0,0.0
32949548,0.102867134,0.0001372903,-3.4906585,0.0,0.0,0.0
32969557,0.10787214,0.009171631,-3.4906585,0.0,0.0,0.0
32992756,0.10967703,0.018514935,-3.4906585,0.0,0.0,0.0
33016755,0.103540346,0.02307617,-3.4906585,0.0,0.0,0.0
33040744,0.08844818,0.016623795,-3.4906585,0.0,0.0,0.0
33060791,0.077351086,0.0060759378,-3.4906585,0.0,0.0,0.0
33080746,0.0664694,-1.2161258e-06,-3.4906585,0.0,0.0,0.0
33104753,0.05760748,-0.008146949,-3.4906585,0.0,0.0,0.0
33128750,0.056606602,-0.014460829,-3.4906585,0.0,0.0,0.0
33152779,0.06033862,-0.015351112,-3.4906585,0.0,0.0,0.0
33176752,0.07234949,-0.013812802,-3.4906585,0.0,0.0,0.0
33196753,0.085723124,-0.0061913463,-3.4906585,0.0,0.0,0.0
33216896,0.098734304,0.005929252,-3.4906585,0.0,0.0,0.0
33240759,0.108707115,0.014919699,-3.4906585,0.0,0.0,0.0
33260763,0.11575678,0.020089014,-3.4906585,0.0,0.0,0.0
33280788,0.11913057,0.023714459,-3.4906585,0.0,0.0,0.0
33302360,0.11192374,0.019766549,-3.4906585,0.0,0.0,0.0
33325541,0.101704024,0.014259443,-3.4906585,0.0,0.0,0.0
33345587,0.08992361,0.009821218,-3.4906585,0.0,0.0,0.0
33365593,0.0797671,-0.0013472565,-3.4906585,0.0,0.0,0.0
33385585,0.06991593,-0.009851446,-3.4906585,0.0,0.0,0.0
33409542,0.06251532,-0.01850342,-3.4906585,0.0,0.0,0.0
33433544,0.0632694,-0.019005997,-3.4906585,0.0,0.0,0.0
33457547,0.06782439,-0.013525851,-3.4906585,0.0,0.0,0.0
33481547,0.07920082,-0.0057992516,-3.4906585,0.0,0.0,0.0
33501557,0.085885055,-0.0018039854,-3.4906585,0.0,0.0,0.0
33521546,0.095277324,0.00046073136,-3.4906585,0.0,0.0,0.0
33545581,0.10998165,0.009942441,-3.4906585,0.0,0.0,0.0
33569553,0.11864304,0.01747999,-3.4906585,0.0,0.0,0.0
33593558,0.11049617,0.011208599,-3.4906585,0.0,0.0,0.0
33613554,0.10266084,0.0044815773,-3.4906585,0.0,0.0,0.0
33634354,0.100853294,0.0011530642,-3.4906585,0.0,0.0,0.0
33658349,0.10513407,0.0013532311,-3.4906585,0.0,0.0,0.0
33681582,0.10420222,0.008116928,-3.4906585,0.0,0.0,0.0
33705718,0.09068914,0.0112430975,-3.4906585,0.0,0.0,0.0
33729558,0.077563904,0.0026394476,-3.4906585,0.0,0.0,0.0
33749556,0.07312199,-0.0033344175,-3.4906585,0.0,0.0,0.0
33773540,0.072609894,-0.0015924216,-3.4906585,0.0,0.0,0.0
33793550,0.07555391,-0.0028198569,-3.4906585,0.0,0.0,0.0
33817538,0.07390806,-0.005880489,-3.4906585,0.0,0.0,0.0
33838361,0.07684221,-0.007936454,-3.4906585,0.0,0.0,0.0
33857555,0.07773585,-0.009044394,-3.4906585,0.0,0.0,0.0
33878371,0.07476159,-0.00677313,-3.4906585,0.0,0.0,0.0
33902355,0.08225257,-0.0026729775,-3.4906585,0.0,0.0,0.0
33922359,0.093460225,0.0056172367,-3.4906585,0.0,0.0,0.0
33942392,0.09985099,0.012174493,-3.4906585,0.0,0.0,0.0
33962399,0.09786866,0.0149416905,-3.4906585,0.0,0.0,0.0
33986381,0.09350413,0.014598972,-3.4906585,0.0,0.0,0.0
34010353,0.09376509,0.011758898,-3.4906585,0.0,0.0,0.0
34034369,0.09100768,0.0053735306,-3.4906585,0.0,0.0,0.0
34054360,0.085443795,0.0019625397,-3.4906585,0.0,0.0,0.0
34074358,0.079994395,-0.00028762745,-3.4906585,0.0,0.0,0.0
34098350,0.07753737,-0.0032504844,-3.4906585,0.0,0.0,0.0
34122351,0.075667955,-0.0049442775,-3.4906585,0.0,0.0,0.0
34146351,0.07171141,-0.0047645434,-3.4906585,0.0,0.0,0.0
34166353,0.07033187,-0.0025194173,-3.4906585,0.0,0.0,0.0
34186351,0.07361732,0.0010273466,-3.4906585,0.0,0.0,0.0
34210345,0.08195151,0.0060232407,-3.4906585,0.0,0.0,0.0
34230361,0.083576165,0.0092844535,-3.4906585,0.0,0.0,0.0
34250349,0.077472694,0.0074868174,-3.4906585,0.0,0.0,0.0
34270363,0.074526004,0.005270046,-3.4906585,0.0,0.0,0.0
34294372,0.08052768,0.0047751307,-3.4906585,0.0,0.0,0.0
34315177,0.08410034,0.0042477553,-3.4906585,0.0,0.0,0.0
34335155,0.08630164,0.007122559,-3.4906585,0.0,0.0,0.0
34355140,0.08854735,0.009232837,-3.4906585,0.0,0.0,0.0
34378536,0.09358837,0.008664845,-3.4906585,0.0,0.0,0.0
34402397,0.090738,0.0060922615,-3.4906585,0.0,0.0,0.0
34427154,0.08146691,-0.00016858475,-3.4906585,0.0,0.0,0.0
34451158,0.07804799,-0.007058851,-3.4906585,0.0,0.0,0.0
34475178,0.077804945,-0.009465845,-3.4906585,0.0,0.0,0.0
34495156,0.07636602,-0.01131877,-3.4906585,0.0,0.0,0.0
34515151,0.075702146,-0.010232247,-3.4906585,0.0,0.0,0.0
34539159,0.080895886,-0.0017868032,-3.4906585,0.0,0.0,0.0
34563143,0.084482625,0.0068627,-3.4906585,0.0,0.0,0.0
34583976,0.08475964,0.011166826,-3.4906585,0.0,0.0,0.0
34603160,0.0835288,0.0105228685,-3.4906585,0.0,0.0,0.0
34627159,0.08073139,0.008525523,-3.4906585,0.0,0.0,0.0
34651181,0.07951395,0.0061032414,-3.4906585,0.0,0.0,0.0
34675163,0.07661071,0.0025983525,-3.4906585,0.0,0.0,0.0
34695155,0.07516623,-0.00049428217,-3.4906585,0.0,0.0,0.0
34715190,0.07357654,-0.0022222342,-3.4906585,0.0,0.0,0.0
34739152,0.07285139,-0.0005071045,-3.4906585,0.0,0.0,0.0
34763156,0.07716169,0.0036438995,-3.4906585,0.0,0.0,0.0
34787192,0.08059514,0.0078803655,-3.4906585,0.0,0.0,0.0
34807159,0.08053067,0.008497415,-3.4906585,0.0,0.0,0.0
34827141,0.078621544,0.007642177,-3.4906585,0.0,0.0,0.0
34847153,0.07808462,0.007703133,-3.4906585,0.0,0.0,0.0
34871969,0.079532884,0.007603315,-3.4906585,0.0,0.0,0.0
34892104,0.07839303,0.0054380484,-3.4906585,0.0,0.0,0.0
34915939,0.07596265,0.0023844158,-3.4906585,0.0,0.0,0.0
34935962,0.07571654,0.002149379,-3.4906585,0.0,0.0,0.0
34959954,0.07810563,0.003318105,-3.4906585,0.0,0.0,0.0
34979939,0.07901767,0.004242038,-3.4906585,0.0,0.0,0.0
35003976,0.0786955,0.004420098,-3.4906585,0.0,0.0,0.0
35023960,0.07871573,0.0055134036,-3.4906585,0.0,0.0,0.0
35044770,0.08002668,0.007529994,-3.4906585,0.0,0.0,0.0
35068136,0.07983199,0.007757949,-3.4906585,0.0,0.0,0.0
35091958,0.07751634,0.005416977,-3.4906585,0.0,0.0,0.0
35115997,0.07557214,0.0022895061,-3.4906585,0.0,0.0,0.0
35135952,0.0759205,0.0017011908,-3.4906585,0.0,0.0,0.0
35155959,0.07788539,0.0024705406,-3.4906585,0.0,0.0,0.0
35179947,0.07897327,0.0025720915,-3.4906585,0.0,0.0,0.0
35203965,0.07948672,0.0022581667,-3.4906585,0.0,0.0,0.0
35224020,0.08085788,0.0032442852,-3.4906585,0.0,0.0,0.0
35243957,0.08275799,0.0050765816,-3.4906585,0.0,0.0,0.0
35267963,0.08399992,0.006206987,-3.4906585,0.0,0.0,0.0
35291939,0.082980685,0.006202154,-3.4906585,0.0,0.0,0.0
35311952,0.08263661,0.0068447767,-3.4906585,0.0,0.0,0.0
35331970,0.08414242,0.009439082,-3.4906585,0.0,0.0,0.0
35351955,0.08490159,0.011408726,-3.4906585,0.0,0.0,0.0
35371946,0.08401028,0.011390244,-3.4906585,0.0,0.0,0.0
35396762,0.08116638,0.00848361,-3.4906585,0.0,0.0,0.0
35416755,0.07925751,0.0063184975,-3.4906585,0.0,0.0,0.0
35435971,0.07855962,0.0049928743,-3.4906585,0.0,0.0,0.0
35460738,0.07859359,0.0027005782,-3.4906585,0.0,0.0,0.0
35484011,0.07783635,-0.0010718345,-3.4906585,0.0,0.0,0.0
35507960,0.07677608,-0.0036352337,-3.4906585,0.0,0.0,0.0
35531956,0.078988254,-0.0030445226,-3.4906585,0.0,0.0,0.0
35552747,0.08240143,-0.0017953218,-3.4906585,0.0,0.0,0.0
35572739,0.08427166,-0.0011263391,-3.4906585,0.0,0.0,0.0
35593546,0.084850736,-0.0009013149,-3.4906585,0.0,0.0,0.0
35617551,0.0860694,0.00058230216,-3.4906585,0.0,0.0,0.0
35637548,0.08751597,0.002306606,-3.4906585,0.0,0.0,0.0
35657727,0.08802849,0.0032002858,-3.4906585,0.0,0.0,0.0
35677549,0.086530894,0.0022494376,-3.4906585,0.0,0.0,0.0
35701556,0.08355681,0.0010433173,-3.4906585,0.0,0.0,0.0
35725592,0.08421244,0.0020054036,-3.4906585,0.0,0.0,0.0
35745573,0.0852364,0.003525777,-3.4906585,0.0,0.0,0.0
35765582,0.084051855,0.0036903608,-3.4906585,0.0,0.0,0.0
