timestamp,states[0],states[1],states[2],states[3],states[4],states[5],states[6],states[7],states[8],states[9],states[10],states[11],states[12],states[13],states[14],states[15],states[16],states[17],states[18],states[19],states[20],states[21],states[22],states[23],vibe[0],vibe[1],vibe[2],covariances[0],covariances[1],covariances[2],covariances[3],covariances[4],covariances[5],covariances[6],covariances[7],covariances[8],covariances[9],covariances[10],covariances[11],covariances[12],covariances[13],covariances[14],covariances[15],covariances[16],covariances[17],covariances[18],covariances[19],covariances[20],covariances[21],covariances[22],covariances[23],control_mode_flags,pos_horiz_accuracy,pos_vert_accuracy,mag_test_ratio,vel_test_ratio,pos_test_ratio,hgt_test_ratio,tas_test_ratio,hagl_test_ratio,beta_test_ratio,time_slip,gps_check_fail_flags,filter_fault_flags,innovation_check_flags,solution_status_flags,n_states,pre_flt_fail_innov_heading,pre_flt_fail_innov_vel_horiz,pre_flt_fail_innov_vel_vert,pre_flt_fail_innov_height,health_flags,timeout_flags
6721378,0.0680973,0.0058529517,-0.016437588,0.99752617,-0.064733066,-0.0093699815,0.08122935,-0.006379669,0.0015884738,0.3622907,-1.1092566e-06,-1.8971983e-05,-5.0725653e-06,1.1020818e-05,1.0247047e-06,-6.303071e-05,0.3922903,-0.015722122,0.4203793,0.0,0.0,0.0,0.0,0.0,6.290059e-08,0.00023165047,0.0023895605,0.00090887956,0.0032966235,0.00329636,5.5164473e-06,0.3361659,0.33624247,0.30846286,0.028722247,0.02872255,0.19065036,5.0628637e-07,5.0610964e-07,3.0287237e-07,2.508873e-06,2.5088743e-06,2.5152308e-06,0.0,0.0,0.0,0.0,0.0,0.0,0.0,0.0,530,0.0,0.0,0.002499253,0.0,0.00013546098,0.019636383,0.0,0.0,0.0,0.100137,0,0,0,228,24,0,0,0,0,0,0
6929357,0.073082924,0.0033042398,-0.017277192,0.9971708,-0.0049667293,0.013072796,0.115511976,-0.0036551165,-0.0004658965,0.41167757,2.7365718e-06,-2.8288143e-05,4.2020038e-06,1.4439786e-05,2.9576775e-06,-7.951757e-05,0.3922903,-0.015722122,0.4203793,0.0,0.0,0.0,0.0,0.0,5.4420983e-08,0.0002036499,0.0021872004,0.000870069,0.0029567592,0.0029563608,5.735009e-06,0.3486701,0.34864634,0.25693202,0.03212751,0.032127287,0.19170232,4.1344472e-07,4.1327922e-07,2.3420901e-07,2.4944563e-06,2.4944472e-06,2.4876347e-06,0.0,0.0,0.0,0.0,0.0,0.0,0.0,0.0,530,0.0,0.0,0.017292023,0.0,7.480021e-05,0.014763942,0.0,0.0,0.0,0.100137,0,0,0,228,24,0,0,0,0,0,0
7130170,0.07344868,0.0027772926,-0.01461206,0.9971881,-0.045837734,-0.02617849,0.13157913,-0.004693914,-0.0071039014,0.47998342,8.818808e-06,-3.2031083e-05,-2.6770415e-06,1.50794995e-05,5.399591e-06,-0.00011106048,0.3922903,-0.015722122,0.4203793,0.0,0.0,0.0,0.0,0.0,4.2643077e-08,0.00017276987,0.001936687,0.0008428344,0.0024544513,0.0024542236,5.2503583e-06,0.3208616,0.32090336,0.21614021,0.033084664,0.033085126,0.18773873,3.26722e-07,3.2657735e-07,1.851405e-07,2.4882515e-06,2.4882195e-06,2.4524788e-06,0.0,0.0,0.0,0.0,0.0,0.0,0.0,0.0,530,0.0,0.0,0.006845206,0.0,0.00013939435,0.033754125,0.0,0.0,0.0,0.100137,0,0,0,228,24,0,0,0,0,0,0
7330152,0.075842746,0.00090340554,-0.018019747,0.99695665,-0.043478847,-0.01629197,0.13620429,-0.0024604565,0.0007730647,0.52985823,1.3326601e-05,-3.709924e-05,-1.2953817e-05,1.5610252e-05,6.725589e-06,-0.00012761113,0.3922903,-0.015722122,0.4203793,0.0,0.0,0.0,0.0,0.0,4.0764043e-08,0.00018953627,0.0017776083,0.0008087385,0.002004101,0.0020037652,5.5180817e-06,0.27574393,0.2757756,0.18501316,0.032031998,0.03203193,0.18147759,2.5635057e-07,2.5622762e-07,1.4690596e-07,2.487111e-06,2.4870428e-06,2.4084109e-06,0.0,0.0,0.0,0.0,0.0,0.0,0.0,0.0,530,0.0,0.0,0.022414478,0.0,4.60405e-05,0.0025740226,0.0,0.0,0.0,0.100137,0,0,0,228,24,0,0,0,0,0,0
7530962,0.07751975,0.0009134657,-0.01599972,0.996862,0.087637864,0.039971467,0.12650454,-0.0031499427,-0.002795681,0.5552832,1.7515173e-05,-4.4053286e-05,-1.807396e-05,1.5267804e-05,6.4733576e-06,-0.00012694218,0.3922903,-0.015722122,0.4203793,0.0,0.0,0.0,0.0,0.0,4.3880785e-08,0.00018972029,0.001846559,0.0007714579,0.0016934011,0.001693176,5.312285e-06,0.23951878,0.23948362,0.1627027,0.030931057,0.030931404,0.17491546,2.0424416e-07,2.0414168e-07,1.1742148e-07,2.4869073e-06,2.486789e-06,2.3560099e-06,0.0,0.0,0.0,0.0,0.0,0.0,0.0,0.0,530,0.0,0.0,0.015573881,0.0,9.490805e-05,0.008720546,0.0,0.0,0.0,0.100137,0,0,0,228,24,0,0,0,0,0,0
7738946,0.082213655,0.00022315524,-0.018540738,0.9964422,0.0839274,-0.028240386,0.07442897,0.009017467,0.0017373858,0.52692986,1.4435752e-05,-3.762973e-05,-2.301309e-05,1.749163e-05,5.588964e-06,-7.303787e-05,0.3922903,-0.015722122,0.4203793,0.0,0.0,0.0,0.0,0.0,5.7953944e-08,0.00022592598,0.0019550037,0.00071650714,0.0014117117,0.001411491,5.6286112e-06,0.19900683,0.19898707,0.14398026,0.02752549,0.027524631,0.16384013,1.590033e-07,1.5891162e-07,9.248118e-08,2.4845224e-06,2.484342e-06,2.2858435e-06,0.0,0.0,0.0,0.0,0.0,0.0,0.0,0.0,530,0.0,0.0,0.0054382617,0.0,0.00019119108,0.0056335195,0.0,0.0,0.0,0.100137,0,0,0,228,24,0,0,0,0,0,0
7938966,0.08823063,0.0007183377,-0.018782692,0.9959227,0.075427264,0.047399186,0.05323782,0.014569475,0.0027644525,0.5317561,1.182652e-05,-2.387044e-05,-2.8331624e-05,2.323733e-05,6.209634e-06,-6.2673884e-05,0.3922903,-0.015722122,0.4203793,0.0,0.0,0.0,0.0,0.0,5.5992906e-08,0.00022271507,0.0019044604,0.0006806522,0.0012451952,0.0012450409,6.1192927e-06,0.18009382,0.18007544,0.13398373,0.026724683,0.026723789,0.158635,1.271502e-07,1.2706931e-07,7.540396e-08,2.4792391e-06,2.4789997e-06,2.2129943e-06,0.0,0.0,0.0,0.0,0.0,0.0,0.0,0.0,530,0.0,0.0,0.012732413,0.0,0.00030831678,0.006438829,0.0,0.0,0.0,0.100137,0,0,0,228,24,0,0,0,0,0,0
8139746,0.09267506,0.0015096634,-0.017401744,0.9955432,0.029590866,0.014877524,0.049690846,0.012313289,0.0015507287,0.5612293,7.695695e-06,-1.0702676e-05,-3.661138e-05,3.0264096e-05,9.107851e-06,-9.049662e-05,0.3922903,-0.015722122,0.4203793,0.0,0.0,0.0,0.0,0.0,4.7137384e-08,0.0001954451,0.0018622029,0.0006465341,0.0011033595,0.0011032871,6.3855136e-06,0.16540377,0.16539948,0.12738137,0.026051192,0.026050566,0.15422718,1.009861e-07,1.0091821e-07,6.208572e-08,2.470902e-06,2.4705992e-06,2.1295932e-06,0.0,0.0,0.0,0.0,0.0,0.0,0.0,0.0,530,0.0,0.0,0.00785667,0.0,0.00025469114,0.006539777,0.0,0.0,0.0,0.100137,0,0,0,228,24,0,0,0,0,0,0
8339794,0.095884055,0.0022014796,-0.016903197,0.9952466,-0.024104921,0.014476197,0.049031183,0.009582983,0.0037888037,0.57356817,3.975951e-06,-1.6317371e-06,-3.7608424e-05,3.6707796e-05,1.167012e-05,-9.483237e-05,0.3922903,-0.015722122,0.4203793,0.0,0.0,0.0,0.0,0.0,5.407718e-08,0.0001969302,0.0017335281,0.00059819757,0.0009755354,0.00097549846,6.256908e-06,0.15285994,0.15287423,0.12316047,0.025611598,0.025611237,0.15091273,7.943029e-08,7.9376875e-08,5.058727e-08,2.4600276e-06,2.4596504e-06,2.035867e-06,0.0,0.0,0.0,0.0,0.0,0.0,0.0,0.0,530,0.0,0.0,0.019395908,0.0,0.00020465934,0.0019642608,0.0,0.0,0.0,0.100137,0,0,0,228,24,0,0,0,0,0,0
8547777,0.09913808,0.0022088152,-0.01697993,0.9949264,0.02913846,0.015445696,0.012790619,0.004975107,0.005203047,0.55270696,9.317687e-08,1.5154202e-06,-4.070398e-05,3.9721494e-05,1.3645444e-05,-5.9151334e-05,0.3922903,-0.015722122,0.4203793,0.0,0.0,0.0,0.0,0.0,5.268105e-08,0.00019597315,0.0016349341,0.00057418627,0.0008623879,0.0008623359,6.3951943e-06,0.1444082,0.14440806,0.121228084,0.025923442,0.025923397,0.14997664,6.171339e-08,6.167555e-08,4.2465103e-08,2.4474284e-06,2.4469643e-06,1.9320717e-06,0.0,0.0,0.0,0.0,0.0,0.0,0.0,0.0,530,0.0,0.0,0.0099730715,0.0,0.00010377364,0.008759779,0.0,0.0,0.0,0.100137,0,0,0,228,24,0,0,0,0,0,0
8748543,0.100642025,0.0019341537,-0.015930858,0.9947933,0.011066472,0.0033650731,-0.022010107,0.002602436,0.0038807536,0.53946006,-3.5842068e-06,3.5683138e-06,-4.0864532e-05,4.2024618e-05,1.6435797e-05,-3.8601876e-05,0.3922903,-0.015722122,0.4203793,0.0,0.0,0.0,0.0,0.0,6.5476726e-08,0.00022175907,0.0019705286,0.0005344772,0.00074507645,0.0007450253,6.0593507e-06,0.13207808,0.13208133,0.11899359,0.025148612,0.025148803,0.14792591,4.7168953e-08,4.714413e-08,3.530321e-08,2.43387e-06,2.433311e-06,1.817609e-06,0.0,0.0,0.0,0.0,0.0,0.0,0.0,0.0,530,0.0,0.0,0.019904882,0.0,8.139926e-05,0.041887708,0.0,0.0,0.0,0.100137,0,0,0,228,24,0,0,0,0,0,0
8948546,0.10350615,0.002445193,-0.016613351,0.99448705,-0.0013351847,0.009143613,-0.057041917,0.0004097701,0.006928751,0.5073741,-6.994085e-06,4.191378e-06,-3.9317663e-05,4.3277498e-05,1.8857832e-05,1.7777209e-06,0.3922903,-0.015722122,0.4203793,0.0,0.0,0.0,0.0,0.0,5.0958192e-08,0.00017959371,0.0016418952,0.00051102426,0.0006448257,0.0006447558,6.0589177e-06,0.120940864,0.12094512,0.11712876,0.024521058,0.02452131,0.14642906,3.6005428e-08,3.5990578e-08,3.014731e-08,2.4209717e-06,2.4203134e-06,1.6968868e-06,0.0,0.0,0.0,0.0,0.0,0.0,0.0,0.0,530,0.0,0.0,0.025067188,0.0,0.00014152334,0.0040979204,0.0,0.0,0.0,0.100137,0,0,0,228,24,0,0,0,0,0,0
9156543,0.104975834,0.0016335329,-0.015617095,0.99435085,-0.067750804,0.022241103,-0.07124797,-0.005419433,0.005522647,0.49162883,-1.0198355e-05,2.533657e-06,-3.7593953e-05,4.1581578e-05,2.271306e-05,4.2603265e-06,0.3922903,-0.015722122,0.4203793,0.0,0.0,0.0,0.0,0.0,3.2919253e-08,0.00012534947,0.001224787,0.0004924913,0.00053913164,0.00053905335,5.9032272e-06,0.104668446,0.10468951,0.11330183,0.022395873,0.022396391,0.14184749,2.6421985e-08,2.6415796e-08,2.59327e-08,2.4075314e-06,2.406757e-06,1.5555904e-06,0.0,0.0,0.0,0.0,0.0,0.0,0.0,0.0,530,0.0,0.0,0.0009963962,0.0,0.00011583479,0.022535637,0.0,0.0,0.0,0.100137,0,0,0,228,24,0,0,0,0,0,0
9357352,0.1068495,0.00062378123,-0.015946416,0.9941472,-0.04526461,0.006884219,-0.07531141,-0.009032521,0.007031583,0.48739302,-1.2619931e-05,-1.7104834e-06,-3.6788177e-05,3.6211717e-05,2.680192e-05,-1.7689714e-05,0.3922903,-0.015722122,0.4203793,0.0,0.0,0.0,0.0,0.0,2.4011802e-08,0.00010812304,0.0012941572,0.00046227765,0.00046826267,0.00046816337,5.6978497e-06,0.09584768,0.095856674,0.111205325,0.022050763,0.022051308,0.14143133,2.0130843e-08,2.0129619e-08,2.2109509e-08,2.3971577e-06,2.3962775e-06,1.4293255e-06,0.0,0.0,0.0,0.0,0.0,0.0,0.0,0.0,530,0.0,0.0,0.00558331,0.0,0.0001892373,0.0196864,0.0,0.0,0.0,0.100137,0,0,0,228,24,0,0,0,0,0,0
9557345,0.108576894,-0.00014139156,-0.015189967,0.993972,0.006172791,-0.0031544557,-0.1292703,-0.007666895,0.0033115558,0.4360877,-1.3974855e-05,-5.6780773e-06,-3.0357753e-05,3.1492393e-05,2.7450638e-05,3.5808975e-05,0.3922903,-0.015722122,0.4203793,0.0,0.0,0.0,0.0,0.0,1.8772656e-08,9.711372e-05,0.0012176592,0.00044422684,0.0004083656,0.0004082671,5.4994775e-06,0.08829623,0.088294126,0.10877619,0.02183926,0.021839593,0.14151622,1.5370851e-08,1.5373049e-08,1.9277676e-08,2.3881814e-06,2.3871962e-06,1.3046829e-06,0.0,0.0,0.0,0.0,0.0,0.0,0.0,0.0,530,0.0,0.0,0.02461425,0.0,0.00016085111,0.0053242813,0.0,0.0,0.0,0.100137,0,0,0,228,24,0,0,0,0,0,0
9758143,0.11267985,-0.001055546,-0.015009641,0.9935174,0.009634551,-0.009942516,-0.10646199,-0.0014655406,0.0018618741,0.459937,-1.4690688e-05,-7.356056e-06,-2.560956e-05,2.8871304e-05,3.1104504e-05,-4.5377088e-05,0.3922903,-0.015722122,0.4203793,0.0,0.0,0.0,0.0,0.0,1.829818e-08,9.349839e-05,0.0012767627,0.0004270581,0.0003569821,0.00035688104,5.5844985e-06,0.0802898,0.08028704,0.10580534,0.021469107,0.021469044,0.14146061,1.1739432e-08,1.1743625e-08,1.6900454e-08,2.3804505e-06,2.3793652e-06,1.1828055e-06,0.0,0.0,0.0,0.0,0.0,0.0,0.0,0.0,530,0.0,0.0,0.026060097,0.0,4.1957344e-05,0.020998713,0.0,0.0,0.0,0.100137,0,0,0,228,24,0,0,0,0,0,0
9958143,0.11454787,-0.0015435127,-0.013998002,0.9933179,0.045883026,-0.018008728,-0.11901941,0.0034834037,-0.0018182561,0.45093682,-1.4513202e-05,-7.206411e-06,-2.2541431e-05,2.9122113e-05,3.152346e-05,-6.801784e-05,0.3922903,-0.015722122,0.4203793,0.0,0.0,0.0,0.0,0.0,2.169348e-08,9.698147e-05,0.0011606846,0.0004112691,0.0003130238,0.00031293253,5.481532e-06,0.07275637,0.07275458,0.1022377,0.0209915,0.020991309,0.14134628,8.967634e-09,8.973055e-09,1.4896345e-08,2.373872e-06,2.3726898e-06,1.0651502e-06,0.0,0.0,0.0,0.0,0.0,0.0,0.0,0.0,530,0.0,0.0,0.0008025547,0.0,5.798004e-05,0.010292574,0.0,0.0,0.0,0.100137,0,0,0,228,24,0,0,0,0,0,0
10166145,0.12073444,-0.0016830284,-0.013312785,0.9925942,0.06535857,-0.03935417,-0.107164524,0.0072663617,-0.0038873337,0.46457198,-1.4086464e-05,-5.3479534e-06,-1.9980904e-05,3.1917967e-05,3.2497068e-05,-0.00012654724,0.3922903,-0.015722122,0.4203793,0.0,0.0,0.0,0.0,0.0,2.7964358e-08,9.871807e-05,0.0011310885,0.00039108918,0.00026991797,0.00026983419,5.7368457e-06,0.06253585,0.06253496,0.09637378,0.019233875,0.01923368,0.13737579,6.653668e-09,6.659722e-09,1.3021441e-08,2.3677671e-06,2.3664857e-06,9.40031e-07,0.0,0.0,0.0,0.0,0.0,0.0,0.0,0.0,530,0.0,0.0,0.017314501,0.0,0.00015130272,0.013943364,0.0,0.0,0.0,0.100137,0,0,0,228,24,0,0,0,0,0,0
10366946,0.12552512,-0.0017237786,-0.012908316,0.99200505,0.05824964,-0.013643116,-0.07637883,0.014054724,-0.005060039,0.50018454,-1.3446686e-05,-2.8670488e-06,-2.0851241e-05,3.551861e-05,3.3845216e-05,-0.00021558572,0.3922903,-0.015722122,0.4203793,0.0,0.0,0.0,0.0,0.0,2.5185779e-08,0.00010081854,0.0012441318,0.0003772865,0.0002472531,0.00024717138,6.0071443e-06,0.059731018,0.059730876,0.094225734,0.020188944,0.020188807,0.14139244,5.3114197e-09,5.3174922e-09,1.15916805e-08,2.3638906e-06,2.3625396e-06,8.4975346e-07,0.0,0.0,0.0,0.0,0.0,0.0,0.0,0.0,530,0.0,0.0,0.023379833,0.0,0.0002649729,0.065510765,0.0,0.0,0.0,0.100137,0,0,0,228,24,0,0,0,0,0,0
10566943,0.1318715,-0.0018733138,-0.011990228,0.9911926,0.044934772,0.006318824,-0.044287678,0.017754864,-0.005131549,0.53504604,-1.29932805e-05,3.331409e-07,-2.0671137e-05,4.069929e-05,3.5032695e-05,-0.00028977107,0.3922903,-0.015722122,0.4203793,0.0,0.0,0.0,0.0,0.0,2.4367198e-08,0.00010211078,0.001237013,0.0003583056,0.00022205527,0.00022198295,6.3011184e-06,0.05354744,0.05354605,0.0893887,0.019462604,0.019462565,0.14015245,4.120142e-09,4.126002e-09,1.0237236e-08,2.3601785e-06,2.3587597e-06,7.5381666e-07,0.0,0.0,0.0,0.0,0.0,0.0,0.0,0.0,530,0.0,0.0,4.9418053e-05,0.0,0.00035281546,0.0018413672,0.0,0.0,0.0,0.100137,0,0,0,164,24,0,0,0,0,0,0
10775743,0.13737354,-0.0017024204,-0.0128623815,0.99043435,0.11598543,-0.044350423,-0.036289424,0.020980628,-0.0037543767,0.56075966,-1.3029519e-05,3.804546e-06,-2.17596e-05,4.6706566e-05,3.627886e-05,-0.0003404668,0.3922903,-0.015722122,0.4203793,0.0,0.0,0.0,0.0,0.0,2.6315771e-08,0.00010234842,0.0013642507,0.0003479852,0.00019831315,0.00019823312,6.6828447e-06,0.04636343,0.046372596,0.0829122,0.017815659,0.017815763,0.1352471,3.1330742e-09,3.1386616e-09,9.192007e-09,2.3568512e-06,2.3553712e-06,6.568312e-07,0.0,0.0,0.0,0.0,0.0,0.0,0.0,0.0,530,0.0,0.0,0.00910438,0.0,0.00041551096,0.013762256,0.0,0.0,0.0,0.100137,0,0,0,164,24,0,0,0,0,0,0
10975743,0.14403173,-0.0008752528,-0.012780101,0.9894902,0.10198336,-0.017199092,-0.0439992,0.022745099,-0.005169258,0.5374901,-1.2943762e-05,7.137737e-06,-2.276281e-05,5.3132437e-05,3.529819e-05,-0.00031995098,0.3922903,-0.015722122,0.4203793,0.0,0.0,0.0,0.0,0.0,3.3026968e-08,0.000118385105,0.0013874097,0.0003365989,0.00018263422,0.00018255654,7.1423797e-06,0.042119347,0.042126376,0.07816076,0.017309235,0.017309358,0.13367428,2.4844988e-09,2.489684e-09,8.283877e-09,2.3545003e-06,2.3529783e-06,5.8050125e-07,0.0,0.0,0.0,0.0,0.0,0.0,0.0,0.0,530,0.0,0.0,0.023501346,0.0,0.00045450323,0.01278517,0.0,0.0,0.0,0.100137,0,0,0,164,24,0,0,0,0,0,0
11175759,0.14710367,-4.2432144e-05,-0.012066136,0.9890475,0.08987856,-0.048505172,-0.0787034,0.023172554,-0.0073266206,0.51541895,-1.2764442e-05,1.0182677e-05,-2.3325163e-05,5.9155343e-05,3.4177992e-05,-0.0003075645,0.3922903,-0.015722122,0.4203793,0.0,0.0,0.0,0.0,0.0,3.4041136e-08,0.00012954012,0.0013905882,0.00032144526,0.00016987248,0.00016980515,7.1313075e-06,0.03865655,0.038659193,0.073574185,0.016859522,0.016859619,0.13193408,1.9901e-09,1.9948185e-09,7.4094673e-09,2.3525774e-06,2.3510222e-06,5.129955e-07,0.0,0.0,0.0,0.0,0.0,0.0,0.0,0.0,530,0.0,0.0,0.0029523233,0.0,0.00046494062,0.030804588,0.0,0.0,0.0,0.100137,0,0,0,164,24,0,0,0,0,0,0
11384543,0.14991575,-0.0007241327,-0.012664521,0.9886175,0.12408252,-0.05073758,-0.090634055,0.02726402,-0.0076142526,0.5198038,-1.2435983e-05,1.297282e-05,-2.3300718e-05,6.40995e-05,3.3439246e-05,-0.00033442423,0.35781002,-0.014340232,0.41835296,0.0,0.0,0.0,0.0,0.0,3.79995e-08,0.00013237969,0.0015120441,0.0015751449,0.00016591196,0.00016563921,3.663872e-05,0.030731784,0.030757321,0.06946986,0.01654024,0.016540403,0.13133971,1.6077933e-09,1.6125019e-09,7.170999e-09,2.3511604e-06,2.3495788e-06,4.5324003e-07,0.0,0.0,0.0,0.0,0.0,0.0,0.0,0.0,531,0.18188085,0.36240822,0.006866855,0.0,0.0005214123,0.029097596,0.0,0.0,0.0,0.100137,0,0,0,165,24,0,0,0,0,0,0
11584652,0.15087274,0.0009840174,-0.009035308,0.9885114,-0.07868277,0.004305253,-0.048488967,0.008386819,-0.008759275,0.5262803,-1.1993471e-05,1.5225028e-05,-2.327415e-05,6.396202e-05,3.2973472e-05,-0.00035884904,0.35781002,-0.014340232,0.41835296,0.0,0.0,0.0,0.0,0.0,4.9894005e-08,0.00017199197,0.0019639083,0.00091869186,0.00016582242,0.00016573978,2.1682261e-05,0.030408757,0.030461842,0.06518071,0.015514305,0.015515047,0.12942845,1.3275799e-09,1.3324101e-09,7.1681585e-09,2.350792e-06,2.3491907e-06,4.0058129e-07,0.0,0.0,0.0,0.0,0.0,0.0,0.0,0.0,531,0.1761515,0.35976166,0.014885939,0.0,0.00022827479,0.011270295,0.0,0.0,0.0,0.100137,0,0,0,165,24,0,0,0,0,0,0
11784546,0.15708517,-0.001377674,-0.00858162,0.98754686,-0.0002015769,-0.043523952,-0.07658047,0.0242076,-0.00692966,0.5181682,-1.1730634e-05,1.6548298e-05,-2.3098677e-05,5.544854e-05,3.2780765e-05,-0.00036446878,0.35781002,-0.014340232,0.41835296,0.0,0.0,0.0,0.0,0.0,5.25435e-08,0.00016388495,0.0020827453,0.00066877034,0.00016386929,0.00016381503,1.6944692e-05,0.038999178,0.038998988,0.06108266,0.014906079,0.014906133,0.12727028,1.1326404e-09,1.1375408e-09,7.1615194e-09,2.344291e-06,2.3426815e-06,3.5427507e-07,0.0,0.0,0.0,0.0,0.0,0.0,0.0,0.0,531,0.17266212,0.3567496,0.005558331,0.0,0.00048849295,0.013726141,0.0,0.0,0.0,0.100137,0,0,0,165,24,0,0,0,0,0,0
11985398,0.15941226,0.00014286234,-0.0060587414,0.9871936,0.22783671,0.004809822,-0.087085366,0.03028258,-0.012314829,0.4888831,-1.1466362e-05,1.827654e-05,-2.3056848e-05,2.7528877e-05,3.4668246e-05,-0.0003494169,0.35781002,-0.014340232,0.41835296,0.0,0.0,0.0,0.0,0.0,8.564156e-08,0.00021171269,0.0025742406,0.000527847,0.00015624012,0.00015621625,1.3780084e-05,0.050097365,0.05018762,0.056020115,0.014352841,0.014353119,0.12131875,9.948701e-10,9.998118e-10,7.1494215e-09,2.309703e-06,2.3081138e-06,3.0907216e-07,0.0,0.0,0.0,0.0,0.0,0.0,0.0,0.0,531,0.16942833,0.3483084,0.0063418634,0.0,0.00062380725,0.006602253,0.0,0.0,0.0,0.100137,0,0,0,165,24,0,0,0,0,0,0
12193354,0.16546142,0.0001781375,-0.012667709,0.98613495,0.13608427,-0.14768453,-0.07925762,0.044532117,-0.0065954817,0.5100862,-1.1825602e-05,2.0046366e-05,-2.2803863e-05,-3.2963613e-05,2.2179915e-05,-0.0003896069,0.35781002,-0.014340232,0.41835296,0.0,0.0,0.0,0.0,0.0,8.326759e-08,0.00021381961,0.0023805609,0.00042917556,0.00014333507,0.0001432568,1.203125e-05,0.062380895,0.062374137,0.05277651,0.015855812,0.015857449,0.12052493,9.3063596e-10,9.355715e-10,7.1277735e-09,2.2391193e-06,2.2375896e-06,2.742884e-07,0.0,0.0,0.0,0.0,0.0,0.0,0.0,0.0,531,0.17808218,0.34716702,0.0043103835,0.0,0.0008714372,0.032920077,0.0,0.0,0.0,0.100137,0,0,0,165,24,0,0,0,0,0,0
12393349,0.16644736,0.0013673564,-0.0070897853,0.98602396,0.05055291,0.018793501,-0.06868059,0.03454683,-0.015779214,0.47897854,-1.1944716e-05,2.1309615e-05,-2.3237772e-05,-0.00011377306,2.4662366e-05,-0.0003744596,0.35781002,-0.014340232,0.41835296,0.0,0.0,0.0,0.0,0.0,7.278474e-08,0.00019097849,0.0021285657,0.0003701222,0.00012586165,0.00012583776,1.0581015e-05,0.06729238,0.06729243,0.049462687,0.017249629,0.017250337,0.11842547,9.0508595e-10,9.1001373e-10,7.099382e-09,2.131168e-06,2.1297403e-06,2.4370217e-07,0.0,0.0,0.0,0.0,0.0,0.0,0.0,0.0,531,0.18574166,0.34413,0.016360316,0.0,0.0007081176,0.0010342863,0.0,0.0,0.0,0.100137,0,0,0,165,24,0,0,0,0,0,0
12594150,0.17178394,0.0015190527,-0.009554394,0.98508716,-0.0560083,-0.046298992,-0.10227739,0.026797235,-0.0077964314,0.46903592,-1.21329895e-05,2.1728369e-05,-2.3301178e-05,-0.00018308773,2.366511e-05,-0.0003812681,0.35781002,-0.014340232,0.41835296,0.0,0.0,0.0,0.0,0.0,7.628192e-08,0.00021993341,0.0022308622,0.00032717138,0.00010810772,0.00010806871,9.995195e-06,0.065647244,0.06564993,0.046360232,0.018241346,0.0182418,0.1162623,8.993043e-10,9.0421953e-10,7.061088e-09,2.0079758e-06,2.0066655e-06,2.1683145e-07,0.0,0.0,0.0,0.0,0.0,0.0,0.0,0.0,531,0.19100562,0.34097257,0.006859762,0.0,0.000565407,0.043217313,0.0,0.0,0.0,0.100137,0,0,0,165,24,0,0,0,0,0,0
12802146,0.17363137,0.0019862296,-0.006256311,0.9847889,-0.03230192,0.09594683,-0.10193526,0.014798601,-0.007536606,0.45490932,-1.2296288e-05,2.171795e-05,-2.2929466e-05,-0.00022884087,3.1852866e-05,-0.0003872552,0.35781002,-0.014340232,0.41835296,0.0,0.0,0.0,0.0,0.0,8.307718e-08,0.000206663,0.002157017,0.0002921815,9.230229e-05,9.228291e-05,9.0824915e-06,0.057074755,0.057060707,0.042834785,0.01788385,0.017883854,0.11207642,8.9742674e-10,9.023259e-10,7.0056485e-09,1.8840849e-06,1.8828889e-06,1.9079576e-07,0.0,0.0,0.0,0.0,0.0,0.0,0.0,0.0,531,0.18912351,0.33477816,0.0022752653,0.0,0.00030700685,0.03577194,0.0,0.0,0.0,0.100137,0,0,0,165,24,0,0,0,0,0,0
13002943,0.18176404,0.0024461835,-0.00937571,0.9832945,-0.006104876,-0.07505751,-0.12764697,0.007141479,-0.0020640416,0.45619425,-1.2337942e-05,2.159745e-05,-2.2598715e-05,-0.00024524116,2.9006505e-05,-0.00040536124,0.35781002,-0.014340232,0.41835296,0.0,0.0,0.0,0.0,0.0,8.8521645e-08,0.00021679806,0.0022709859,0.00026853662,8.276384e-05,8.272717e-05,9.152539e-06,0.049481474,0.04947654,0.040311564,0.017922135,0.017921995,0.1102947,8.927348e-10,8.9761887e-10,6.9431594e-09,1.797371e-06,1.7962467e-06,1.7083492e-07,0.0,0.0,0.0,0.0,0.0,0.0,0.0,0.0,531,0.18932547,0.33210647,0.016216753,0.0,0.00014865861,0.009667282,0.0,0.0,0.0,0.100137,0,0,0,165,24,0,0,0,0,0,0
13202943,0.19262394,0.0034252068,-0.01046609,0.98121095,0.071340054,0.076356426,-0.08187917,-0.0036790965,0.0024027054,0.45926344,-1.2394022e-05,2.1617781e-05,-2.2851524e-05,-0.00024655394,3.3431283e-05,-0.0004233046,0.35781002,-0.014340232,0.41835296,0.0,0.0,0.0,0.0,0.0,1.0563304e-07,0.00021755867,0.002461501,0.00025012626,7.675417e-05,7.670865e-05,9.63329e-06,0.04137819,0.04136975,0.037972976,0.01753239,0.01753224,0.10857802,8.841603e-10,8.890211e-10,6.8678094e-09,1.7311662e-06,1.730095e-06,1.5326117e-07,0.0,0.0,0.0,0.0,0.0,0.0,0.0,0.0,531,0.18725552,0.3295118,0.017586594,0.0,8.6465945e-05,0.029443113,0.0,0.0,0.0,0.100137,0,0,0,165,24,0,0,0,0,0,0
13410943,0.20151815,0.0026881795,-0.0108172,0.97942144,-0.10636673,-0.07045886,-0.08242294,-0.0050103045,-0.00028141218,0.4606362,-1.2325751e-05,2.1589922e-05,-2.2793838e-05,-0.00024675208,2.842838e-05,-0.00043890878,0.35781002,-0.014340232,0.41835296,0.0,0.0,0.0,0.0,0.0,9.658006e-08,0.00022073438,0.0025423262,0.00023403692,7.3496e-05,7.34458e-05,9.899831e-06,0.034425173,0.034436867,0.035868596,0.017133692,0.017133571,0.10755596,8.7328056e-10,8.781129e-10,6.7685355e-09,1.6826472e-06,1.6816172e-06,1.3773206e-07,0.0,0.0,0.0,0.0,0.0,0.0,0.0,0.0,531,0.18511419,0.32795727,0.0013853428,0.0,6.62849e-05,0.026457023,0.0,0.0,0.0,0.100137,0,0,0,165,24,0,0,0,0,0,0
13611743,0.20302792,0.001179383,-0.010023526,0.9791209,-0.023931421,0.053412523,-0.082353756,-0.0042393915,-0.0017403621,0.4541546,-1.2404454e-05,2.1694264e-05,-2.2694678e-05,-0.0002425201,3.43218e-05,-0.00044745835,0.35781002,-0.014340232,0.41835296,0.0,0.0,0.0,0.0,0.0,8.3649866e-08,0.00019630292,0.0023254305,0.00022423046,7.2160496e-05,7.210911e-05,9.630062e-06,0.028306138,0.02829978,0.033805747,0.016258739,0.01625859,0.105656244,8.6209945e-10,8.668923e-10,6.66508e-09,1.6481715e-06,1.647175e-06,1.2404348e-07,0.0,0.0,0.0,0.0,0.0,0.0,0.0,0.0,531,0.18032561,0.32504806,0.0063007516,0.0,8.172459e-05,0.027113814,0.0,0.0,0.0,0.100137,0,0,0,165,24,0,0,0,0,0,0
13811743,0.2076066,0.0009736644,-0.007315586,0.97818464,-0.10779407,0.040794276,-0.08080055,-0.009489536,-0.003731669,0.42963526,-1.2437877e-05,2.1777121e-05,-2.1628117e-05,-0.00023790795,3.8421214e-05,-0.00044221105,0.35781002,-0.014340232,0.41835296,0.0,0.0,0.0,0.0,0.0,7.6554386e-08,0.00019175459,0.0021601152,0.00021661882,7.214441e-05,7.2105235e-05,9.70081e-06,0.023409598,0.023417026,0.03187772,0.0154111115,0.0154110575,0.1038659,8.519719e-10,8.567213e-10,6.5482206e-09,1.6238889e-06,1.6229194e-06,1.1198238e-07,0.0,0.0,0.0,0.0,0.0,0.0,0.0,0.0,531,0.17556244,0.3222823,0.012868704,0.0,0.00016183917,0.013495905,0.0,0.0,0.0,0.100137,0,0,0,165,24,0,0,0,0,0,0
14012543,0.204859,-0.0007040785,-0.005572848,0.9787754,-0.19513953,0.12270396,-0.07840504,-0.018452888,0.0015103944,0.4383128,-1.24790795e-05,2.201773e-05,-2.2204937e-05,-0.00022923917,4.271507e-05,-0.00046195145,0.35781002,-0.014340232,0.41835296,0.0,0.0,0.0,0.0,0.0,7.407332e-08,0.0001821861,0.0021777814,0.00020948914,7.30386e-05,7.300348e-05,9.146431e-06,0.019546164,0.019559922,0.030086545,0.014551315,0.014551382,0.1020312,8.4356283e-10,8.482483e-10,6.40313e-09,1.6066808e-06,1.6057301e-06,1.01286396e-07,0.0,0.0,0.0,0.0,0.0,0.0,0.0,0.0,531,0.17059512,0.31942323,0.00862765,0.0,0.00032100844,0.011579701,0.0,0.0,0.0,0.100137,0,0,0,165,24,0,0,0,0,0,0
14220543,0.20522557,0.000939396,-0.0074094357,0.9786863,-0.13631041,0.0073398394,-0.089940414,-0.04452339,0.011397661,0.43307507,-1.2270776e-05,2.2548944e-05,-2.1348216e-05,-0.00020368386,4.4016015e-05,-0.0004700911,0.35781002,-0.014340232,0.41835296,0.0,0.0,0.0,0.0,0.0,5.066568e-08,0.00013651578,0.0015302356,0.0002063325,7.46222e-05,7.4572956e-05,9.01792e-06,0.015958916,0.015973622,0.027979441,0.013177695,0.013178914,0.09833968,8.366722e-10,8.413039e-10,6.259326e-09,1.5933967e-06,1.5924523e-06,9.0692346e-08,0.0,0.0,0.0,0.0,0.0,0.0,0.0,0.0,531,0.16234718,0.31359157,0.008618669,0.0,0.00091496535,0.029357973,0.0,0.0,0.0,0.100137,0,0,0,165,24,0,0,0,0,0,0
14420579,0.20464282,0.00032523164,-0.009203639,0.9787934,-0.12574194,0.06779475,-0.07799781,-0.0485903,0.016693106,0.43642917,-1.2032211e-05,2.3033492e-05,-2.0590489e-05,-0.00017889822,4.5317916e-05,-0.00048310574,0.35781002,-0.014340232,0.41835296,0.0,0.0,0.0,0.0,0.0,5.12212e-08,0.0001235023,0.0012891256,0.00020386984,7.669104e-05,7.662374e-05,8.842565e-06,0.013874877,0.013876683,0.026478492,0.012518327,0.012519365,0.09659276,8.328524e-10,8.374116e-10,6.1042265e-09,1.585548e-06,1.5846031e-06,8.2464226e-08,0.0,0.0,0.0,0.0,0.0,0.0,0.0,0.0,531,0.15823303,0.31079376,0.00026771805,0.0,0.0009970501,0.022610141,0.0,0.0,0.0,0.100137,0,0,0,165,24,0,0,0,0,0,0
14620552,0.19320099,0.0013816976,-0.008687321,0.9811198,0.109457955,-0.112940185,-0.10955155,-0.04383954,0.008310165,0.4413856,-1.1791304e-05,2.3316605e-05,-1.9205729e-05,-0.00015973962,4.59315e-05,-0.000496208,0.35781002,-0.014340232,0.41835296,0.0,0.0,0.0,0.0,0.0,9.5448144e-08,0.00021421176,0.0017985891,0.00020136796,7.915693e-05,7.908946e-05,7.711502e-06,0.012836938,0.012844259,0.025515279,0.012511999,0.012512848,0.09715882,8.309562e-10,8.354095e-10,5.9196834e-09,1.5807875e-06,1.5798396e-06,7.601068e-08,0.0,0.0,0.0,0.0,0.0,0.0,0.0,0.0,531,0.15819244,0.3117031,0.020933012,0.0,0.0009311318,0.019784344,0.0,0.0,0.0,0.100137,0,0,0,165,24,0,0,0,0,0,0
14822145,0.1979225,0.0014253992,-0.009421709,0.9801714,0.011012633,-0.0033573534,-0.07119411,-0.020220554,0.0024780633,0.44866627,-1.1651835e-05,2.343526e-05,-1.8515731e-05,-0.00014938069,4.796043e-05,-0.0005095025,0.35781002,-0.014340232,0.41835296,0.0,0.0,0.0,0.0,0.0,8.4641584e-08,0.00021294632,0.002057019,0.00020011832,8.1828824e-05,8.174905e-05,8.04961e-06,0.011394893,0.011389983,0.023771472,0.011409359,0.011409074,0.09322491,8.2979185e-10,8.3413654e-10,5.7440404e-09,1.5768416e-06,1.5758899e-06,6.864384e-08,0.0,0.0,0.0,0.0,0.0,0.0,0.0,0.0,531,0.15105772,0.30532756,0.008979997,0.0,0.0004139876,0.01350106,0.0,0.0,0.0,0.100137,0,0,0,165,24,0,0,0,0,0,0
15022143,0.19672464,0.00042076435,-0.007624203,0.9804291,-0.011693965,-0.033699263,-0.05508388,-0.00889913,-0.005286778,0.47382465,-1.1581162e-05,2.3440412e-05,-1.8036455e-05,-0.00014691173,4.8367074e-05,-0.00053185597,0.35781002,-0.014340232,0.41835296,0.0,0.0,0.0,0.0,0.0,7.079837e-08,0.00019137864,0.0018436926,0.00019988735,8.4744206e-05,8.46714e-05,7.931514e-06,0.010903405,0.010899084,0.02257718,0.01101302,0.011012514,0.091698766,8.290185e-10,8.332238e-10,5.5610974e-09,1.5748418e-06,1.5738839e-06,6.288194e-08,0.0,0.0,0.0,0.0,0.0,0.0,0.0,0.0,531,0.14841002,0.30281803,0.007294805,0.0,0.00018207899,0.029488526,0.0,0.0,0.0,0.100137,0,0,0,165,24,0,0,0,0,0,0
15222143,0.19916517,0.0004694932,-0.006924427,0.9799414,0.05065285,0.036088675,-0.052375384,-0.002234119,-0.006148559,0.46835235,-1.1507642e-05,2.3458972e-05,-1.782572e-05,-0.00014612681,4.9753176e-05,-0.00053541345,0.35781002,-0.014340232,0.41835296,0.0,0.0,0.0,0.0,0.0,1.1974277e-07,0.0002695882,0.0023123166,0.00019971486,8.779703e-05,8.772367e-05,8.13204e-06,0.010808099,0.01079451,0.021480303,0.010681249,0.010680357,0.09012737,8.2720025e-10,8.312374e-10,5.3721583e-09,1.573824e-06,1.5728568e-06,5.7731995e-08,0.0,0.0,0.0,0.0,0.0,0.0,0.0,0.0,531,0.1461561,0.3002122,0.027184637,0.0,0.00012568502,0.00010409274,0.0,0.0,0.0,0.100137,0,0,0,165,24,0,0,0,0,0,0
15430146,0.20207174,0.0013410589,-0.006333542,0.9793493,0.0074684652,-0.116635926,-0.06344598,-0.001065397,-0.010459542,0.4708234,-1.14504965e-05,2.3475552e-05,-1.6988342e-05,-0.00014638355,4.9802053e-05,-0.0005429719,0.35781002,-0.014340232,0.41835296,0.0,0.0,0.0,0.0,0.0,9.864697e-08,0.00023804804,0.0020494263,0.00019858875,9.103813e-05,9.0966845e-05,8.320114e-06,0.011189848,0.011184527,0.020501565,0.01058637,0.0105851535,0.08918927,8.228364e-10,8.2665397e-10,5.1567746e-09,1.5734079e-06,1.5724263e-06,5.3129067e-08,0.0,0.0,0.0,0.0,0.0,0.0,0.0,0.0,531,0.14550437,0.29864573,0.0028944332,0.0,0.00019462583,0.01681197,0.0,0.0,0.0,0.100137,0,0,0,165,24,0,0,0,0,0,0
15630220,0.20948526,0.0010213675,-0.008221151,0.9777767,0.06915271,-0.03199087,-0.041581135,0.006376774,-0.0115389265,0.48173237,-1.1297255e-05,2.360606e-05,-1.6039286e-05,-0.0001463546,4.988726e-05,-0.0005537694,0.35781002,-0.014340232,0.41835296,0.0,0.0,0.0,0.0,0.0,9.234312e-08,0.00022142232,0.001902869,0.00019836792,9.406949e-05,9.397974e-05,8.95125e-06,0.0117698535,0.011764159,0.01956547,0.010482269,0.010480623,0.0877576,8.1437945e-10,8.1796814e-10,4.960069e-09,1.5732452e-06,1.5722468e-06,5.0000075e-08,0.0,0.0,0.0,0.0,0.0,0.0,0.0,0.0,531,0.14478567,0.2962391,0.01408532,0.0,0.00022783488,0.009861525,0.0,0.0,0.0,0.100137,0,0,0,165,24,0,0,0,0,0,0
15830943,0.21816088,0.00116619,-0.008682155,0.9758736,0.08945805,-0.057631522,-0.06276222,0.01541921,-0.014754243,0.47831258,-1.1173899e-05,2.3937646e-05,-1.492555e-05,-0.00014532845,5.057962e-05,-0.0005572356,0.35781002,-0.014340232,0.41835296,0.0,0.0,0.0,0.0,0.0,1.1868497e-07,0.0002314433,0.0021142552,0.00019807521,9.682333e-05,9.6728625e-05,9.717201e-06,0.012638492,0.012636174,0.01868382,0.010473838,0.010471981,0.08634733,7.997519e-10,8.030705e-10,4.762131e-09,1.5729963e-06,1.5719771e-06,5.000004e-08,0.0,0.0,0.0,0.0,0.0,0.0,0.0,0.0,531,0.14472671,0.29384917,0.0010627786,0.0,0.0003007545,0.0075908927,0.0,0.0,0.0,0.100137,0,0,0,165,24,0,0,0,0,0,0
16030943,0.23685136,-0.00020106736,-0.0024799514,0.9715428,-0.12295646,0.1834968,-0.013670233,0.0102950875,-0.0072554364,0.4751323,-1.1057675e-05,2.4539979e-05,-1.4909364e-05,-0.00014250858,5.1453677e-05,-0.0005612772,0.35781002,-0.014340232,0.41835296,0.0,0.0,0.0,0.0,0.0,1.8775457e-07,0.0003450178,0.0028109304,0.00019497715,9.90853e-05,9.903068e-05,1.1395821e-05,0.01359018,0.01352825,0.017900743,0.010574352,0.010571417,0.08502074,7.77325e-10,7.803294e-10,4.54238e-09,1.5723494e-06,1.5713053e-06,5.000004e-08,0.0,0.0,0.0,0.0,0.0,0.0,0.0,0.0,531,0.14541584,0.29158318,0.012800818,0.0,0.00022985927,0.026499348,0.0,0.0,0.0,0.100137,0,0,0,165,24,0,0,0,0,0,0
16239743,0.24484666,-0.0017265275,-0.009025864,0.96951824,-0.029110674,-0.06887599,-0.065827146,3.4472745e-05,0.013005547,0.455312,-1.1369195e-05,2.4422214e-05,-1.4753767e-05,-0.0001438795,5.3505388e-05,-0.0005572506,0.35781002,-0.014340232,0.41835296,0.0,0.0,0.0,0.0,0.0,1.5883428e-07,0.0002903757,0.0026382534,0.00019515517,0.00010098219,0.00010088488,1.2264621e-05,0.014844593,0.014839151,0.017161356,0.010911047,0.010905766,0.084207565,7.4650114e-10,7.4918444e-10,4.3459836e-09,1.5711115e-06,1.5700297e-06,5.0000075e-08,0.0,0.0,0.0,0.0,0.0,0.0,0.0,0.0,531,0.14770515,0.2901854,0.021443779,0.0,0.00028718,0.026937123,0.0,0.0,0.0,0.100137,0,0,0,165,24,0,0,0,0,0,0
16439762,0.25308877,-0.00091117463,-0.0061775967,0.96742296,-0.06105549,0.14398253,-0.07146553,-0.013723374,0.01352799,0.46117595,-1.1538544e-05,2.4031777e-05,-1.3382097e-05,-0.00014698693,5.305037e-05,-0.0005647056,0.35781002,-0.014340232,0.41835296,0.0,0.0,0.0,0.0,0.0,1.891364e-07,0.00038923492,0.0028248613,0.00019282168,0.000101902486,0.00010182808,1.2972107e-05,0.01595577,0.015904238,0.016508847,0.011164039,0.011159026,0.082942985,7.067866e-10,7.091515e-10,4.131286e-09,1.569114e-06,1.5679892e-06,5.000011e-08,0.0,0.0,0.0,0.0,0.0,0.0,0.0,0.0,531,0.14940906,0.28799823,0.017000427,0.0,0.00024695927,0.009235247,0.0,0.0,0.0,0.100137,0,0,0,165,24,0,0,0,0,0,0
16639743,0.2527994,-0.0029198388,-0.0101304455,0.96746135,-0.02517745,-0.015445408,-0.05675141,-0.012610093,0.0168566,0.47152954,-1.1996487e-05,2.3153052e-05,-1.340026e-05,-0.00015443958,5.3931923e-05,-0.00057376607,0.35781002,-0.014340232,0.41835296,0.0,0.0,0.0,0.0,0.0,1.5444027e-07,0.00032034775,0.0023776938,0.00019293357,0.00010158762,0.000101492216,1.297228e-05,0.016338598,0.016329879,0.015640063,0.010968398,0.010963534,0.08008217,6.541746e-10,6.562178e-10,3.94197e-09,1.5660041e-06,1.5648233e-06,5e-08,0.0,0.0,0.0,0.0,0.0,0.0,0.0,0.0,531,0.14809433,0.28298792,0.011030743,0.0,0.00034477626,0.00021751592,0.0,0.0,0.0,0.100137,0,0,0,165,24,0,0,0,0,0,0
16840552,0.24159291,-0.0018812134,-0.012193658,0.9702993,0.026813213,-0.21073544,-0.061468817,-0.014047262,0.0056287437,0.45023394,-1.2251918e-05,2.2362165e-05,-1.2386503e-05,-0.00016089928,5.6163513e-05,-0.0005687744,0.35781002,-0.014340232,0.41835296,0.0,0.0,0.0,0.0,0.0,2.0353639e-07,0.00035876382,0.0028964968,0.00019405491,0.00010106063,0.00010095624,1.1823121e-05,0.017094411,0.017079545,0.015103799,0.011309673,0.011306176,0.07902871,6.028e-10,6.045744e-10,3.7574432e-09,1.5625545e-06,1.5613197e-06,5.000004e-08,0.0,0.0,0.0,0.0,0.0,0.0,0.0,0.0,531,0.15038568,0.28112045,0.0021143553,0.0,0.00029101956,0.015466254,0.0,0.0,0.0,0.100137,0,0,0,165,24,0,0,0,0,0,0
17040546,0.23684157,0.00019981245,-0.0025564656,0.9715449,0.12804145,-0.045985572,-0.062238686,-0.00079309137,-0.021279925,0.44036955,-1.1581773e-05,2.22497e-05,-1.074145e-05,-0.00016137997,5.0423565e-05,-0.0005693012,0.35781002,-0.014340232,0.41835296,0.0,0.0,0.0,0.0,0.0,2.0264201e-07,0.0003761132,0.003418956,0.00019443671,9.987133e-05,9.982437e-05,1.129882e-05,0.017641334,0.017648848,0.014656551,0.011680373,0.011678719,0.07810207,5.488921e-10,5.504593e-10,3.5785317e-09,1.558553e-06,1.5572704e-06,5.0000075e-08,0.0,0.0,0.0,0.0,0.0,0.0,0.0,0.0,531,0.15283681,0.27946746,0.014241906,0.0,0.00041973588,0.011361814,0.0,0.0,0.0,0.100137,0,0,0,165,24,0,0,0,0,0,0
17248543,0.2397501,-0.00022956583,-0.007937722,0.97080225,0.031174604,-0.16970491,-0.08454147,0.01490345,-0.02236723,0.4115355,-1.0942186e-05,2.2996112e-05,-8.611842e-06,-0.00015407789,4.5950732e-05,-0.0005629128,0.35781002,-0.014340232,0.41835296,0.0,0.0,0.0,0.0,0.0,1.661626e-07,0.00034445876,0.0032384286,0.00019272827,9.764201e-05,9.757171e-05,1.1451452e-05,0.01756228,0.01755334,0.014089978,0.011626089,0.011624833,0.07615852,4.8732335e-10,4.886601e-10,3.38673e-09,1.5535178e-06,1.5521772e-06,5e-08,0.0,0.0,0.0,0.0,0.0,0.0,0.0,0.0,531,0.15248254,0.27596834,0.00080815365,0.0,0.00045815468,0.022914072,0.0,0.0,0.0,0.100137,0,0,0,165,24,0,0,0,0,0,0
17449343,0.23660672,0.0004258956,-0.0073944507,0.9715773,0.13988994,-0.005618508,-0.04207958,0.022433024,-0.028184485,0.4299915,-1.0100748e-05,2.4194027e-05,-8.637607e-06,-0.00014341815,3.581361e-05,-0.0005749957,0.35781002,-0.014340232,0.41835296,0.0,0.0,0.0,0.0,0.0,1.261378e-07,0.0002867817,0.002926159,0.00019255061,9.543923e-05,9.53729e-05,1.1136076e-05,0.017394615,0.017400924,0.013756456,0.011827249,0.011826454,0.07529442,4.3359258e-10,4.3475787e-10,3.2208478e-09,1.5487426e-06,1.5473516e-06,5e-08,0.0,0.0,0.0,0.0,0.0,0.0,0.0,0.0,531,0.1537976,0.2743983,0.01023028,0.0,0.00057753804,0.021048445,0.0,0.0,0.0,0.100137,0,0,0,165,24,0,0,0,0,0,0
17649392,0.23869796,2.4774541e-05,-0.0059087574,0.97107595,0.033441424,-0.09560558,-0.058548592,0.029216964,-0.03514293,0.42875203,-9.4194675e-06,2.5794849e-05,-8.330654e-06,-0.0001281623,2.8152617e-05,-0.00057907234,0.35781002,-0.014340232,0.41835296,0.0,0.0,0.0,0.0,0.0,1.239137e-07,0.00028051453,0.002703373,0.00019172975,9.297716e-05,9.2919625e-05,1.1304139e-05,0.017143825,0.01714114,0.013424647,0.01194956,0.011949187,0.074491136,3.8287098e-10,3.838751e-10,3.0614962e-09,1.5439529e-06,1.5425094e-06,5e-08,0.0,0.0,0.0,0.0,0.0,0.0,0.0,0.0,531,0.1545922,0.27293065,0.019739974,0.0,0.00072027417,0.013238628,0.0,0.0,0.0,0.100137,0,0,0,165,24,0,0,0,0,0,0
17850146,0.2509845,-0.0013972347,-0.007954043,0.96795744,0.0982987,-0.028219674,-0.050141092,0.038017344,-0.03035355,0.43035975,-8.72997e-06,2.7486996e-05,-7.5048165e-06,-0.000111526046,2.0203595e-05,-0.00058453734,0.35781002,-0.014340232,0.41835296,0.0,0.0,0.0,0.0,0.0,1.2645287e-07,0.0002933972,0.0028996833,0.00018806597,9.0497044e-05,9.043127e-05,1.2344366e-05,0.01667362,0.016675467,0.013167926,0.012000339,0.012000283,0.07369479,3.3708059e-10,3.3794387e-10,2.8922413e-09,1.539386e-06,1.5378915e-06,5e-08,0.0,0.0,0.0,0.0,0.0,0.0,0.0,0.0,531,0.15492134,0.27146783,0.0015595397,0.0,0.0007792785,0.0047756415,0.0,0.0,0.0,0.100137,0,0,0,165,24,0,0,0,0,0,0
18050153,0.2563764,0.0010971256,-0.0045758593,0.9665656,0.102575235,-0.12094998,-0.03697662,0.029517,-0.035034705,0.43039668,-8.156671e-06,2.9043384e-05,-7.0217793e-06,-9.580686e-05,1.3704589e-05,-0.00058863976,0.35781002,-0.014340232,0.41835296,0.0,0.0,0.0,0.0,0.0,1.2408695e-07,0.000282724,0.0028297796,0.00018665032,8.801615e-05,8.79652e-05,1.281995e-05,0.016081009,0.016081994,0.012934307,0.011988387,0.011988074,0.07296488,2.9605204e-10,2.968016e-10,2.7470934e-09,1.5351076e-06,1.5335618e-06,5e-08,0.0,0.0,0.0,0.0,0.0,0.0,0.0,0.0,531,0.15484335,0.2701201,0.031122385,0.0,0.0007181266,0.021000262,0.0,0.0,0.0,0.100137,0,0,0,165,24,0,0,0,0,0,0
18258158,0.26300886,0.00056663604,-0.009380013,0.9647477,0.08568371,-0.088203944,-0.03619335,0.034152318,-0.029169269,0.4445046,-7.5853327e-06,3.0475396e-05,-6.2427757e-06,-8.124637e-05,6.461415e-06,-0.0005975266,0.35781002,-0.014340232,0.41835296,0.0,0.0,0.0,0.0,0.0,9.71481e-08,0.00024126099,0.0024963524,0.00018550314,8.582522e-05,8.5754284e-05,1.3461732e-05,0.015651064,0.015652113,0.012789285,0.0121405665,0.012140399,0.072675444,2.6069027e-10,2.6134866e-10,2.6087315e-09,1.5312562e-06,1.529662e-06,5.0000075e-08,0.0,0.0,0.0,0.0,0.0,0.0,0.0,0.0,531,0.15582351,0.26958382,0.004857529,0.0,0.0006714553,0.019521274,0.0,0.0,0.0,0.100137,0,0,0,165,24,0,0,0,0,0,0
18458985,0.268129,0.0012429056,-0.006194234,0.9633624,0.011862239,0.020865671,-0.038037725,0.02710134,-0.03070012,0.44894555,-7.083678e-06,3.1820662e-05,-7.321055e-06,-6.7422174e-05,2.7159206e-07,-0.00060297194,0.35781002,-0.014340232,0.41835296,0.0,0.0,0.0,0.0,0.0,7.714501e-08,0.00020913032,0.0022269138,0.00018218982,8.36741e-05,8.361781e-05,1.3839638e-05,0.01503711,0.015032166,0.012637289,0.012072657,0.012072374,0.07204003,2.3000715e-10,2.3058587e-10,2.4628355e-09,1.5277711e-06,1.5261304e-06,5.0000075e-08,0.0,0.0,0.0,0.0,0.0,0.0,0.0,0.0,531,0.15538672,0.26840273,0.032543268,0.0,0.0006324396,0.0019961374,0.0,0.0,0.0,0.100137,0,0,0,165,24,0,0,0,0,0,0
18658943,0.2693758,0.0005623461,-0.006931462,0.9630101,-0.035042312,-0.032697085,-0.06653009,0.02215838,-0.02354456,0.45433486,-6.711377e-06,3.2814034e-05,-7.041322e-06,-5.6949168e-05,-4.554326e-06,-0.00060837425,0.35781002,-0.014340232,0.41835296,0.0,0.0,0.0,0.0,0.0,7.975957e-08,0.00023780251,0.0024013373,0.00018083888,8.16946e-05,8.163597e-05,1.3882616e-05,0.014458207,0.014459833,0.0125080915,0.011978011,0.011977661,0.07148544,2.0345399e-10,2.0397067e-10,2.3384368e-09,1.5246321e-06,1.5229449e-06,5.000007e-08,0.0,0.0,0.0,0.0,0.0,0.0,0.0,0.0,531,0.1547762,0.2673676,0.0036353783,0.0,0.00047289964,0.015908198,0.0,0.0,0.0,0.100137,0,0,0,165,24,0,0,0,0,0,0
18858965,0.27089056,0.00023038713,-0.004512948,0.9625996,0.0065848194,0.045601327,-0.0045371978,0.017223142,-0.019743169,0.4852917,-6.3262423e-06,3.3596083e-05,-7.3003193e-06,-4.9484006e-05,-1.1673574e-05,-0.00062254333,0.35781002,-0.014340232,0.41835296,0.0,0.0,0.0,0.0,0.0,1.5285815e-07,0.000309602,0.0028445418,0.00017935256,7.953599e-05,7.948535e-05,1.3961375e-05,0.0132920295,0.013285905,0.012286318,0.011321211,0.0113209095,0.069718696,1.7828025e-10,1.7874782e-10,2.2203825e-09,1.5215209e-06,1.5197827e-06,5e-08,0.0,0.0,0.0,0.0,0.0,0.0,0.0,0.0,531,0.15047298,0.26404297,0.004060977,0.0,0.0004041143,0.018296987,0.0,0.0,0.0,0.100137,0,0,0,165,24,0,0,0,0,0,0
19067743,0.27198744,-0.0003586152,-0.004253776,0.9622913,-0.014662843,-0.0035481194,0.038419563,0.013438656,-0.016974034,0.48012882,-6.094741e-06,3.408155e-05,-6.164154e-06,-4.38059e-05,-1.4213647e-05,-0.0006228412,0.35781002,-0.014340232,0.41835296,0.0,0.0,0.0,0.0,0.0,2.1510266e-07,0.0003972471,0.0035281489,0.00017685723,7.803036e-05,7.798085e-05,1.3859501e-05,0.012742422,0.012742064,0.012256633,0.011354671,0.011354396,0.06962687,1.5928207e-10,1.5970597e-10,2.0965072e-09,1.5190767e-06,1.5172927e-06,5e-08,0.0,0.0,0.0,0.0,0.0,0.0,0.0,0.0,531,0.15069528,0.26386905,0.01113008,0.0,0.00034746988,0.021166489,0.0,0.0,0.0,0.100137,0,0,0,165,24,0,0,0,0,0,0
19267743,0.26924786,0.0002434557,-0.0089387065,0.9630294,0.077143446,-0.051801793,-0.02514604,0.008197396,-0.008599629,0.48111182,-5.91809e-06,3.433828e-05,-5.6804333e-06,-4.101284e-05,-1.671259e-05,-0.00062528707,0.35781002,-0.014340232,0.41835296,0.0,0.0,0.0,0.0,0.0,1.9625855e-07,0.0003510997,0.0034583658,0.00017567821,7.6643075e-05,7.657957e-05,1.346528e-05,0.012278103,0.012280316,0.0122213075,0.011210107,0.011209775,0.06922867,1.4296118e-10,1.4335291e-10,1.9912907e-09,1.5169195e-06,1.515089e-06,5e-08,0.0,0.0,0.0,0.0,0.0,0.0,0.0,0.0,531,0.1497327,0.2631134,0.021099072,0.0,0.00017598104,0.010098231,0.0,0.0,0.0,0.100137,0,0,0,165,24,0,0,0,0,0,0
19467796,0.26626715,0.00056414586,-0.009565559,0.96385175,-0.040743917,0.04347572,-0.023345074,0.00471928,-0.003582815,0.48153654,-5.8375826e-06,3.4535027e-05,-4.9698524e-06,-3.8798345e-05,-1.8044468e-05,-0.0006274813,0.35781002,-0.014340232,0.41835296,0.0,0.0,0.0,0.0,0.0,2.1831436e-07,0.00036898247,0.0033020054,0.00017446843,7.5410746e-05,7.53463e-05,1.3039506e-05,0.011739681,0.011737917,0.012186418,0.011050141,0.0110498015,0.06884147,1.2906126e-10,1.2942251e-10,1.8917405e-09,1.5150255e-06,1.513148e-06,5e-08,0.0,0.0,0.0,0.0,0.0,0.0,0.0,0.0,531,0.1486605,0.26237658,0.023521882,0.0,9.653937e-05,0.024357358,0.0,0.0,0.0,0.100137,0,0,0,165,24,0,0,0,0,0,0
19668543,0.27001438,0.0010615252,-0.005576348,0.96283954,-0.043317188,0.11530377,-0.017428027,-0.0029272162,-0.0030114558,0.49657214,-5.75362e-06,3.458148e-05,-5.240695e-06,-3.9038525e-05,-2.0766507e-05,-0.0006352449,0.35781002,-0.014340232,0.41835296,0.0,0.0,0.0,0.0,0.0,1.6949605e-07,0.00033980366,0.0032298889,0.00017251365,7.433799e-05,7.42874e-05,1.3312415e-05,0.011279324,0.011266441,0.01218861,0.010920503,0.010920328,0.06852916,1.1729596e-10,1.1763349e-10,1.7976929e-09,1.5133862e-06,1.5114626e-06,5.000004e-08,0.0,0.0,0.0,0.0,0.0,0.0,0.0,0.0,531,0.14778644,0.26178074,0.0060668234,0.0,7.96932e-05,0.022822428,0.0,0.0,0.0,0.100137,0,0,0,165,24,0,0,0,0,0,0
19869343,0.27095264,2.1098773e-05,-0.0057889223,0.9625754,-0.14057551,-0.015785862,-0.015883673,-0.0065310015,0.0026025076,0.48689297,-5.772877e-06,3.4496745e-05,-4.697004e-06,-3.977476e-05,-2.0093396e-05,-0.00063349574,0.35781002,-0.014340232,0.41835296,0.0,0.0,0.0,0.0,0.0,1.3357801e-07,0.00030766398,0.0030204477,0.00016942961,7.339342e-05,7.334318e-05,1.3166578e-05,0.0108313905,0.010848256,0.012182646,0.010804562,0.010804347,0.068303995,1.0715086e-10,1.07463344e-10,1.6992703e-09,1.5119492e-06,1.5099774e-06,5.0000036e-08,0.0,0.0,0.0,0.0,0.0,0.0,0.0,0.0,531,0.14699969,0.26135033,0.0053745713,0.0,0.00011048769,0.001780642,0.0,0.0,0.0,0.100137,0,0,0,165,24,0,0,0,0,0,0
20069343,0.2747133,-3.2206135e-05,-0.0053086607,0.9615116,-0.01970758,0.07687678,-0.015241484,-0.012687212,0.0061660875,0.4679607,-5.725131e-06,3.4276527e-05,-4.2703477e-06,-4.1825908e-05,-1.9746823e-05,-0.0006286855,0.35781002,-0.014340232,0.41835296,0.0,0.0,0.0,0.0,0.0,1.0554176e-07,0.00026922298,0.0027257814,0.00016744593,7.2563635e-05,7.2514595e-05,1.3403749e-05,0.0104479445,0.010441444,0.012221657,0.01070127,0.01070117,0.068136185,9.841471e-11,9.871061e-11,1.6159155e-09,1.5106854e-06,1.5086678e-06,5.0000036e-08,0.0,0.0,0.0,0.0,0.0,0.0,0.0,0.0,531,0.14629573,0.2610291,0.033866495,0.0,0.0002565446,0.012796085,0.0,0.0,0.0,0.100137,0,0,0,165,24,0,0,0,0,0,0
20269343,0.27630717,-0.00012816077,-0.0069724554,0.96104413,-0.10095686,0.0035039745,-0.025534146,-0.023505466,0.013510638,0.4804312,-5.7811026e-06,3.3967182e-05,-3.9591337e-06,-4.6120964e-05,-2.1064714e-05,-0.0006353706,0.35781002,-0.014340232,0.41835296,0.0,0.0,0.0,0.0,0.0,8.817355e-08,0.00022632116,0.0022249552,0.00016563358,7.1825816e-05,7.177314e-05,1.3428493e-05,0.0100933025,0.010101277,0.012243006,0.010584928,0.010584972,0.067974016,9.0818436e-11,9.1097074e-11,1.53719e-09,1.5095591e-06,1.5074917e-06,5.0000068e-08,0.0,0.0,0.0,0.0,0.0,0.0,0.0,0.0,531,0.1454988,0.26071826,0.023687363,0.0,0.00044454008,0.001158956,0.0,0.0,0.0,0.100137,0,0,0,165,24,0,0,0,0,0,0
20477343,0.28597644,-0.0014340171,-0.007422563,0.9582069,-0.01398693,0.048169482,-0.017907716,-0.02253244,0.016877344,0.48298368,-5.8235705e-06,3.3492666e-05,-3.523616e-06,-5.2051404e-05,-2.2337417e-05,-0.0006383316,0.35781002,-0.014340232,0.41835296,0.0,0.0,0.0,0.0,0.0,9.355873e-08,0.0002374955,0.002310113,0.0001621211,7.101361e-05,7.0959955e-05,1.4168136e-05,0.009536986,0.009534391,0.012204535,0.010163519,0.0101634385,0.06706226,8.337405e-11,8.363691e-11,1.454871e-09,1.5084216e-06,1.5062973e-06,5e-08,0.0,0.0,0.0,0.0,0.0,0.0,0.0,0.0,531,0.14257264,0.25896382,0.026177602,0.0,0.00046009067,0.024207026,0.0,0.0,0.0,0.100137,0,0,0,165,24,0,0,0,0,0,0
20677346,0.29707453,-0.0007229908,-0.0041712304,0.9548449,-0.03393916,0.0317085,-0.0071813543,-0.023998322,0.011664156,0.50994915,-5.852669e-06,3.310368e-05,-2.6090331e-06,-5.7494733e-05,-2.5724248e-05,-0.0006500526,0.35781002,-0.014340232,0.41835296,0.0,0.0,0.0,0.0,0.0,1.0072423e-07,0.0002571159,0.002369344,0.0001593682,7.041185e-05,7.036309e-05,1.5116785e-05,0.009226475,0.0092260195,0.012246338,0.010054306,0.010054479,0.06697719,7.7649186e-11,7.789806e-11,1.3852104e-09,1.5075154e-06,1.5053398e-06,5e-08,0.0,0.0,0.0,0.0,0.0,0.0,0.0,0.0,531,0.14180546,0.25879952,0.031152282,0.0,0.0004899173,0.00443475,0.0,0.0,0.0,0.100137,0,0,0,165,24,0,0,0,0,0,0
20878143,0.30560243,-0.0018747837,-0.0060666837,0.952138,-0.07749945,0.021847341,-0.01122527,-0.020881062,0.014359041,0.52917516,-5.896143e-06,3.276876e-05,-2.3363943e-06,-6.218335e-05,-2.8173845e-05,-0.0006578066,0.35781002,-0.014340232,0.41835296,0.0,0.0,0.0,0.0,0.0,8.044889e-08,0.00023121767,0.0023076972,0.00015681969,6.986606e-05,6.981381e-05,1.5842099e-05,0.008955235,0.008958902,0.012291666,0.009954316,0.0099543035,0.06695124,7.261826e-11,7.285317e-11,1.3194509e-09,1.5066942e-06,1.5044666e-06,5e-08,0.0,0.0,0.0,0.0,0.0,0.0,0.0,0.0,531,0.1410979,0.25874937,0.03493231,0.0,0.00042619367,0.006031038,0.0,0.0,0.0,0.100137,0,0,0,165,24,0,0,0,0,0,0
21086143,0.31153768,-0.0018360218,-0.0065213153,0.9502096,-0.014408224,0.06246613,-0.011732878,-0.023115993,0.015467399,0.5307891,-5.924241e-06,3.2429714e-05,-1.9332867e-06,-6.638817e-05,-2.9354156e-05,-0.0006588483,0.35781002,-0.014340232,0.41835296,0.0,0.0,0.0,0.0,0.0,8.301476e-08,0.00026180607,0.002465906,0.00015372325,6.9391026e-05,6.933687e-05,1.6204418e-05,0.008763989,0.008760336,0.012391762,0.009972727,0.009972772,0.06728405,6.8211145e-11,6.84318e-11,1.2506693e-09,1.5059561e-06,1.5036758e-06,5.0000033e-08,0.0,0.0,0.0,0.0,0.0,0.0,0.0,0.0,531,0.14122853,0.2593917,0.065241545,0.0,0.00046889432,0.0023210344,0.0,0.0,0.0,0.100137,0,0,0,165,24,0,0,0,0,0,0
21286943,0.31610835,-0.0034062825,-0.006982865,0.9486913,-0.029194118,-0.013413468,-0.03459826,-0.021813255,0.014671666,0.52906245,-5.9782715e-06,3.212498e-05,-1.4228572e-06,-7.0218375e-05,-2.9682922e-05,-0.00065875996,0.35781002,-0.014340232,0.41835296,0.0,0.0,0.0,0.0,0.0,1.5677412e-07,0.00035374478,0.0029932468,0.00015161207,6.894704e-05,6.8893765e-05,1.6502338e-05,0.00856692,0.008567775,0.012441577,0.009905722,0.009905757,0.0673496,6.438537e-11,6.459306e-11,1.1924548e-09,1.5053084e-06,1.5029741e-06,5.000009e-08,0.0,0.0,0.0,0.0,0.0,0.0,0.0,0.0,531,0.14075325,0.259518,0.005061484,0.0,0.00043287777,0.049368717,0.0,0.0,0.0,0.100137,0,0,0,165,24,0,0,0,0,0,0
21486956,0.31993848,-0.00235586,-0.004504705,0.9474247,-0.015221517,0.010113746,0.005998167,-0.025451008,0.011830993,0.53783983,-5.9846325e-06,3.1791806e-05,-3.5950455e-07,-7.442324e-05,-3.113531e-05,-0.00066273205,0.35781002,-0.014340232,0.41835296,0.0,0.0,0.0,0.0,0.0,1.8726737e-07,0.00035472537,0.0030926995,0.00014961045,6.8440466e-05,6.8389134e-05,1.6690135e-05,0.008126922,0.00812688,0.012375112,0.009472479,0.009472708,0.06630741,6.063918e-11,6.083542e-11,1.1374776e-09,1.504664e-06,1.5022713e-06,5e-08,0.0,0.0,0.0,0.0,0.0,0.0,0.0,0.0,531,0.13764152,0.25750226,0.017021859,0.0,0.0005189384,0.010147378,0.0,0.0,0.0,0.100137,0,0,0,165,24,0,0,0,0,0,0
21686943,0.3168388,-0.0033336596,-0.007039427,0.9484474,-0.01565411,0.014254882,-0.005946764,-0.016149424,0.012021622,0.52840805,-5.991316e-06,3.154448e-05,7.6084484e-07,-7.7255005e-05,-3.0414381e-05,-0.0006592449,0.35781002,-0.014340232,0.41835296,0.0,0.0,0.0,0.0,0.0,2.0213454e-07,0.00035443634,0.0032306893,0.00014725649,6.809037e-05,6.8036774e-05,1.603432e-05,0.007967672,0.00796744,0.012433994,0.009422481,0.009422463,0.06641069,5.7733714e-11,5.7917365e-11,1.0799402e-09,1.5041459e-06,1.5017017e-06,5e-08,0.0,0.0,0.0,0.0,0.0,0.0,0.0,0.0,531,0.13727689,0.2577027,0.01995375,0.0,0.0003292707,0.023140742,0.0,0.0,0.0,0.100137,0,0,0,165,24,0,0,0,0,0,0
21895743,0.3185578,-0.0018677932,-0.004288369,0.9478919,-0.06199721,0.1023777,-0.014501633,-0.022156436,0.008502693,0.5352976,-5.972822e-06,3.1334675e-05,1.6716883e-06,-8.00253e-05,-3.1007028e-05,-0.00066231936,0.35781002,-0.014340232,0.41835296,0.0,0.0,0.0,0.0,0.0,2.2410963e-07,0.00036197944,0.0032581496,0.00014582273,6.778033e-05,6.772844e-05,1.6041238e-05,0.007872422,0.007865751,0.012537436,0.009467805,0.009467995,0.06686527,5.5142328e-11,5.5315436e-11,1.0312013e-09,1.503647e-06,1.5011532e-06,5.000004e-08,0.0,0.0,0.0,0.0,0.0,0.0,0.0,0.0,531,0.13760741,0.2585832,0.043503877,0.0,0.00044175956,0.010387716,0.0,0.0,0.0,0.100137,0,0,0,165,24,0,0,0,0,0,0
22095750,0.32017073,-0.002590713,-0.0050218785,0.9473431,-0.100802034,0.03146034,-0.009690025,-0.020169925,0.010586799,0.54700714,-5.9761433e-06,3.1111536e-05,2.6379246e-06,-8.2969775e-05,-3.113586e-05,-0.00066696305,0.35781002,-0.014340232,0.41835296,0.0,0.0,0.0,0.0,0.0,1.5486056e-07,0.0002928754,0.0028249645,0.0001440864,6.7495996e-05,6.7444096e-05,1.600092e-05,0.0077333064,0.0077382047,0.012587828,0.009441429,0.0094415005,0.06705196,5.2887028e-11,5.3049964e-11,9.851504e-10,1.5031686e-06,1.500626e-06,5.0000075e-08,0.0,0.0,0.0,0.0,0.0,0.0,0.0,0.0,531,0.13741517,0.25894395,0.016447024,0.0,0.00038404137,0.007857918,0.0,0.0,0.0,0.100137,0,0,0,165,24,0,0,0,0,0,0
22295743,0.3227624,-0.0019595288,-0.0044847815,0.9464674,-0.012670858,0.046930462,-0.0042126346,-0.026027078,0.013418597,0.53654706,-5.965388e-06,3.086966e-05,3.6100007e-06,-8.6192435e-05,-2.9215445e-05,-0.00066304137,0.35781002,-0.014340232,0.41835296,0.0,0.0,0.0,0.0,0.0,1.1363024e-07,0.0002445671,0.0024370588,0.00014127043,6.7234345e-05,6.71815e-05,1.5942542e-05,0.007600208,0.0075977826,0.012644274,0.009408128,0.009408264,0.067219995,5.088195e-11,5.1034704e-11,9.36916e-10,1.5026819e-06,1.500094e-06,5.0000068e-08,0.0,0.0,0.0,0.0,0.0,0.0,0.0,0.0,531,0.13717286,0.2592682,0.050355367,0.0,0.00052704645,0.004481932,0.0,0.0,0.0,0.100137,0,0,0,165,24,0,0,0,0,0,0
22504607,0.32534465,-0.0022470986,-0.005687935,0.9455757,-0.04292155,0.011905961,0.0006502796,-0.025752023,0.0147284055,0.55393296,-5.9791573e-06,3.061679e-05,3.7418276e-06,-8.969493e-05,-2.849901e-05,-0.00066982704,0.35781002,-0.014340232,0.41835296,0.0,0.0,0.0,0.0,0.0,1.0281489e-07,0.00022522743,0.0022259345,0.00013973596,6.693324e-05,6.68788e-05,1.606845e-05,0.007358073,0.007358588,0.01260674,0.009152136,0.009152205,0.066659816,4.8885306e-11,4.902898e-11,8.9601654e-10,1.5021224e-06,1.4994848e-06,5.0000036e-08,0.0,0.0,0.0,0.0,0.0,0.0,0.0,0.0,531,0.13529353,0.25818563,0.025716746,0.0,0.0005170801,0.025577294,0.0,0.0,0.0,0.100137,0,0,0,165,24,0,0,0,0,0,0
22704547,0.33125752,-0.0032953427,-0.0074230293,0.94350547,-0.014985661,0.029260095,0.0022282407,-0.025797868,0.01952993,0.560103,-5.9944173e-06,3.0372186e-05,5.2637406e-06,-9.272092e-05,-2.6421727e-05,-0.0006717839,0.35781002,-0.014340232,0.41835296,0.0,0.0,0.0,0.0,0.0,1.0573242e-07,0.00024424368,0.0022332743,0.0001367243,6.6720044e-05,6.6663495e-05,1.6316973e-05,0.007270854,0.007269648,0.012661799,0.009152214,0.009152117,0.066912346,4.7322608e-11,4.7456726e-11,8.5317126e-10,1.501611e-06,1.498932e-06,5.0000033e-08,0.0,0.0,0.0,0.0,0.0,0.0,0.0,0.0,531,0.1352935,0.2586742,0.04444489,0.0,0.0005220633,0.009280045,0.0,0.0,0.0,0.100137,0,0,0,165,24,0,0,0,0,0,0
22905392,0.33170998,-0.0026820262,-0.0061899177,0.94335735,-0.024331132,0.017563144,-0.0061155246,-0.026723795,0.01720467,0.56070787,-6.019797e-06,3.0136976e-05,6.2958293e-06,-9.570156e-05,-2.3511591e-05,-0.00067178876,0.35781002,-0.014340232,0.41835296,0.0,0.0,0.0,0.0,0.0,8.86355e-08,0.00021670392,0.0022114506,0.00013521808,6.65123e-05,6.645695e-05,1.6150168e-05,0.00717171,0.007171236,0.01270234,0.009123126,0.009123101,0.06710398,4.5897834e-11,4.602371e-11,8.1680096e-10,1.5010767e-06,1.4983592e-06,5.0000036e-08,0.0,0.0,0.0,0.0,0.0,0.0,0.0,0.0,531,0.1350786,0.25904435,0.04679894,0.0,0.0005402965,0.00082615076,0.0,0.0,0.0,0.100137,0,0,0,165,24,0,0,0,0,0,0
23105402,0.33419615,-0.0026542703,-0.006312438,0.94247866,-0.014180711,0.014072334,0.00029783542,-0.022479426,0.016071571,0.548393,-6.036932e-06,2.9934128e-05,6.824623e-06,-9.866139e-05,-1.9909836e-05,-0.0006670034,0.35781002,-0.014340232,0.41835296,0.0,0.0,0.0,0.0,0.0,9.708892e-08,0.00024022309,0.002447395,0.00013350489,6.632729e-05,6.627136e-05,1.6209699e-05,0.007080944,0.0070804004,0.012743804,0.009113719,0.009113595,0.067344494,4.462548e-11,4.474375e-11,7.823728e-10,1.5005375e-06,1.4977859e-06,5.0000068e-08,0.0,0.0,0.0,0.0,0.0,0.0,0.0,0.0,531,0.13500856,0.25950816,0.013413663,0.0,0.00045361667,0.008070985,0.0,0.0,0.0,0.100137,0,0,0,165,24,0,0,0,0,0,0
23313343,0.33613375,-0.003790836,-0.006515585,0.9417842,-0.018985946,-0.0012598638,-0.01358268,-0.017400777,0.0118380375,0.54955053,-6.053914e-06,2.9753292e-05,7.569943e-06,-0.000100968384,-1.7254672e-05,-0.0006673014,0.35781002,-0.014340232,0.41835296,0.0,0.0,0.0,0.0,0.0,1.3127506e-07,0.00027459877,0.0026147026,0.00013126252,6.610324e-05,6.604911e-05,1.613056e-05,0.0068869875,0.006886977,0.01268829,0.008871872,0.008871747,0.06678734,4.332564e-11,4.343575e-11,7.462366e-10,1.4999251e-06,1.497139e-06,5e-08,0.0,0.0,0.0,0.0,0.0,0.0,0.0,0.0,531,0.13320518,0.25843248,0.009737915,0.0,0.00035435893,0.00044030818,0.0,0.0,0.0,0.100137,0,0,0,165,24,0,0,0,0,0,0
23514154,0.33908087,-0.0034032434,-0.008067852,0.9407165,0.026732938,-0.0036405427,0.0015415415,-0.017631056,0.012873874,0.5681815,-6.0595235e-06,2.9606137e-05,8.357795e-06,-0.00010238834,-1.6107326e-05,-0.0006742959,0.35781002,-0.014340232,0.41835296,0.0,0.0,0.0,0.0,0.0,1.2985358e-07,0.00029667345,0.0029336994,0.00012957054,6.5952816e-05,6.589472e-05,1.622103e-05,0.006801933,0.0068022455,0.012717652,0.008851743,0.00885159,0.06697973,4.228923e-11,4.2392662e-11,7.1551215e-10,1.4993878e-06,1.4965758e-06,5.0000036e-08,0.0,0.0,0.0,0.0,0.0,0.0,0.0,0.0,531,0.13305387,0.2588044,0.016493475,0.0,0.00036236484,0.049730223,0.0,0.0,0.0,0.100137,0,0,0,165,24,0,0,0,0,0,0
23714162,0.3405737,-0.002936662,-0.006387693,0.9401915,0.0075998926,-0.0369757,-0.023597557,-0.0127264755,0.0044462876,0.5774491,-6.057723e-06,2.949732e-05,9.387886e-06,-0.000103503924,-1.5010198e-05,-0.00067751994,0.35781002,-0.014340232,0.41835296,0.0,0.0,0.0,0.0,0.0,1.4852213e-07,0.00032104936,0.003144349,0.00012805947,6.58123e-05,6.575617e-05,1.615691e-05,0.006748993,0.0067488425,0.012741941,0.008839494,0.008839438,0.06719587,4.1344147e-11,4.144124e-11,6.8640654e-10,1.4988718e-06,1.4960386e-06,5.000004e-08,0.0,0.0,0.0,0.0,0.0,0.0,0.0,0.0,531,0.13296214,0.25922167,0.013766915,0.0,0.00025982392,0.040244877,0.0,0.0,0.0,0.100137,0,0,0,165,24,0,0,0,0,0,0
23922149,0.3500573,-0.0024376526,-0.0063096075,0.9367039,0.00036462603,-0.024390314,0.018196255,-0.0063542887,0.0009922225,0.57986945,-6.0433604e-06,2.9428176e-05,1.0466665e-05,-0.00010443212,-1.4232908e-05,-0.0006777502,0.35781002,-0.014340232,0.41835296,0.0,0.0,0.0,0.0,0.0,2.0117372e-07,0.00040600952,0.0033200644,0.00012522948,6.569226e-05,6.563359e-05,1.679237e-05,0.0066961152,0.0066961977,0.0128049245,0.00890821,0.008908154,0.06772302,4.0474128e-11,4.0564812e-11,6.558068e-10,1.4983867e-06,1.4955363e-06,5.0000033e-08,0.0,0.0,0.0,0.0,0.0,0.0,0.0,0.0,531,0.13347796,0.26023647,0.037463926,0.0,0.00012973094,0.005914232,0.0,0.0,0.0,0.100137,0,0,0,165,24,0,0,0,0,0,0
24123763,0.3559986,-0.0030163184,-0.0071300077,0.9344544,-0.06761407,0.009321367,0.013972818,-0.008223837,0.002612929,0.5880859,-6.0327307e-06,2.9385415e-05,1.1215608e-05,-0.000104764185,-1.4113343e-05,-0.0006801839,0.35781002,-0.014340232,0.41835296,0.0,0.0,0.0,0.0,0.0,1.7345133e-07,0.00033838654,0.002961133,0.00012332652,6.556538e-05,6.550555e-05,1.7175029e-05,0.006641584,0.0066440585,0.012828268,0.008892737,0.008892681,0.06791675,3.967602e-11,3.9761087e-11,6.2975625e-10,1.4979389e-06,1.4950756e-06,5.000007e-08,0.0,0.0,0.0,0.0,0.0,0.0,0.0,0.0,531,0.13336198,0.26060843,0.004265647,0.0,0.00014536871,0.0050973394,0.0,0.0,0.0,0.100137,0,0,0,165,24,0,0,0,0,0,0
24323746,0.36808017,-0.0029217969,-0.0052283136,0.92977476,0.02508266,0.06763266,0.02709282,-0.009234591,0.002069675,0.5934301,-6.006728e-06,2.9315332e-05,1.2168141e-05,-0.0001058499,-1.3529729e-05,-0.0006812027,0.35781002,-0.014340232,0.41835296,0.0,0.0,0.0,0.0,0.0,1.5032968e-07,0.00033105921,0.0028085497,0.000120842284,6.539056e-05,6.533098e-05,1.8158815e-05,0.006444793,0.0064410926,0.012712876,0.0085824635,0.008582444,0.06697449,3.8847436e-11,3.8927642e-11,6.050187e-10,1.497463e-06,1.4945927e-06,5e-08,0.0,0.0,0.0,0.0,0.0,0.0,0.0,0.0,531,0.13101491,0.2587943,0.03756936,0.0,0.0001879767,0.01690834,0.0,0.0,0.0,0.100137,0,0,0,165,24,0,0,0,0,0,0
24523743,0.3774083,-0.0029144213,-0.003583543,0.9260354,-0.116936386,0.016073128,0.021196242,-0.011615458,0.0019720963,0.5928687,-5.9988533e-06,2.9254257e-05,1.3554749e-05,-0.0001066099,-1.2478058e-05,-0.0006800264,0.35781002,-0.014340232,0.41835296,0.0,0.0,0.0,0.0,0.0,1.4074546e-07,0.00029344755,0.002624168,0.00011866904,6.526512e-05,6.5205575e-05,1.8854425e-05,0.0064126924,0.0064201592,0.01273327,0.008584295,0.0085843075,0.06715207,3.8188314e-11,3.826379e-11,5.815295e-10,1.4970379e-06,1.4941653e-06,5e-08,0.0,0.0,0.0,0.0,0.0,0.0,0.0,0.0,531,0.13102902,0.25913715,0.009429954,0.0,0.00023634775,0.030178625,0.0,0.0,0.0,0.100137,0,0,0,165,24,0,0,0,0,0,0
