timestamp,ref_timestamp,ref_lat,ref_lon,x,y,z,delta_xy[0],delta_xy[1],delta_z,vx,vy,vz,z_deriv,delta_vxy[0],delta_vxy[1],delta_vz,ax,ay,az,yaw,ref_alt,dist_bottom,dist_bottom_rate,eph,epv,evh,evv,vxy_max,vz_max,hagl_min,hagl_max,xy_valid,z_valid,v_xy_valid,v_z_valid,xy_reset_counter,z_reset_counter,vxy_reset_counter,vz_reset_counter,xy_global,z_global,dist_bottom_valid
11247743,0,0.0,0.0,0.0,0.0,0.52296054,3.323168e-05,8.524516e-06,0.0,0.12254531,-0.0718518,-0.08021415,0.01644928,0.008307921,0.0021311291,0.0,-1.3953038,0.060531586,0.085917234,2.840307,0.0,0.15603226,0.08021415,0.1820675,0.36161825,0.27279404,0.26787624,inf,inf,inf,inf,0,1,0,1,1,0,1,1,0,0,0
11343746,0,0.0,0.0,0.0,0.0,0.5161169,3.323168e-05,8.524516e-06,0.0,-0.082585685,-0.03333933,-0.05735745,0.027971009,0.008307921,0.0021311291,0.0,-0.77724594,0.6989217,-1.0332583,2.8385174,0.0,0.16287589,0.05735745,0.17937934,0.35942644,0.25009024,0.26339576,inf,inf,inf,inf,0,1,0,1,1,0,1,1,0,0,0
11448543,0,0.0,0.0,0.0,0.0,0.51440996,3.323168e-05,8.524516e-06,0.0,0.11748308,-0.008938773,-0.07015698,0.011070259,0.008307921,0.0021311291,0.0,5.630281,0.011350089,-0.79174125,2.8366644,0.0,0.16458285,0.07015698,0.17749177,0.35895246,0.24016684,0.25957474,inf,inf,inf,inf,0,1,0,1,1,0,1,1,0,0,0
11552543,0,0.0,0.0,0.0,0.0,0.51664376,3.323168e-05,8.524516e-06,0.0,0.19415487,-0.02004259,-0.06935137,0.012422342,0.008307921,0.0021311291,0.0,-2.2075384,0.3420915,0.12527679,2.8304,0.0,0.16234905,0.06935137,0.17545657,0.3585681,0.24324968,0.25579226,inf,inf,inf,inf,0,1,0,1,1,0,1,1,0,0,0
11648588,0,0.0,0.0,0.0,0.0,0.51758736,3.323168e-05,8.524516e-06,0.0,-0.0005611207,-0.043818094,-0.056562755,0.02431657,0.008307921,0.0021311291,0.0,-0.45759332,0.2601993,0.9466814,2.8256733,0.0,0.16140544,0.056562755,0.17225905,0.35628626,0.25303894,0.25141203,inf,inf,inf,inf,0,1,0,1,1,0,1,1,0,0,0
11752573,0,0.0,0.0,0.0,0.0,0.51843584,3.323168e-05,8.524516e-06,0.0,0.20135091,-0.071818024,-0.059714034,0.019917063,0.008307921,0.0021311291,0.0,1.282683,1.6154443,1.1846007,2.8307981,0.0,0.16055697,0.059714034,0.17146237,0.3556549,0.2715198,0.24763429,inf,inf,inf,inf,0,1,0,1,1,0,1,1,0,0,0
11856585,0,0.0,0.0,0.0,0.0,0.5123962,3.323168e-05,8.524516e-06,0.0,0.22223185,0.09193378,-0.044453844,0.026176028,0.008307921,0.0021311291,0.0,-0.95475924,0.21851204,-0.06604827,2.8182745,0.0,0.16659659,0.044453844,0.17196354,0.35494763,0.29382733,0.24391098,inf,inf,inf,inf,0,1,0,1,1,0,1,1,0,0,0
11953346,0,0.0,0.0,0.0,0.0,0.5009237,3.323168e-05,8.524516e-06,0.0,0.15835488,-0.010417595,-0.06500773,-0.00684583,0.008307921,0.0021311291,0.0,-0.3986466,-4.0671,1.354785,2.809843,0.0,0.17806911,0.06500773,0.17237364,0.35264802,0.31333604,0.23980017,inf,inf,inf,inf,0,1,0,1,1,0,1,1,0,0,0
12057349,0,0.0,0.0,0.0,0.0,0.49107713,3.323168e-05,8.524516e-06,0.0,0.14776088,-0.14824595,-0.07517757,-0.023733448,0.008307921,0.0021311291,0.0,-0.915682,0.22769554,0.069965474,2.8082125,0.0,0.18791568,0.07517757,0.17091182,0.34682554,0.32959196,0.2336624,inf,inf,inf,inf,0,1,0,1,1,0,1,1,0,0,0
12161377,0,0.0,0.0,0.0,0.0,0.48428914,3.323168e-05,8.524516e-06,0.0,0.09071069,-0.081505805,-0.09735176,-0.047476135,0.008307921,0.0021311291,0.0,0.38589925,1.0172192,-0.12475974,2.8094106,0.0,0.19470367,0.09735176,0.17516287,0.34612572,0.34768513,0.2301798,inf,inf,inf,inf,0,1,0,1,1,0,1,1,0,0,0
12257397,0,0.0,0.0,0.0,0.0,0.4856872,3.323168e-05,8.524516e-06,0.0,0.17245379,0.032968793,-0.0916448,-0.037618633,0.008307921,0.0021311291,0.0,1.4757818,0.38181743,-1.179438,2.8021097,0.0,0.19330561,0.0916448,0.17802644,0.34392762,0.35731417,0.22626805,inf,inf,inf,inf,0,1,0,1,1,0,1,1,0,0,0
12361387,0,0.0,0.0,0.0,0.0,0.48305616,3.323168e-05,8.524516e-06,0.0,0.10764425,-0.021809915,-0.07435796,-0.019905284,0.008307921,0.0021311291,0.0,-1.5170807,-0.40721667,0.1370417,2.798456,0.0,0.19593665,0.07435796,0.1828561,0.34319025,0.36400077,0.22287282,inf,inf,inf,inf,0,1,0,1,1,0,1,1,0,0,0
12465393,0,0.0,0.0,0.0,0.0,0.47571552,3.323168e-05,8.524516e-06,0.0,0.014175835,-0.0692671,-0.09639095,-0.046223573,0.008307921,0.0021311291,0.0,0.9097067,-0.3788637,-0.58973414,2.795903,0.0,0.20327729,0.09639095,0.18727925,0.34240818,0.36675236,0.21958297,inf,inf,inf,inf,0,1,0,1,1,0,1,1,0,0,0
12562180,0,0.0,0.0,0.0,0.0,0.47035742,3.323168e-05,8.524516e-06,0.0,0.11156228,-0.059544813,-0.072769225,-0.023179948,0.008307921,0.0021311291,0.0,-0.4250485,1.2759929,0.39176786,2.7989748,0.0,0.20863539,0.072769225,0.18843924,0.3400799,0.36121756,0.21579058,inf,inf,inf,inf,0,1,0,1,1,0,1,1,0,0,0
12666179,0,0.0,0.0,0.0,0.0,0.4620702,3.323168e-05,8.524516e-06,0.0,0.025113383,0.08875438,-0.076806396,-0.032170177,0.008307921,0.0021311291,0.0,0.3911467,-0.6330348,-0.5009207,2.792449,0.0,0.21692261,0.076806396,0.19199921,0.33951038,0.35700879,0.21267475,inf,inf,inf,inf,0,1,0,1,1,0,1,1,0,0,0
12770194,0,0.0,0.0,0.0,0.0,0.45197085,3.323168e-05,8.524516e-06,0.0,0.048442855,-0.014211618,-0.08374499,-0.044720754,0.008307921,0.0021311291,0.0,0.3696108,-0.63917965,-0.48215666,2.7824497,0.0,0.22702196,0.08374499,0.19407973,0.33869785,0.34768796,0.20954812,inf,inf,inf,inf,0,1,0,1,1,0,1,1,0,0,0
12874218,0,0.0,0.0,0.0,0.0,0.4427325,3.323168e-05,8.524516e-06,0.0,-0.043660067,-0.08071792,-0.10047252,-0.062379345,0.008307921,0.0021311291,0.0,-2.1169584,0.14451769,1.3877566,2.7770808,0.0,0.2362603,0.10047252,0.18879578,0.3332823,0.32893685,0.20446764,inf,inf,inf,inf,0,1,0,1,1,0,1,1,0,0,0
12970945,0,0.0,0.0,0.0,0.0,0.43891284,3.323168e-05,8.524516e-06,0.0,-0.03955451,0.07715151,-0.12529767,-0.08625544,0.008307921,0.0021311291,0.0,1.2967979,0.31068814,-1.2264825,2.764303,0.0,0.24007997,0.12529767,0.18753286,0.33124232,0.31602487,0.20118468,inf,inf,inf,inf,0,1,0,1,1,0,1,1,0,0,0
13074943,0,0.0,0.0,0.0,0.0,0.43601954,3.323168e-05,8.524516e-06,0.0,0.12106743,0.055835832,-0.09842281,-0.056268767,0.008307921,0.0021311291,0.0,-0.6517927,-0.69866294,-1.6625822,2.7467597,0.0,0.24297327,0.09842281,0.18826874,0.33075187,0.30374217,0.1983701,inf,inf,inf,inf,0,1,0,1,1,0,1,1,0,0,0
13170943,0,0.0,0.0,0.0,0.0,0.4325725,3.323168e-05,8.524516e-06,0.0,-0.08398546,-0.032832824,-0.11145423,-0.068007864,0.008307921,0.0021311291,0.0,-2.5237367,-2.314578,-0.5946942,2.734518,0.0,0.2464203,0.11145423,0.18590327,0.3286984,0.2898724,0.19524178,inf,inf,inf,inf,0,1,0,1,1,0,1,1,0,0,0
13274943,0,0.0,0.0,0.0,0.0,0.43262786,3.323168e-05,8.524516e-06,0.0,-0.06084091,-0.10081642,-0.11820322,-0.06851292,0.008307921,0.0021311291,0.0,1.335627,-0.9495212,0.903624,2.734695,0.0,0.24636495,0.11820322,0.18528777,0.32799375,0.27726212,0.19254151,inf,inf,inf,inf,0,1,0,1,1,0,1,1,0,0,0
13379002,0,0.0,0.0,0.0,0.0,0.42947897,3.323168e-05,8.524516e-06,0.0,-0.0046029026,0.029425697,-0.09718703,-0.04562896,0.008307921,0.0021311291,0.0,-1.6777169,0.8604942,0.8021436,2.7299764,0.0,0.24951383,0.09718703,0.18406399,0.32719377,0.26468092,0.18978038,inf,inf,inf,inf,0,1,0,1,1,0,1,1,0,0,0
13475743,0,0.0,0.0,0.0,0.0,0.4299597,3.323168e-05,8.524516e-06,0.0,-0.07187036,0.0027326257,-0.102948286,-0.047810506,0.008307921,0.0021311291,0.0,-0.9220698,-1.8997681,0.16159464,2.7303042,0.0,0.2490331,0.102948286,0.1808277,0.3250804,0.25120267,0.18678866,inf,inf,inf,inf,0,1,0,1,1,0,1,1,0,0,0
13579743,0,0.0,0.0,0.0,0.0,0.42689142,3.323168e-05,8.524516e-06,0.0,-0.04470394,-0.0482712,-0.08318037,-0.026688466,0.008307921,0.0021311291,0.0,-0.88945353,0.1570426,0.15719321,2.7232287,0.0,0.2521014,0.08318037,0.17946629,0.3243099,0.2398595,0.18424317,inf,inf,inf,inf,0,1,0,1,1,0,1,1,0,0,0
13683745,0,0.0,0.0,0.0,0.0,0.42842847,3.323168e-05,8.524516e-06,0.0,-0.118145816,-0.0077567496,-0.11245968,-0.052275598,0.008307921,0.0021311291,0.0,0.5342662,-0.8399862,-0.20115182,2.7314696,0.0,0.25056434,0.11245968,0.17807576,0.32362932,0.22931476,0.18170683,inf,inf,inf,inf,0,1,0,1,1,0,1,1,0,0,0
13779743,0,0.0,0.0,0.0,0.0,0.4260858,3.323168e-05,8.524516e-06,0.0,-0.047590867,0.0056757857,-0.09326444,-0.03213174,0.008307921,0.0021311291,0.0,-0.44027093,-0.106938116,-0.02661419,2.730509,0.0,0.252907,0.09326444,0.1748582,0.3215778,0.21812889,0.17890537,inf,inf,inf,inf,0,1,0,1,1,0,1,1,0,0,0
13884543,0,0.0,0.0,0.0,0.0,0.42022473,3.323168e-05,8.524516e-06,0.0,-0.27957147,0.12171242,-0.08949203,-0.03204691,0.008307921,0.0021311291,0.0,-0.75738126,-0.49896148,0.17499639,2.7268777,0.0,0.25876808,0.08949203,0.17309232,0.3207159,0.20883454,0.17647386,inf,inf,inf,inf,0,1,0,1,1,0,1,1,0,0,0
13988555,0,0.0,0.0,0.0,0.0,0.4183372,3.323168e-05,8.524516e-06,0.0,-0.20941606,0.023509402,-0.089001134,-0.031213004,0.008307921,0.0021311291,0.0,2.7288723,-1.1149251,-0.3587715,2.7317123,0.0,0.2606556,0.089001134,0.17123683,0.319815,0.19986203,0.17409262,inf,inf,inf,inf,0,1,0,1,1,0,1,1,0,0,0
14084603,0,0.0,0.0,0.0,0.0,0.41748625,3.323168e-05,8.524516e-06,0.0,-0.15927592,0.02779069,-0.09256252,-0.032613307,0.008307921,0.0021311291,0.0,0.4391704,0.66722256,0.20951381,2.7253573,0.0,0.26150656,0.09256252,0.16818187,0.31785038,0.19123127,0.17147529,inf,inf,inf,inf,0,1,0,1,1,0,1,1,0,0,0
14188607,0,0.0,0.0,0.0,0.0,0.41565332,3.323168e-05,8.524516e-06,0.0,-0.16987097,0.08956191,-0.092159666,-0.03153098,0.008307921,0.0021311291,0.0,0.05820672,-0.11870288,0.046677876,2.7293868,0.0,0.2633395,0.092159666,0.1663371,0.31690794,0.18366526,0.16913167,inf,inf,inf,inf,0,1,0,1,1,0,1,1,0,0,0
14292543,0,0.0,0.0,0.0,0.0,0.41525462,3.323168e-05,8.524516e-06,0.0,-0.1826688,0.050816484,-0.0849291,-0.022514673,0.008307921,0.0021311291,0.0,0.0152574,-0.8027508,-0.0017603905,2.73475,0.0,0.2637382,0.0849291,0.16468777,0.31602237,0.17711616,0.16693752,inf,inf,inf,inf,0,1,0,1,1,0,1,1,0,0,0
14396549,0,0.0,0.0,0.0,0.0,0.41774362,3.323168e-05,8.524516e-06,0.0,-0.083488464,-0.04211293,-0.08230328,-0.015663883,0.008307921,0.0021311291,0.0,2.1961982,-1.4771823,-0.064877465,2.7468674,0.0,0.26124918,0.08230328,0.1588575,0.31127024,0.16799396,0.16331553,inf,inf,inf,inf,0,1,0,1,1,0,1,1,0,0,0
14500544,0,0.0,0.0,0.0,0.0,0.41803125,3.323168e-05,8.524516e-06,0.0,0.07937197,-0.043683987,-0.068319485,0.00054162624,0.008307921,0.0021311291,0.0,0.27844635,0.34581122,0.4600482,2.747775,0.0,0.26096156,0.068319485,0.15743147,0.31041563,0.1630914,0.16121149,inf,inf,inf,inf,0,1,0,1,1,0,1,1,0,0,0
14596543,0,0.0,0.0,0.0,0.0,0.41870677,3.323168e-05,8.524516e-06,0.0,-0.03805109,0.03967235,-0.084937,-0.01524426,0.008307921,0.0021311291,0.0,0.1091481,-1.1370584,-0.068912745,2.7518475,0.0,0.26028603,0.084937,0.1588594,0.31221744,0.16122586,0.16030228,inf,inf,inf,inf,0,1,0,1,1,0,1,1,0,0,0
14701379,0,0.0,0.0,0.0,0.0,0.42206118,3.323168e-05,8.524516e-06,0.0,0.032441787,-0.045516856,-0.07605782,-0.0025313832,0.008307921,0.0021311291,0.0,0.67465,-1.6077049,0.016139591,2.747633,0.0,0.25693163,0.07605782,0.1536104,0.30756807,0.15483308,0.15691617,inf,inf,inf,inf,0,1,0,1,1,0,1,1,0,0,0
14798271,0,0.0,0.0,0.0,0.0,0.4233831,3.323168e-05,8.524516e-06,0.0,-0.018185116,-0.029939815,-0.089411356,-0.014427818,0.008307921,0.0021311291,0.0,0.13608436,0.048786372,-1.0754069,2.7432384,0.0,0.25560972,0.089411356,0.15146415,0.30568776,0.15162331,0.15470956,inf,inf,inf,inf,0,1,0,1,1,0,1,1,0,0,0
14902198,0,0.0,0.0,0.0,0.0,0.4276778,3.323168e-05,8.524516e-06,0.0,-0.031854432,-0.043223668,-0.07316644,0.0055139423,0.008307921,0.0021311291,0.0,0.8682501,-0.35973847,-0.650813,2.7487311,0.0,0.251315,0.07316644,0.15061684,0.30500424,0.14984268,0.15285654,inf,inf,inf,inf,0,1,0,1,1,0,1,1,0,0,0
15006189,0,0.0,0.0,0.0,0.0,0.4345253,3.323168e-05,8.524516e-06,0.0,0.039894633,0.0026855317,-0.08311009,0.00090158137,0.008307921,0.0021311291,0.0,1.0874757,1.6753043,-1.2282755,2.7433622,0.0,0.2444675,0.08311009,0.14981817,0.30428788,0.14863336,0.15102145,inf,inf,inf,inf,0,1,0,1,1,0,1,1,0,0,0
15110180,0,0.0,0.0,0.0,0.0,0.4459073,3.323168e-05,8.524516e-06,0.0,0.028172305,0.03685942,-0.03717298,0.055035368,0.008307921,0.0021311291,0.0,-0.9133043,0.5471148,1.2849811,2.7325416,0.0,0.23308551,0.03717298,0.14908761,0.30349052,0.14827177,0.14924902,inf,inf,inf,inf,0,1,0,1,1,0,1,1,0,0,0
15214177,0,0.0,0.0,0.0,0.0,0.4530156,3.323168e-05,8.524516e-06,0.0,-0.025077337,-0.08045138,-0.078393005,0.016620675,0.008307921,0.0021311291,0.0,0.5225378,-0.06711165,0.6470728,2.7394152,0.0,0.22597721,0.078393005,0.14842111,0.30265114,0.1484466,0.14752676,inf,inf,inf,inf,0,1,0,1,1,0,1,1,0,0,0
15310151,0,0.0,0.0,0.0,0.0,0.45567364,3.323168e-05,8.524516e-06,0.0,0.038685143,-0.04833633,-0.058154464,0.035542317,0.008307921,0.0021311291,0.0,0.4256751,1.9514824,-0.17260468,2.7318714,0.0,0.22331917,0.058154464,0.147007,0.30085292,0.14855316,0.14556429,inf,inf,inf,inf,0,1,0,1,1,0,1,1,0,0,0
15414145,0,0.0,0.0,0.0,0.0,0.45741513,3.323168e-05,8.524516e-06,0.0,0.03778531,0.0064914105,-0.057193547,0.033476237,0.008307921,0.0021311291,0.0,0.5140528,-0.60366875,-0.072148524,2.7284021,0.0,0.22157767,0.057193547,0.14672832,0.3000557,0.15005945,0.14387436,inf,inf,inf,inf,0,1,0,1,1,0,1,1,0,0,0
15518145,0,0.0,0.0,0.0,0.0,0.46139055,3.323168e-05,8.524516e-06,0.0,0.053292684,-0.038646232,-0.056553643,0.03371452,0.008307921,0.0021311291,0.0,-0.42819053,-0.081893325,0.61005384,2.7181182,0.0,0.21760225,0.056553643,0.14361688,0.29598927,0.14996354,0.14118095,inf,inf,inf,inf,0,1,0,1,1,0,1,1,0,0,0
15614143,0,0.0,0.0,0.0,0.0,0.46754837,3.323168e-05,8.524516e-06,0.0,0.04877813,-0.02636685,-0.038117763,0.054033346,0.008307921,0.0021311291,0.0,0.0043203384,-0.0843882,0.82025945,2.7047725,0.0,0.21144444,0.038117763,0.14287874,0.29434678,0.15171608,0.13943656,inf,inf,inf,inf,0,1,0,1,1,0,1,1,0,0,0
15718143,0,0.0,0.0,0.0,0.0,0.47144434,3.323168e-05,8.524516e-06,0.0,0.097711526,-0.0750746,-0.08324293,0.008708609,0.008307921,0.0021311291,0.0,-0.4421192,-0.27913165,-0.1761763,2.6903167,0.0,0.20754847,0.08324293,0.14321779,0.2936365,0.15471672,0.13792783,inf,inf,inf,inf,0,1,0,1,1,0,1,1,0,0,0
15822943,0,0.0,0.0,0.0,0.0,0.47061738,3.323168e-05,8.524516e-06,0.0,-0.09721778,0.1099343,-0.006765039,0.081580594,0.008307921,0.0021311291,0.0,-0.23118551,2.7457335,0.50852215,2.679727,0.0,0.20837542,0.006765039,0.14374405,0.29292765,0.15814948,0.1364728,inf,inf,inf,inf,0,1,0,1,1,0,1,1,0,0,0
15918960,0,0.0,0.0,0.0,0.0,0.47596696,3.323168e-05,8.524516e-06,0.0,-0.12724839,0.25163448,-0.05390207,0.033292294,0.008307921,0.0021311291,0.0,2.3166614,2.461909,0.92540807,2.650342,0.0,0.20302585,0.05390207,0.14357865,0.29140487,0.16114096,0.13483723,inf,inf,inf,inf,0,1,0,1,1,0,1,1,0,0,0
16022943,0,0.0,0.0,0.0,0.0,0.4790563,3.323168e-05,8.524516e-06,0.0,0.009995178,-0.024426876,-0.07795796,0.0066983984,0.008307921,0.0021311291,0.0,-0.8388893,-1.0742806,-0.8006478,2.6498926,0.0,0.19993651,0.07795796,0.14439723,0.29068354,0.16371395,0.1335751,inf,inf,inf,inf,0,1,0,1,1,0,1,1,0,0,0
16126943,0,0.0,0.0,0.0,0.0,0.47485343,3.323168e-05,8.524516e-06,0.0,-0.06620289,-0.03572057,-0.057826046,0.019829134,0.008307921,0.0021311291,0.0,-1.9049324,0.04036433,-0.8689816,2.6434047,0.0,0.20413938,0.057826046,0.145435,0.2899925,0.16738532,0.13227083,inf,inf,inf,inf,0,1,0,1,1,0,1,1,0,0,0
16222989,0,0.0,0.0,0.0,0.0,0.46855924,3.323168e-05,8.524516e-06,0.0,-0.078307964,0.09637507,-0.0053645642,0.063290976,0.008307921,0.0021311291,0.0,0.93003684,2.2390676,1.1135658,2.6368778,0.0,0.21043357,0.0053645642,0.14556201,0.28842568,0.17054993,0.13060297,inf,inf,inf,inf,0,1,0,1,1,0,1,1,0,0,0
16327746,0,0.0,0.0,0.0,0.0,0.4649788,3.323168e-05,8.524516e-06,0.0,-0.020471143,0.10016977,-0.03055287,0.032329656,0.008307921,0.0021311291,0.0,2.3249133,-1.0649695,0.90335405,2.6298213,0.0,0.214014,0.03055287,0.14682068,0.28773284,0.17400634,0.12936774,inf,inf,inf,inf,0,1,0,1,1,0,1,1,0,0,0
16431765,0,0.0,0.0,0.0,0.0,0.46254805,3.323168e-05,8.524516e-06,0.0,-0.030392967,0.007996111,-0.05044429,0.009138805,0.008307921,0.0021311291,0.0,0.4627876,-0.36151633,0.4605937,2.628272,0.0,0.21644476,0.05044429,0.14828093,0.2871335,0.17736955,0.12827437,inf,inf,inf,inf,0,1,0,1,1,0,1,1,0,0,0
16527743,0,0.0,0.0,0.0,0.0,0.46212444,3.323168e-05,8.524516e-06,0.0,-0.049915966,0.03899915,-0.043822527,0.015170298,0.008307921,0.0021311291,0.0,0.7803442,0.47156474,1.0843141,2.6359696,0.0,0.21686837,0.043822527,0.14862663,0.28561947,0.1792604,0.12688331,inf,inf,inf,inf,0,1,0,1,1,0,1,1,0,0,0
16631743,0,0.0,0.0,0.0,0.0,0.4667581,3.323168e-05,8.524516e-06,0.0,-0.04792109,-0.070082486,-0.052102685,0.008569271,0.008307921,0.0021311291,0.0,0.5743205,-2.9530594,-0.16094443,2.6476655,0.0,0.2122347,0.052102685,0.15028389,0.28502095,0.18225685,0.12575695,inf,inf,inf,inf,0,1,0,1,1,0,1,1,0,0,0
16735747,0,0.0,0.0,0.0,0.0,0.46648973,3.323168e-05,8.524516e-06,0.0,0.039957233,-0.25118405,-0.044724036,0.013484936,0.008307921,0.0021311291,0.0,-0.13212846,-0.22086371,-0.042433485,2.6578038,0.0,0.21250308,0.044724036,0.14860371,0.28161037,0.18172754,0.12388215,inf,inf,inf,inf,0,1,0,1,1,0,1,1,0,0,0
16832543,0,0.0,0.0,0.0,0.0,0.46283707,3.323168e-05,8.524516e-06,0.0,0.06476756,-0.030465871,-0.052686863,0.0013442403,0.008307921,0.0021311291,0.0,1.5820646,-0.2728196,0.3057494,2.6603265,0.0,0.21615574,0.052686863,0.14919522,0.28029904,0.18386613,0.122702874,inf,inf,inf,inf,0,1,0,1,1,0,1,1,0,0,0
16936543,0,0.0,0.0,0.0,0.0,0.45691726,3.323168e-05,8.524516e-06,0.0,0.13776164,0.018150248,-0.032861255,0.014225834,0.008307921,0.0021311291,0.0,0.95136887,1.1526562,-1.639246,2.661417,0.0,0.22207555,0.032861255,0.1509358,0.2798264,0.18582115,0.12181852,inf,inf,inf,inf,0,1,0,1,1,0,1,1,0,0,0
17040546,0,0.0,0.0,0.0,0.0,0.4505098,3.323168e-05,8.524516e-06,0.0,0.058564134,-0.14490636,-0.074022084,-0.03324739,0.008307921,0.0021311291,0.0,-0.41320753,-3.2058449,-1.1351054,2.660673,0.0,0.22848302,0.074022084,0.15283681,0.27946746,0.18785681,0.121064246,inf,inf,inf,inf,0,1,0,1,1,0,1,1,0,0,0
17136543,0,0.0,0.0,0.0,0.0,0.44418868,3.323168e-05,8.524516e-06,0.0,0.06126422,-0.19644088,-0.057600055,-0.021506242,0.008307921,0.0021311291,0.0,1.0035902,0.030852227,-3.2676299,2.6646042,0.0,0.23480412,0.057600055,0.15334669,0.2782625,0.18781741,0.120123,inf,inf,inf,inf,0,1,0,1,1,0,1,1,0,0,0
17240543,0,0.0,0.0,0.0,0.0,0.43304121,3.323168e-05,8.524516e-06,0.0,0.1191108,-0.021425819,-0.044335414,-0.0164893,0.008307921,0.0021311291,0.0,1.8925481,0.25693566,-1.0074536,2.6651616,0.0,0.2459516,0.044335414,0.15490235,0.2778434,0.18963045,0.11930062,inf,inf,inf,inf,0,1,0,1,1,0,1,1,0,0,0
17344543,0,0.0,0.0,0.0,0.0,0.422712,3.323168e-05,8.524516e-06,0.0,0.1558894,-0.1193898,-0.079030596,-0.058564965,0.008307921,0.0021311291,0.0,-0.45171252,-1.669192,-0.2545808,2.6615975,0.0,0.2562808,0.079030596,0.15637179,0.2774417,0.18990554,0.11862934,inf,inf,inf,inf,0,1,0,1,1,0,1,1,0,0,0
17441346,0,0.0,0.0,0.0,0.0,0.417609,3.323168e-05,8.524516e-06,0.0,0.06678579,-0.15493977,-0.055987656,-0.035616666,0.008307921,0.0021311291,0.0,-0.20022257,0.9849662,0.26688895,2.657886,0.0,0.2613838,0.055987656,0.15630832,0.2762388,0.18876272,0.117865264,inf,inf,inf,inf,0,1,0,1,1,0,1,1,0,0,0
17545435,0,0.0,0.0,0.0,0.0,0.41756445,3.323168e-05,8.524516e-06,0.0,0.11852111,-0.08416562,-0.056594618,-0.031220747,0.008307921,0.0021311291,0.0,1.0870296,0.8950813,1.1948811,2.6546748,0.0,0.26142836,0.056594618,0.15736657,0.2758292,0.18881255,0.11718027,inf,inf,inf,inf,0,1,0,1,1,0,1,1,0,0,0
17649392,0,0.0,0.0,0.0,0.0,0.4185344,3.323168e-05,8.524516e-06,0.0,0.16428305,-0.047807526,-0.06619121,-0.03584737,0.008307921,0.0021311291,0.0,-0.41742492,-0.6129895,-0.090579025,2.639964,0.0,0.2604584,0.06619121,0.1545922,0.27293065,0.185162,0.115864776,inf,inf,inf,inf,0,1,0,1,1,0,1,1,0,0,0
17745366,0,0.0,0.0,0.0,0.0,0.41931468,3.323168e-05,8.524516e-06,0.0,0.019430002,-0.07475963,-0.040538125,-0.007870242,0.008307921,0.0021311291,0.0,-2.0418842,-1.3761789,-0.48246947,2.6316361,0.0,0.25967813,0.040538125,0.15425178,0.27182353,0.18369749,0.11524262,inf,inf,inf,inf,0,1,0,1,1,0,1,1,0,0,0
17850146,0,0.0,0.0,0.0,0.0,0.41892177,3.323168e-05,8.524516e-06,0.0,0.09615043,-0.1525353,-0.052580018,-0.016389411,0.008307921,0.0021311291,0.0,2.1334252,0.34191483,1.7812515,2.629709,0.0,0.26007104,0.052580018,0.15492134,0.27146783,0.18261734,0.114751585,inf,inf,inf,inf,0,1,0,1,1,0,1,1,0,0,0
17954149,0,0.0,0.0,0.0,0.0,0.419865,3.323168e-05,8.524516e-06,0.0,0.097715475,-0.023433786,-0.03957751,-0.0013113943,0.008307921,0.0021311291,0.0,0.36795056,0.99667275,0.0027177532,2.6205993,0.0,0.2591278,0.03957751,0.15541448,0.2711142,0.18164153,0.11424654,inf,inf,inf,inf,0,1,0,1,1,0,1,1,0,0,0
18050153,0,0.0,0.0,0.0,0.0,0.41889468,3.323168e-05,8.524516e-06,0.0,0.107929215,-0.045857247,-0.04528101,-0.006507524,0.008307921,0.0021311291,0.0,0.60865986,-2.1158764,-0.2476989,2.6092935,0.0,0.26009813,0.04528101,0.15484335,0.2701201,0.17934047,0.11372909,inf,inf,inf,inf,0,1,0,1,1,0,1,1,0,0,0
18154157,0,0.0,0.0,0.0,0.0,0.4219048,3.323168e-05,8.524516e-06,0.0,0.07194192,-0.13317172,-0.06739868,-0.023813285,0.008307921,0.0021311291,0.0,0.21177025,-0.5699761,-0.9850153,2.6038454,0.0,0.257088,0.06739868,0.15532425,0.26983094,0.17850551,0.113403864,inf,inf,inf,inf,0,1,0,1,1,0,1,1,0,0,0
18258158,0,0.0,0.0,0.0,0.0,0.4265024,3.323168e-05,8.524516e-06,0.0,0.015989764,-0.036445573,-0.044221528,0.004811225,0.008307921,0.0021311291,0.0,0.01295548,0.2711543,-0.3619362,2.5996544,0.0,0.2524904,0.044221528,0.15582351,0.26958382,0.17692703,0.11308972,inf,inf,inf,inf,0,1,0,1,1,0,1,1,0,0,0
18354146,0,0.0,0.0,0.0,0.0,0.43154216,3.323168e-05,8.524516e-06,0.0,0.086091824,-0.03308474,-0.05089262,0.0032168706,0.008307921,0.0021311291,0.0,0.94028825,-1.0946163,0.87166744,2.5951724,0.0,0.24745065,0.05089262,0.15506028,0.26861915,0.17488389,0.112612166,inf,inf,inf,inf,0,1,0,1,1,0,1,1,0,0,0
18458985,0,0.0,0.0,0.0,0.0,0.4361661,3.323168e-05,8.524516e-06,0.0,-0.017627036,-0.057173155,-0.049680308,0.0075369542,0.008307921,0.0021311291,0.0,-0.789751,0.63748544,0.55099785,2.5927498,0.0,0.2428267,0.049680308,0.15538672,0.26840273,0.17340495,0.1124157,inf,inf,inf,inf,0,1,0,1,1,0,1,1,0,0,0
18563002,0,0.0,0.0,0.0,0.0,0.43775183,3.323168e-05,8.524516e-06,0.0,0.030619621,-0.046000466,-0.045578968,0.012362198,0.008307921,0.0021311291,0.0,1.7919246,0.9740962,0.9053933,2.597845,0.0,0.24124098,0.045578968,0.15575746,0.26827726,0.17202947,0.112242244,inf,inf,inf,inf,0,1,0,1,1,0,1,1,0,0,0
18658943,0,0.0,0.0,0.0,0.0,0.4414475,3.323168e-05,8.524516e-06,0.0,0.04888931,-0.017008143,-0.038081586,0.022381824,0.008307921,0.0021311291,0.0,-1.5739497,2.195717,1.8578725,2.5990584,0.0,0.23754531,0.038081586,0.1547762,0.2673676,0.17005305,0.11183958,inf,inf,inf,inf,0,1,0,1,1,0,1,1,0,0,0
18762955,0,0.0,0.0,0.0,0.0,0.44759017,3.323168e-05,8.524516e-06,0.0,0.016922362,-0.0040158434,-0.061036292,0.0022812393,0.008307921,0.0021311291,0.0,-0.5467111,-2.2538893,0.86110294,2.5966926,0.0,0.23140264,0.061036292,0.15500708,0.2672252,0.16832842,0.111749,inf,inf,inf,inf,0,1,0,1,1,0,1,1,0,0,0
18866943,0,0.0,0.0,0.0,0.0,0.4551781,3.323168e-05,8.524516e-06,0.0,0.039271716,-0.035586827,0.0060407827,0.07549111,0.008307921,0.0021311291,0.0,-0.82737553,0.9418842,2.6432664,2.5969868,0.0,0.2238147,-0.0060407827,0.15156992,0.26475134,0.1638763,0.1110337,inf,inf,inf,inf,0,1,0,1,1,0,1,1,0,0,0
18970943,0,0.0,0.0,0.0,0.0,0.46594322,3.323168e-05,8.524516e-06,0.0,-0.06538075,0.0496435,-0.024236664,0.050056912,0.008307921,0.0021311291,0.0,1.59,0.3083426,0.9217492,2.6015728,0.0,0.21304959,0.024236664,0.15172857,0.26466137,0.16285105,0.11092634,inf,inf,inf,inf,0,1,0,1,1,0,1,1,0,0,0
19067743,0,0.0,0.0,0.0,0.0,0.47183675,3.323168e-05,8.524516e-06,0.0,0.063714385,-0.004809236,0.0004088296,0.07558855,0.008307921,0.0021311291,0.0,0.13569942,-2.226912,0.3126831,2.596805,0.0,0.20715606,-0.0004088296,0.15069528,0.26386905,0.15963861,0.110709675,inf,inf,inf,inf,0,1,0,1,1,0,1,1,0,0,0
19171743,0,0.0,0.0,0.0,0.0,0.47579995,3.323168e-05,8.524516e-06,0.0,-0.025010249,0.00021691599,-0.054276664,0.02007664,0.008307921,0.0021311291,0.0,-0.340015,0.04785102,0.431086,2.6013398,0.0,0.20319286,0.054276664,0.15073216,0.2638042,0.15877368,0.11069846,inf,inf,inf,inf,0,1,0,1,1,0,1,1,0,0,0
19267743,0,0.0,0.0,0.0,0.0,0.47919413,3.323168e-05,8.524516e-06,0.0,-0.03924655,0.02429687,0.013509189,0.08536013,0.008307921,0.0021311291,0.0,-0.31210914,1.0714984,0.38591114,2.597404,0.0,0.19979867,-0.013509189,0.1497327,0.2631134,0.15671127,0.11055002,inf,inf,inf,inf,0,1,0,1,1,0,1,1,0,0,0
19371743,0,0.0,0.0,0.0,0.0,0.48210397,3.323168e-05,8.524516e-06,0.0,-0.047778998,-0.07174033,-0.05285328,0.017791873,0.008307921,0.0021311291,0.0,0.5503346,0.8146748,0.5823531,2.6031456,0.0,0.19688883,0.05285328,0.14969082,0.2630743,0.1553323,0.11054183,inf,inf,inf,inf,0,1,0,1,1,0,1,1,0,0,0
19475743,0,0.0,0.0,0.0,0.0,0.48376703,3.323168e-05,8.524516e-06,0.0,-0.050783914,0.061384752,-0.03335201,0.033395477,0.008307921,0.0021311291,0.0,-0.083556235,3.1617668,0.52204156,2.5922494,0.0,0.19522578,0.03335201,0.14969353,0.263078,0.15389612,0.11057795,inf,inf,inf,inf,0,1,0,1,1,0,1,1,0,0,0
19579743,0,0.0,0.0,0.0,0.0,0.4860501,3.323168e-05,8.524516e-06,0.0,0.027768023,0.07833899,-0.017228017,0.047567625,0.008307921,0.0021311291,0.0,0.7931532,-0.95264083,1.3555481,2.5938883,0.0,0.19294271,0.017228017,0.14970817,0.2631013,0.15232421,0.110643946,inf,inf,inf,inf,0,1,0,1,1,0,1,1,0,0,0
19676543,0,0.0,0.0,0.0,0.0,0.49098715,3.323168e-05,8.524516e-06,0.0,-0.12168481,-0.017104026,-0.031554412,0.03381143,0.008307921,0.0021311291,0.0,-3.1333458,1.0118289,0.84304416,2.5934157,0.0,0.18800566,0.031554412,0.14879763,0.26248047,0.15076323,0.110597305,inf,inf,inf,inf,0,1,0,1,1,0,1,1,0,0,0
19781343,0,0.0,0.0,0.0,0.0,0.49409586,3.323168e-05,8.524516e-06,0.0,-0.10220339,0.03815986,-0.02554949,0.038530298,0.008307921,0.0021311291,0.0,0.14247195,1.3598585,1.5509849,2.591291,0.0,0.18489695,0.02554949,0.14898278,0.2626509,0.14951696,0.11070595,inf,inf,inf,inf,0,1,0,1,1,0,1,1,0,0,0
19877358,0,0.0,0.0,0.0,0.0,0.4946534,3.323168e-05,8.524516e-06,0.0,-0.0017547535,0.06307182,-0.031733435,0.028395433,0.008307921,0.0021311291,0.0,-2.0760229,1.1973327,1.358046,2.589449,0.0,0.1843394,0.031733435,0.14799029,0.2620487,0.14788564,0.11056847,inf,inf,inf,inf,0,1,0,1,1,0,1,1,0,0,0
19981401,0,0.0,0.0,0.0,0.0,0.49188158,3.323168e-05,8.524516e-06,0.0,-0.09384991,0.09000413,-0.014436332,0.038465053,0.008307921,0.0021311291,0.0,-2.4914322,-0.6728354,0.6771234,2.5860326,0.0,0.18711123,0.014436332,0.14501995,0.26003522,0.14447014,0.110166356,inf,inf,inf,inf,0,1,0,1,1,0,1,1,0,0,0
20085368,0,0.0,0.0,0.0,0.0,0.4869983,3.323168e-05,8.524516e-06,0.0,-0.13051616,0.017883789,-0.025063254,0.019789346,0.008307921,0.0021311291,0.0,0.8702879,-0.6146465,-0.2901283,2.5823288,0.0,0.19199452,0.025063254,0.14509267,0.2601989,0.14359637,0.11035316,inf,inf,inf,inf,0,1,0,1,1,0,1,1,0,0,0
20181343,0,0.0,0.0,0.0,0.0,0.48184672,3.323168e-05,8.524516e-06,0.0,-0.060979504,0.04487705,-0.026053028,0.012204809,0.008307921,0.0021311291,0.0,0.67715997,0.9037965,-0.36381096,2.5742705,0.0,0.19714609,0.026053028,0.14422786,0.25969,0.1421521,0.11028927,inf,inf,inf,inf,0,1,0,1,1,0,1,1,0,0,0
20285390,0,0.0,0.0,0.0,0.0,0.48245198,3.323168e-05,8.524516e-06,0.0,-0.042599987,0.07261842,-0.01788756,0.019386552,0.008307921,0.0021311291,0.0,0.22116064,0.18211634,-0.3415158,2.5647883,0.0,0.19654083,0.01788756,0.14434916,0.2599058,0.14123483,0.11045953,inf,inf,inf,inf,0,1,0,1,1,0,1,1,0,0,0
20389343,0,0.0,0.0,0.0,0.0,0.48037285,3.323168e-05,8.524516e-06,0.0,-0.0690713,0.0074151116,-0.01190259,0.022372752,0.008307921,0.0021311291,0.0,-0.58704674,1.2385862,1.0587919,2.551054,0.0,0.19861996,0.01190259,0.14437369,0.26011643,0.14013365,0.110685244,inf,inf,inf,inf,0,1,0,1,1,0,1,1,0,0,0
20493343,0,0.0,0.0,0.0,0.0,0.4806315,3.323168e-05,8.524516e-06,0.0,-0.07247247,0.03893756,-0.02299052,0.01075463,0.008307921,0.0021311291,0.0,0.67156357,0.9499035,0.12328376,2.5417464,0.0,0.1983613,0.02299052,0.14442745,0.26035962,0.13928236,0.11085237,inf,inf,inf,inf,0,1,0,1,1,0,1,1,0,0,0
20597346,0,0.0,0.0,0.0,0.0,0.48415536,3.323168e-05,8.524516e-06,0.0,-0.02089542,0.058424793,-0.032376736,0.0036689076,0.008307921,0.0021311291,0.0,-1.1528534,0.043549173,0.9666014,2.530963,0.0,0.19483745,0.032376736,0.14446066,0.26060846,0.1383798,0.111019,inf,inf,inf,inf,0,1,0,1,1,0,1,1,0,0,0
20694146,0,0.0,0.0,0.0,0.0,0.49282658,3.323168e-05,8.524516e-06,0.0,-0.09234394,0.029541684,-0.017782928,0.025170635,0.008307921,0.0021311291,0.0,-0.5861696,0.53633016,0.5197654,2.522155,0.0,0.18616623,0.017782928,0.14362021,0.26019183,0.13691144,0.111061625,inf,inf,inf,inf,0,1,0,1,1,0,1,1,0,0,0
20798151,0,0.0,0.0,0.0,0.0,0.5044629,3.323168e-05,8.524516e-06,0.0,-0.07915525,0.029771445,-0.029809227,0.021892784,0.008307921,0.0021311291,0.0,-0.04411913,-0.04140112,0.066281565,2.5163727,0.0,0.17452991,0.029809227,0.1436471,0.2604742,0.1360442,0.11126648,inf,inf,inf,inf,0,1,0,1,1,0,1,1,0,0,0
20902143,0,0.0,0.0,0.0,0.0,0.51684874,3.323168e-05,8.524516e-06,0.0,-0.041511036,0.06290931,-0.016778348,0.04207291,0.008307921,0.0021311291,0.0,0.19038111,-0.24972406,-1.6312562,2.5091057,0.0,0.16214406,0.016778348,0.14090207,0.258655,0.13352102,0.11087216,inf,inf,inf,inf,0,1,0,1,1,0,1,1,0,0,0
21006187,0,0.0,0.0,0.0,0.0,0.5252837,3.323168e-05,8.524516e-06,0.0,-0.039507598,0.033475753,0.0015096832,0.06292998,0.008307921,0.0021311291,0.0,-0.74915767,-0.04598274,0.26926416,2.5012374,0.0,0.15370911,-0.0015096832,0.14097518,0.25897616,0.13273022,0.111092634,inf,inf,inf,inf,0,1,0,1,1,0,1,1,0,0,0
21102143,0,0.0,0.0,0.0,0.0,0.5311336,3.323168e-05,8.524516e-06,0.0,-0.05423099,0.01990465,-0.003712293,0.057755213,0.008307921,0.0021311291,0.0,0.43326202,-2.132124,-1.9928467,2.5009937,0.0,0.14785922,0.003712293,0.14016207,0.25860775,0.13156743,0.11113161,inf,inf,inf,inf,0,1,0,1,1,0,1,1,0,0,0
21206943,0,0.0,0.0,0.0,0.0,0.535201,3.323168e-05,8.524516e-06,0.0,-0.076502435,0.0014195212,0.01247298,0.071892954,0.008307921,0.0021311291,0.0,0.7722377,-0.9528309,-0.59039384,2.4969063,0.0,0.1437918,-0.01247298,0.14032322,0.2589832,0.13101083,0.11132114,inf,inf,inf,inf,0,1,0,1,1,0,1,1,0,0,0
21310943,0,0.0,0.0,0.0,0.0,0.5364126,3.323168e-05,8.524516e-06,0.0,-0.044043228,0.03593784,0.00043597017,0.055219613,0.008307921,0.0021311291,0.0,1.3910617,-1.7807443,0.45631954,2.492024,0.0,0.14258021,-0.00043597017,0.14055331,0.2594314,0.13058983,0.11154832,inf,inf,inf,inf,0,1,0,1,1,0,1,1,0,0,0
21406943,0,0.0,0.0,0.0,0.0,0.5384156,3.323168e-05,8.524516e-06,0.0,0.006316145,0.05444194,-0.0063617122,0.044846397,0.008307921,0.0021311291,0.0,-0.8637937,-0.82831925,1.5301721,2.4974062,0.0,0.1405772,0.0063617122,0.1399101,0.25915024,0.12947713,0.11157346,inf,inf,inf,inf,0,1,0,1,1,0,1,1,0,0,0
21510943,0,0.0,0.0,0.0,0.0,0.5413467,3.323168e-05,8.524516e-06,0.0,-0.022668507,0.042948123,-0.0019094427,0.0466399,0.008307921,0.0021311291,0.0,-0.48233178,-2.396258,-1.5864903,2.4989033,0.0,0.13764608,0.0019094427,0.13750006,0.2574397,0.1272182,0.111249454,inf,inf,inf,inf,0,1,0,1,1,0,1,1,0,0,0
21614943,0,0.0,0.0,0.0,0.0,0.54245186,3.323168e-05,8.524516e-06,0.0,-0.09599374,-0.052014638,-0.032926656,0.012692949,0.008307921,0.0021311291,0.0,0.6097003,0.29540467,-0.0024101518,2.5041475,0.0,0.13654095,0.032926656,0.13772297,0.25788438,0.12687379,0.11149983,inf,inf,inf,inf,0,1,0,1,1,0,1,1,0,0,0
21710946,0,0.0,0.0,0.0,0.0,0.54357153,3.323168e-05,8.524516e-06,0.0,-0.07639316,0.09542462,-0.017335227,0.02404209,0.008307921,0.0021311291,0.0,0.16681232,1.3683945,-1.136251,2.4913347,0.0,0.13542128,0.017335227,0.13978752,0.2598098,0.12757255,0.11207814,inf,inf,inf,inf,0,1,0,1,1,0,1,1,0,0,0
21814963,0,0.0,0.0,0.0,0.0,0.5445575,3.323168e-05,8.524516e-06,0.0,-0.006315483,0.033466335,-0.007519941,0.031027727,0.008307921,0.0021311291,0.0,-0.019174451,-0.079010226,0.70345825,2.494265,0.0,0.1344353,0.007519941,0.1372768,0.25807124,0.1254499,0.1117052,inf,inf,inf,inf,0,1,0,1,1,0,1,1,0,0,0
21919743,0,0.0,0.0,0.0,0.0,0.5457632,3.323168e-05,8.524516e-06,0.0,-0.09409785,0.026250966,-0.018197538,0.01764976,0.008307921,0.0021311291,0.0,-2.442622,1.5797789,0.77559274,2.491856,0.0,0.13322961,0.018197538,0.13746145,0.25852716,0.12504672,0.11196884,inf,inf,inf,inf,0,1,0,1,1,0,1,1,0,0,0
22015777,0,0.0,0.0,0.0,0.0,0.5487954,3.323168e-05,8.524516e-06,0.0,-0.089072146,0.060123283,0.0025772988,0.03817621,0.008307921,0.0021311291,0.0,0.3512085,1.6092963,0.607018,2.4896367,0.0,0.1301974,-0.0025772988,0.1369909,0.2583874,0.12426692,0.111981414,inf,inf,inf,inf,0,1,0,1,1,0,1,1,0,0,0
22119777,0,0.0,0.0,0.0,0.0,0.5528785,3.323168e-05,8.524516e-06,0.0,-0.021033801,0.053337615,-0.0066087465,0.02904497,0.008307921,0.0021311291,0.0,-0.23191527,0.29082817,0.9446231,2.4870522,0.0,0.12611431,0.0066087465,0.13728894,0.25889716,0.12403577,0.11220654,inf,inf,inf,inf,0,1,0,1,1,0,1,1,0,0,0
22223777,0,0.0,0.0,0.0,0.0,0.55345434,3.323168e-05,8.524516e-06,0.0,-0.05971384,0.052932154,0.0019220334,0.03386922,0.008307921,0.0021311291,0.0,-0.28796965,-0.7594592,-0.91347575,2.4818845,0.0,0.12553847,-0.0019220334,0.13503198,0.25725242,0.122187525,0.11184039,inf,inf,inf,inf,0,1,0,1,1,0,1,1,0,0,0
22319762,0,0.0,0.0,0.0,0.0,0.5517131,3.323168e-05,8.524516e-06,0.0,-0.07000927,0.021723751,-0.0043743104,0.02316706,0.008307921,0.0021311291,0.0,0.713127,0.14180708,-0.030443473,2.4788988,0.0,0.1272797,0.0043743104,0.13703948,0.25922194,0.12305413,0.11244548,inf,inf,inf,inf,0,1,0,1,1,0,1,1,0,0,0
22424543,0,0.0,0.0,0.0,0.0,0.55250114,3.323168e-05,8.524516e-06,0.0,-0.046837635,0.07786344,0.024278961,0.049557444,0.008307921,0.0021311291,0.0,-0.51480573,-0.4659802,-0.22532025,2.4696882,0.0,0.12649167,-0.024278961,0.13484208,0.25759947,0.12136619,0.11207307,inf,inf,inf,inf,0,1,0,1,1,0,1,1,0,0,0
22528543,0,0.0,0.0,0.0,0.0,0.55623424,3.323168e-05,8.524516e-06,0.0,-0.040090904,0.044480298,0.013354201,0.039561156,0.008307921,0.0021311291,0.0,1.6718673,-0.91233736,-1.5171946,2.4691389,0.0,0.12275857,-0.013354201,0.13518438,0.25814822,0.12121576,0.11228458,inf,inf,inf,inf,0,1,0,1,1,0,1,1,0,0,0
22624543,0,0.0,0.0,0.0,0.0,0.5602081,3.323168e-05,8.524516e-06,0.0,-0.06668499,0.0017709807,0.004612059,0.032078106,0.008307921,0.0021311291,0.0,0.030711068,-0.10626569,0.13881521,2.472478,0.0,0.118784726,-0.004612059,0.13483396,0.25807577,0.12068148,0.11232738,inf,inf,inf,inf,0,1,0,1,1,0,1,1,0,0,0
22728550,0,0.0,0.0,0.0,0.0,0.5646863,3.323168e-05,8.524516e-06,0.0,-0.037124272,0.030690573,-0.006179084,0.02250666,0.008307921,0.0021311291,0.0,0.65145427,-0.3841745,-0.7523054,2.4668763,0.0,0.11430651,0.006179084,0.1351701,0.25863236,0.12042383,0.112520754,inf,inf,inf,inf,0,1,0,1,1,0,1,1,0,0,0
22832543,0,0.0,0.0,0.0,0.0,0.5671824,3.323168e-05,8.524516e-06,0.0,-0.020699596,0.041820858,0.018142855,0.0458542,0.008307921,0.0021311291,0.0,0.39248118,-0.19962838,0.26843968,2.4594336,0.0,0.111810386,-0.018142855,0.13548946,0.25918758,0.120223,0.11271918,inf,inf,inf,inf,0,1,0,1,1,0,1,1,0,0,0
22929343,0,0.0,0.0,0.0,0.0,0.56852543,3.323168e-05,8.524516e-06,0.0,-0.02327136,0.026580112,-0.0019893767,0.023961369,0.008307921,0.0021311291,0.0,-0.33831307,-0.27509168,0.7232758,2.4628594,0.0,0.110467374,0.0019893767,0.1349432,0.25899455,0.11946653,0.11269454,inf,inf,inf,inf,0,1,0,1,1,0,1,1,0,0,0
23033343,0,0.0,0.0,0.0,0.0,0.5651462,3.323168e-05,8.524516e-06,0.0,-0.019607294,0.014162914,-0.0065520084,0.013142725,0.008307921,0.0021311291,0.0,-0.00736073,-0.26026693,0.28844264,2.460559,0.0,0.1138466,0.0065520084,0.13284639,0.25738838,0.117942266,0.11230172,inf,inf,inf,inf,0,1,0,1,1,0,1,1,0,0,0
23137345,0,0.0,0.0,0.0,0.0,0.56381035,3.323168e-05,8.524516e-06,0.0,-0.029076675,0.013985646,0.007534415,0.022893673,0.008307921,0.0021311291,0.0,0.3864954,-1.8459405,-2.358196,2.4563656,0.0,0.11518246,-0.007534415,0.13324454,0.2580121,0.11782733,0.11248443,inf,inf,inf,inf,0,1,0,1,1,0,1,1,0,0,0
23233343,0,0.0,0.0,0.0,0.0,0.5614184,3.323168e-05,8.524516e-06,0.0,-0.055615865,0.045946065,0.018340398,0.029867647,0.008307921,0.0021311291,0.0,1.2518901,-1.5886711,-2.318702,2.4501812,0.0,0.117574394,-0.018340398,0.13280924,0.25785694,0.11725787,0.11246617,inf,inf,inf,inf,0,1,0,1,1,0,1,1,0,0,0
23337343,0,0.0,0.0,0.0,0.0,0.56059474,3.323168e-05,8.524516e-06,0.0,0.009577872,0.016952788,0.019659491,0.028888589,0.008307921,0.0021311291,0.0,1.80687,-1.2726786,-2.022401,2.4518037,0.0,0.11839807,-0.019659491,0.13308693,0.25838554,0.11729564,0.112629265,inf,inf,inf,inf,0,1,0,1,1,0,1,1,0,0,0
23442202,0,0.0,0.0,0.0,0.0,0.56115407,3.323168e-05,8.524516e-06,0.0,0.02290563,-0.037876293,0.010294104,0.01953666,0.008307921,0.0021311291,0.0,-0.35643026,-1.3338896,-2.1083224,2.4508948,0.0,0.11783874,-0.010294104,0.1334088,0.25893545,0.11711895,0.112810366,inf,inf,inf,inf,0,1,0,1,1,0,1,1,0,0,0
23538154,0,0.0,0.0,0.0,0.0,0.56486446,3.323168e-05,8.524516e-06,0.0,-0.0018273678,-0.034985237,-0.019022327,-0.0072055506,0.008307921,0.0021311291,0.0,1.0436963,-0.822533,-2.0308518,2.448381,0.0,0.11412835,0.019022327,0.1329286,0.25875285,0.11663101,0.112756014,inf,inf,inf,inf,0,1,0,1,1,0,1,1,0,0,0
23642143,0,0.0,0.0,0.0,0.0,0.57201624,3.323168e-05,8.524516e-06,0.0,0.05098314,-0.046237055,-0.0025495589,0.014543992,0.008307921,0.0021311291,0.0,-0.7535852,-0.52859956,-0.63793385,2.438546,0.0,0.10703236,0.0025495589,0.13328902,0.25935057,0.11649815,0.11291047,inf,inf,inf,inf,0,1,0,1,1,0,1,1,0,0,0
23746143,0,0.0,0.0,0.0,0.0,0.57646096,3.323168e-05,8.524516e-06,0.0,0.0016706317,-0.040478066,-0.0035551223,0.015881553,0.008307921,0.0021311291,0.0,-1.9484372,0.16797164,1.818105,2.4286854,0.0,0.10258764,0.0035551223,0.13358647,0.2598809,0.11629405,0.11307672,inf,inf,inf,inf,0,1,0,1,1,0,1,1,0,0,0
23842143,0,0.0,0.0,0.0,0.0,0.5805876,3.323168e-05,8.524516e-06,0.0,0.031817716,0.0034310354,0.004499659,0.02584887,0.008307921,0.0021311291,0.0,0.03857447,-0.09965999,-0.28616148,2.4191475,0.0,0.100959,-0.004499659,0.13309143,0.2596759,0.11573776,0.113015294,inf,inf,inf,inf,0,1,0,1,1,0,1,1,0,0,0
23946955,0,0.0,0.0,0.0,0.0,0.58453715,3.323168e-05,8.524516e-06,0.0,-0.066929944,0.0040661963,0.010210327,0.031261902,0.008307921,0.0021311291,0.0,0.3798799,0.5717241,1.1238718,2.4171972,0.0,0.1,-0.010210327,0.13337277,0.26019266,0.115751244,0.11315941,inf,inf,inf,inf,0,1,0,1,1,0,1,1,0,0,0
24050958,0,0.0,0.0,0.0,0.0,0.58524287,3.323168e-05,8.524516e-06,0.0,-0.008929717,-0.026372004,0.023726683,0.04244877,0.008307921,0.0021311291,0.0,0.80210125,-0.42605603,0.17388248,2.4063418,0.0,0.1,-0.023726683,0.13364159,0.26069695,0.11543102,0.11330067,inf,inf,inf,inf,0,1,0,1,1,0,1,1,0,0,0
24147811,0,0.0,0.0,0.0,0.0,0.5900977,3.323168e-05,8.524516e-06,0.0,0.021886587,0.06705288,0.02555444,0.04597315,0.008307921,0.0021311291,0.0,0.6161788,0.8385877,0.37331462,2.3899043,0.0,0.101917386,-0.02555444,0.1332228,0.26054385,0.11515704,0.11323701,inf,inf,inf,inf,0,1,0,1,1,0,1,1,0,0,0
24251791,0,0.0,0.0,0.0,0.0,0.5961709,3.323168e-05,8.524516e-06,0.0,0.007585196,0.0020587053,0.03051256,0.05274487,0.008307921,0.0021311291,0.0,-0.29209888,-1.1887388,-0.21781777,2.378842,0.0,0.1,-0.03051256,0.13129762,0.25893635,0.11383907,0.11276046,inf,inf,inf,inf,0,1,0,1,1,0,1,1,0,0,0
24355798,0,0.0,0.0,0.0,0.0,0.60029536,3.323168e-05,8.524516e-06,0.0,-0.11676953,0.014979908,0.02398099,0.046698187,0.008307921,0.0021311291,0.0,-0.006829421,-0.10892539,0.06856747,2.369924,0.0,0.1,-0.02398099,0.1316584,0.25946322,0.11387669,0.112918355,inf,inf,inf,inf,0,1,0,1,1,0,1,1,0,0,0
24451743,0,0.0,0.0,0.0,0.0,0.6011347,3.323168e-05,8.524516e-06,0.0,0.00094796624,0.050800428,0.017995788,0.037909914,0.008307921,0.0021311291,0.0,0.7914071,-1.0986197,1.5545709,2.3642323,0.0,0.1,-0.017995788,0.13127282,0.25926593,0.11363682,0.112833366,inf,inf,inf,inf,0,1,0,1,1,0,1,1,0,0,0
24555746,0,0.0,0.0,0.0,0.0,0.6031837,3.323168e-05,8.524516e-06,0.0,0.011674342,0.0047277785,0.022615926,0.039860856,0.008307921,0.0021311291,0.0,-1.3585678,-0.2237269,-0.093018964,2.3481107,0.0,0.1,-0.022615926,0.1316593,0.25979647,0.11357936,0.11301485,inf,inf,inf,inf,0,1,0,1,1,0,1,1,0,0,0
24659743,0,0.0,0.0,0.0,0.0,0.6014889,3.323168e-05,8.524516e-06,0.0,-0.06917444,-0.006711196,0.038316842,0.050769094,0.008307921,0.0021311291,0.0,-0.76170546,-0.4649621,-0.47966653,2.34119,0.0,0.1,-0.038316842,0.13203274,0.26031885,0.11357108,0.11311126,inf,inf,inf,inf,0,1,0,1,1,0,1,1,0,0,0
24755765,0,0.0,0.0,0.0,0.0,0.6003211,3.323168e-05,8.524516e-06,0.0,-0.022664355,-0.013597198,0.013316941,0.022300113,0.008307921,0.0021311291,0.0,1.6578642,-0.22202735,-0.13343513,2.332371,0.0,0.1,-0.013316941,0.13171028,0.26013827,0.113430284,0.11305944,inf,inf,inf,inf,0,1,0,1,1,0,1,1,0,0,0
24859743,0,0.0,0.0,0.0,0.0,0.6016715,3.323168e-05,8.524516e-06,0.0,-0.0063446863,0.034349434,0.04157076,0.049716216,0.008307921,0.0021311291,0.0,-0.48706192,1.5776464,1.2644593,2.3224392,0.0,0.1,-0.04157076,0.13205457,0.2606362,0.11357634,0.11318506,inf,inf,inf,inf,0,1,0,1,1,0,1,1,0,0,0
24963743,0,0.0,0.0,0.0,0.0,0.601717,3.323168e-05,8.524516e-06,0.0,-0.036471244,0.004119802,-0.015051093,-0.009306107,0.008307921,0.0021311291,0.0,-0.052934382,-1.6057894,-1.0775899,2.309674,0.0,0.1,0.015051093,0.13239592,0.26112637,0.11369309,0.11328421,inf,inf,inf,inf,0,1,0,1,1,0,1,1,0,0,0
25067743,0,0.0,0.0,0.0,0.0,0.60528064,3.323168e-05,8.524516e-06,0.0,-0.017698685,-0.01878417,0.028988231,0.035283163,0.008307921,0.0021311291,0.0,-1.6031866,0.13572446,-1.78234,2.2963014,0.0,0.1,-0.028988231,0.13272773,0.2616087,0.11373008,0.11344239,inf,inf,inf,inf,0,1,0,1,1,0,1,1,0,0,0
25172579,0,0.0,0.0,0.0,0.0,0.60915256,3.323168e-05,8.524516e-06,0.0,-0.029866451,0.007836307,0.031271465,0.04022595,0.008307921,0.0021311291,0.0,1.4834203,0.9285447,1.6793424,2.2990708,0.0,0.10098672,-0.031271465,0.13072284,0.2598381,0.11261483,0.112906314,inf,inf,inf,inf,0,1,0,1,1,0,1,1,0,0,0
25276560,0,0.0,0.0,0.0,0.0,0.6158842,3.323168e-05,8.524516e-06,0.0,-0.007053567,0.0050843265,0.016944194,0.02954854,0.008307921,0.0021311291,0.0,0.6782632,1.5405215,0.5321576,2.2952461,0.0,0.10446423,-0.016944194,0.13101085,0.26028118,0.1128586,0.11301724,inf,inf,inf,inf,0,1,0,1,1,0,1,1,0,0,0
25372543,0,0.0,0.0,0.0,0.0,0.6195303,3.323168e-05,8.524516e-06,0.0,-0.07957393,0.046648685,0.030914359,0.04309163,0.008307921,0.0021311291,0.0,-1.0007548,-0.75588405,-1.6642753,2.285568,0.0,0.1008181,-0.030914359,0.13065064,0.26006702,0.11254582,0.11290541,inf,inf,inf,inf,0,1,0,1,1,0,1,1,0,0,0
25476546,0,0.0,0.0,0.0,0.0,0.62237644,3.323168e-05,8.524516e-06,0.0,-0.027804287,-0.010173895,0.04205485,0.054637603,0.008307921,0.0021311291,0.0,-0.21267036,-0.79265106,0.69050646,2.2841756,0.0,0.1,-0.04205485,0.13099533,0.26051483,0.11280015,0.11303012,inf,inf,inf,inf,0,1,0,1,1,0,1,1,0,0,0
25580543,0,0.0,0.0,0.0,0.0,0.62487,3.323168e-05,8.524516e-06,0.0,-0.07386585,0.02799178,0.012149159,0.023316996,0.008307921,0.0021311291,0.0,0.37446263,0.023324663,0.039465662,2.2850857,0.0,0.1,-0.012149159,0.13138627,0.26098096,0.11323706,0.11315165,inf,inf,inf,inf,0,1,0,1,1,0,1,1,0,0,0
25677343,0,0.0,0.0,0.0,0.0,0.6240479,3.323168e-05,8.524516e-06,0.0,0.010308543,-0.010705521,0.027096935,0.034614768,0.008307921,0.0021311291,0.0,0.47662127,0.45393792,0.9378395,2.2786818,0.0,0.1,-0.027096935,0.13100746,0.26070032,0.11286355,0.113035955,inf,inf,inf,inf,0,1,0,1,1,0,1,1,0,0,0
25781343,0,0.0,0.0,0.0,0.0,0.62439096,3.323168e-05,8.524516e-06,0.0,-0.010631786,0.01583719,0.030814748,0.03586337,0.008307921,0.0021311291,0.0,-1.0136018,-0.35170597,0.80041283,2.2748399,0.0,0.1,-0.030814748,0.13135064,0.26112595,0.113123804,0.1131479,inf,inf,inf,inf,0,1,0,1,1,0,1,1,0,0,0
25885382,0,0.0,0.0,0.0,0.0,0.6240294,3.323168e-05,8.524516e-06,0.0,-0.009196953,-0.00072497333,0.043907218,0.045556385,0.008307921,0.0021311291,0.0,-1.2386601,-1.5622734,0.17896841,2.2724903,0.0,0.1,-0.043907218,0.13180785,0.2616368,0.11343368,0.11323278,inf,inf,inf,inf,0,1,0,1,1,0,1,1,0,0,0
25981343,0,0.0,0.0,0.0,0.0,0.6240338,3.323168e-05,8.524516e-06,0.0,-0.018590536,-0.036093213,0.044393502,0.04441556,0.008307921,0.0021311291,0.0,-0.37563816,-1.5586779,-1.5265169,2.2666419,0.0,0.1,-0.044393502,0.13146377,0.26134953,0.11328696,0.11314429,inf,inf,inf,inf,0,1,0,1,1,0,1,1,0,0,0
26085385,0,0.0,0.0,0.0,0.0,0.6237594,3.323168e-05,8.524516e-06,0.0,-0.0053386334,-0.005328367,0.029678913,0.027770929,0.008307921,0.0021311291,0.0,0.4021634,-0.41621947,-1.4287045,2.2600965,0.0,0.1,-0.029678913,0.13189124,0.26179913,0.11364961,0.113250814,inf,inf,inf,inf,0,1,0,1,1,0,1,1,0,0,0
26189365,0,0.0,0.0,0.0,0.0,0.6232431,3.323168e-05,8.524516e-06,0.0,-0.00124297,-0.051646523,0.025327211,0.02189845,0.008307921,0.0021311291,0.0,0.36775777,-1.0953466,-0.0839904,2.2554152,0.0,0.1,-0.025327211,0.13003534,0.26000494,0.11256441,0.11274731,inf,inf,inf,inf,0,1,0,1,1,0,1,1,0,0,0
26286151,0,0.0,0.0,0.0,0.0,0.6194945,3.323168e-05,8.524516e-06,0.0,-0.043050088,0.023150733,0.01689525,0.008483842,0.008307921,0.0021311291,0.0,0.14142261,-0.51170707,-1.844995,2.2404158,0.0,0.10155386,-0.01689525,0.1319306,0.26192343,0.11355596,0.11326776,inf,inf,inf,inf,0,1,0,1,1,0,1,1,0,0,0
26390145,0,0.0,0.0,0.0,0.0,0.61659664,3.323168e-05,8.524516e-06,0.0,-0.011085277,-0.020895666,0.011926804,0.0012306151,0.008307921,0.0021311291,0.0,1.3533233,-1.2700216,0.102797225,2.239005,0.0,0.104451716,-0.011926804,0.13010919,0.26017064,0.11251805,0.11275615,inf,inf,inf,inf,0,1,0,1,1,0,1,1,0,0,0
26494143,0,0.0,0.0,0.0,0.0,0.6138405,3.323168e-05,8.524516e-06,0.0,-0.0085369535,-0.0032196874,-0.015914187,-0.028938366,0.008307921,0.0021311291,0.0,-0.7162394,1.4094398,1.1383275,2.2349613,0.0,0.107207835,0.015914187,0.13042712,0.26054785,0.11266771,0.112861045,inf,inf,inf,inf,0,1,0,1,1,0,1,1,0,0,0
26590182,0,0.0,0.0,0.0,0.0,0.6106778,3.323168e-05,8.524516e-06,0.0,-0.034233786,0.013426025,0.004552424,-0.01142497,0.008307921,0.0021311291,0.0,-0.23393413,0.2772293,0.26109916,2.2282262,0.0,0.11037058,-0.004552424,0.13231136,0.26245034,0.1136515,0.11334487,inf,inf,inf,inf,0,1,0,1,1,0,1,1,0,0,0
26694943,0,0.0,0.0,0.0,0.0,0.6066993,3.323168e-05,8.524516e-06,0.0,0.030143786,-0.040966768,0.014097072,-0.0042605638,0.008307921,0.0021311291,0.0,0.39216754,0.2809272,0.3130789,2.218239,0.0,0.11434907,-0.014097072,0.13035242,0.26057532,0.11246657,0.112846084,inf,inf,inf,inf,0,1,0,1,1,0,1,1,0,0,0
26798943,0,0.0,0.0,0.0,0.0,0.6038962,3.323168e-05,8.524516e-06,0.0,-0.0028288595,0.019572314,0.025359346,0.0054920316,0.008307921,0.0021311291,0.0,-0.5519705,0.34504557,1.1478521,2.213502,0.0,0.117152154,-0.025359346,0.1306541,0.26093167,0.11272693,0.11292002,inf,inf,inf,inf,0,1,0,1,1,0,1,1,0,0,0
26894943,0,0.0,0.0,0.0,0.0,0.6020776,3.323168e-05,8.524516e-06,0.0,-0.015205075,-0.052597612,0.008683316,-0.01159137,0.008307921,0.0021311291,0.0,-0.4897102,-0.53198117,0.23386528,2.2095766,0.0,0.11897075,-0.008683316,0.13260661,0.26289394,0.113749295,0.11341432,inf,inf,inf,inf,0,1,0,1,1,0,1,1,0,0,0
26998943,0,0.0,0.0,0.0,0.0,0.6008201,3.323168e-05,8.524516e-06,0.0,-0.008440654,-0.03965255,0.01449782,-0.005189089,0.008307921,0.0021311291,0.0,0.08732509,-0.32553917,-1.0381565,2.1998472,0.0,0.12022823,-0.01449782,0.13058907,0.26097435,0.11261668,0.11288751,inf,inf,inf,inf,0,1,0,1,1,0,1,1,0,0,0
27102943,0,0.0,0.0,0.0,0.0,0.5975516,3.323168e-05,8.524516e-06,0.0,0.029192159,-0.014885379,0.0076038465,-0.013411939,0.008307921,0.0021311291,0.0,1.0251378,-0.7091824,-0.2674526,2.19881,0.0,0.12349677,-0.0076038465,0.13090123,0.26132077,0.11285822,0.11296641,inf,inf,inf,inf,0,1,0,1,1,0,1,1,0,0,0
27198943,0,0.0,0.0,0.0,0.0,0.5956007,3.323168e-05,8.524516e-06,0.0,-0.0011142782,-0.022158092,-0.0026110192,-0.023791973,0.008307921,0.0021311291,0.0,-0.7174753,0.291819,-1.6241874,2.1991186,0.0,0.12544763,0.0026110192,0.13049169,0.26094583,0.11250075,0.11286337,inf,inf,inf,inf,0,1,0,1,1,0,1,1,0,0,0
27303743,0,0.0,0.0,0.0,0.0,0.59686613,3.323168e-05,8.524516e-06,0.0,-0.03168623,-0.023957727,-0.011032394,-0.028687008,0.008307921,0.0021311291,0.0,0.1359589,-0.36471915,-0.53881484,2.1999478,0.0,0.124182224,0.011032394,0.13080941,0.26129055,0.112587415,0.11294136,inf,inf,inf,inf,0,1,0,1,1,0,1,1,0,0,0
27407753,0,0.0,0.0,0.0,0.0,0.5980696,3.323168e-05,8.524516e-06,0.0,0.038842596,-0.028720342,0.0023936245,-0.012626922,0.008307921,0.0021311291,0.0,-0.4843322,-0.40849912,-1.7561703,2.1957965,0.0,0.12297875,-0.0023936245,0.1311107,0.26162812,0.11264777,0.1130572,inf,inf,inf,inf,0,1,0,1,1,0,1,1,0,0,0
27503746,0,0.0,0.0,0.0,0.0,0.59888875,3.323168e-05,8.524516e-06,0.0,0.030242484,-0.0012213757,0.023612676,0.009971865,0.008307921,0.0021311291,0.0,0.81132585,-0.35257527,-1.848685,2.191506,0.0,0.1221596,-0.023612676,0.13084503,0.261356,0.112426296,0.112955995,inf,inf,inf,inf,0,1,0,1,1,0,1,1,0,0,0
27607750,0,0.0,0.0,0.0,0.0,0.59678584,3.323168e-05,8.524516e-06,0.0,0.012148528,-0.08681897,-0.007727562,-0.022309419,0.008307921,0.0021311291,0.0,1.482065,0.88910323,-1.666661,2.191487,0.0,0.12426251,0.007727562,0.13126694,0.2617529,0.1125752,0.113064446,inf,inf,inf,inf,0,1,0,1,1,0,1,1,0,0,0
27711753,0,0.0,0.0,0.0,0.0,0.59518194,3.323168e-05,8.524516e-06,0.0,0.031048551,-0.077022344,-0.019528277,-0.033631276,0.008307921,0.0021311291,0.0,1.1285772,2.247487,0.6685451,2.19413,0.0,0.12586641,0.019528277,0.12944992,0.2599256,0.11148339,0.11257843,inf,inf,inf,inf,0,1,0,1,1,0,1,1,0,0,0
27807759,0,0.0,0.0,0.0,0.0,0.5938781,3.323168e-05,8.524516e-06,0.0,0.00083843514,0.06538408,-0.026403971,-0.039099406,0.008307921,0.0021311291,0.0,-1.6077254,2.874635,-0.24349135,2.183325,0.0,0.12717026,0.026403971,0.12916225,0.2596201,0.11112108,0.11249999,inf,inf,inf,inf,0,1,0,1,1,0,1,1,0,0,0
27912577,0,0.0,0.0,0.0,0.0,0.5979012,3.323168e-05,8.524516e-06,0.0,-0.13589357,0.21555227,0.015283649,0.005375207,0.008307921,0.0021311291,0.0,0.27498928,0.149857,-2.506272,2.192793,0.0,0.12314713,-0.015283649,0.12961325,0.26004747,0.11124058,0.11263304,inf,inf,inf,inf,0,1,0,1,1,0,1,1,0,0,0
28016577,0,0.0,0.0,0.0,0.0,0.6016525,3.323168e-05,8.524516e-06,0.0,0.021199679,-0.05988431,-0.0048274947,-0.0091452105,0.008307921,0.0021311291,0.0,2.426581,0.078678526,-0.5073942,2.2065182,0.0,0.11939585,0.0048274947,0.13011374,0.26054293,0.11133491,0.11289447,inf,inf,inf,inf,0,1,0,1,1,0,1,1,0,0,0
28112588,0,0.0,0.0,0.0,0.0,0.60677737,3.323168e-05,8.524516e-06,0.0,0.049674086,0.030992985,0.0039034162,0.004393505,0.008307921,0.0021311291,0.0,-1.5119928,2.1532407,-0.6354242,2.1904073,0.0,0.114270985,-0.0039034162,0.12982148,0.26026708,0.111070454,0.11288423,inf,inf,inf,inf,0,1,0,1,1,0,1,1,0,0,0
28216569,0,0.0,0.0,0.0,0.0,0.60926867,3.323168e-05,8.524516e-06,0.0,-0.082288496,0.13585296,0.007731017,0.009698489,0.008307921,0.0021311291,0.0,0.58299464,-1.2997905,0.29850623,2.18862,0.0,0.11177969,-0.007731017,0.13023855,0.26070088,0.11078409,0.11284107,inf,inf,inf,inf,0,1,0,1,1,0,1,1,0,0,0
28320543,0,0.0,0.0,0.0,0.0,0.6124068,3.323168e-05,8.524516e-06,0.0,0.058024462,-0.09247506,0.008284198,0.012867539,0.008307921,0.0021311291,0.0,-0.18107837,0.8085649,1.9966274,2.1925836,0.0,0.108641565,-0.008284198,0.13060439,0.26111847,0.11075,0.11302982,inf,inf,inf,inf,0,1,0,1,1,0,1,1,0,0,0
28417343,0,0.0,0.0,0.0,0.0,0.6162218,3.323168e-05,8.524516e-06,0.0,-0.084223405,0.0880039,0.009433989,0.015878726,0.008307921,0.0021311291,0.0,-0.64929754,2.5284061,1.4320945,2.1881278,0.0,0.107613266,-0.009433989,0.13021752,0.26081082,0.110177025,0.1129359,inf,inf,inf,inf,0,1,0,1,1,0,1,1,0,0,0
28521345,0,0.0,0.0,0.0,0.0,0.6182222,3.323168e-05,8.524516e-06,0.0,0.043658756,0.03244588,0.011315925,0.0180208,0.008307921,0.0021311291,0.0,1.930671,-2.45999,0.12674482,2.1882365,0.0,0.105814815,-0.011315925,0.13052304,0.26121143,0.110027954,0.11300729,inf,inf,inf,inf,0,1,0,1,1,0,1,1,0,0,0
28626143,0,0.0,0.0,0.0,0.0,0.61837757,3.323168e-05,8.524516e-06,0.0,-0.018681698,-0.054024093,-0.0097472705,-0.004431072,0.008307921,0.0021311291,0.0,-1.4212589,2.3783793,0.66679054,2.1872883,0.0,0.105659425,0.0097472705,0.1287588,0.2595064,0.10889083,0.112606965,inf,inf,inf,inf,0,1,0,1,1,0,1,1,0,0,0
28730143,0,0.0,0.0,0.0,0.0,0.62101644,3.323168e-05,8.524516e-06,0.0,-0.02071422,0.08039304,0.028424725,0.034439396,0.008307921,0.0021311291,0.0,-0.24694423,0.12420815,1.1656711,2.178217,0.0,0.106752634,-0.028424725,0.12907049,0.25992382,0.10870751,0.11267857,inf,inf,inf,inf,0,1,0,1,1,0,1,1,0,0,0
28826143,0,0.0,0.0,0.0,0.0,0.61942536,3.323168e-05,8.524516e-06,0.0,0.08074946,-0.02693767,0.010522983,0.013428964,0.008307921,0.0021311291,0.0,0.08017115,0.06037875,0.5966838,2.1721115,0.0,0.10834372,-0.010522983,0.12878425,0.25971675,0.10837478,0.11266139,inf,inf,inf,inf,0,1,0,1,1,0,1,1,0,0,0
28930143,0,0.0,0.0,0.0,0.0,0.615632,3.323168e-05,8.524516e-06,0.0,0.0034838151,0.00028187942,0.0032203125,0.0013924541,0.008307921,0.0021311291,0.0,-1.3079784,0.49600327,-0.38718995,2.166859,0.0,0.11213708,-0.0032203125,0.12918548,0.2601917,0.10843394,0.112809785,inf,inf,inf,inf,0,1,0,1,1,0,1,1,0,0,0
29034147,0,0.0,0.0,0.0,0.0,0.6136475,3.323168e-05,8.524516e-06,0.0,-0.017064162,0.008324318,0.00049623137,-0.0035825623,0.008307921,0.0021311291,0.0,1.1784917,-0.5597591,-0.3751287,2.1641486,0.0,0.11412156,-0.00049623137,0.12954701,0.2606492,0.108503304,0.112924464,inf,inf,inf,inf,0,1,0,1,1,0,1,1,0,0,0
29138143,0,0.0,0.0,0.0,0.0,0.6080872,3.323168e-05,8.524516e-06,0.0,0.053495705,-0.03013979,0.01057603,0.001674352,0.008307921,0.0021311291,0.0,-0.13202322,0.72705215,-0.14401604,2.1559052,0.0,0.119681895,-0.01057603,0.12779722,0.25892916,0.10740145,0.11251186,inf,inf,inf,inf,0,1,0,1,1,0,1,1,0,0,0
29242143,0,0.0,0.0,0.0,0.0,0.6019838,3.323168e-05,8.524516e-06,0.0,-0.0134684015,0.034156077,-0.013801291,-0.027935317,0.008307921,0.0021311291,0.0,0.014554962,-0.58414114,-0.611166,2.1544487,0.0,0.12578529,0.013801291,0.12813161,0.25937992,0.107459866,0.11262833,inf,inf,inf,inf,0,1,0,1,1,0,1,1,0,0,0
29338147,0,0.0,0.0,0.0,0.0,0.59576803,3.323168e-05,8.524516e-06,0.0,0.027141383,-0.010279281,0.0030470022,-0.015058426,0.008307921,0.0021311291,0.0,0.45964384,0.28048867,0.49119923,2.153537,0.0,0.13200104,-0.0030470022,0.12778983,0.25912252,0.1070914,0.1125847,inf,inf,inf,inf,0,1,0,1,1,0,1,1,0,0,0
29442143,0,0.0,0.0,0.0,0.0,0.5901409,3.323168e-05,8.524516e-06,0.0,0.010707299,0.01584709,-0.0055137095,-0.026070207,0.008307921,0.0021311291,0.0,-0.7218994,0.41956332,0.97220004,2.1533282,0.0,0.1376282,0.0055137095,0.12818712,0.25960988,0.107237294,0.11275149,inf,inf,inf,inf,0,1,0,1,1,0,1,1,0,0,0
29546943,0,0.0,0.0,0.0,0.0,0.5888996,3.323168e-05,8.524516e-06,0.0,-0.03731222,0.06084536,0.0020977228,-0.017469797,0.008307921,0.0021311291,0.0,-0.4035808,-0.35696214,-0.3540749,2.1526294,0.0,0.13886946,-0.0020977228,0.12854557,0.2600787,0.10728181,0.11288554,inf,inf,inf,inf,0,1,0,1,1,0,1,1,0,0,0
29642943,0,0.0,0.0,0.0,0.0,0.5881868,3.323168e-05,8.524516e-06,0.0,0.046930436,-0.017007126,0.014252645,-0.0024873388,0.008307921,0.0021311291,0.0,0.3383984,-0.9700289,0.66778934,2.1475694,0.0,0.13958228,-0.014252645,0.12823407,0.25983974,0.10702874,0.1128374,inf,inf,inf,inf,0,1,0,1,1,0,1,1,0,0,0
29746943,0,0.0,0.0,0.0,0.0,0.589314,3.323168e-05,8.524516e-06,0.0,0.0009259482,0.025541717,-0.012462568,-0.025688596,0.008307921,0.0021311291,0.0,-0.11072442,0.698492,0.59758204,2.1482317,0.0,0.1384551,0.012462568,0.12860744,0.26035273,0.10723892,0.11298918,inf,inf,inf,inf,0,1,0,1,1,0,1,1,0,0,0
29850943,0,0.0,0.0,0.0,0.0,0.5879987,3.323168e-05,8.524516e-06,0.0,0.013009183,-0.01637821,-0.011371569,-0.023901604,0.008307921,0.0021311291,0.0,0.87084913,-0.8105285,0.88749164,2.1523929,0.0,0.13977039,0.011371569,0.12892926,0.26080012,0.1072354,0.11309457,inf,inf,inf,inf,0,1,0,1,1,0,1,1,0,0,0
29946961,0,0.0,0.0,0.0,0.0,0.5851009,3.323168e-05,8.524516e-06,0.0,0.04410359,-0.037661634,0.009669372,-0.0039240764,0.008307921,0.0021311291,0.0,-0.64244753,1.1449319,-0.043697327,2.1414402,0.0,0.14266819,-0.009669372,0.12854326,0.26051652,0.106912464,0.11305154,inf,inf,inf,inf,0,1,0,1,1,0,1,1,0,0,0
30050943,0,0.0,0.0,0.0,0.0,0.5809827,3.323168e-05,8.524516e-06,0.0,-0.018195385,0.020949969,0.00032363145,-0.015058981,0.008307921,0.0021311291,0.0,0.15524606,-0.5834613,-0.31267855,2.1395712,0.0,0.14678639,-0.00032363145,0.12878934,0.2609186,0.10699565,0.11313588,inf,inf,inf,inf,0,1,0,1,1,0,1,1,0,0,0
30155753,0,0.0,0.0,0.0,0.0,0.57551813,3.323168e-05,8.524516e-06,0.0,0.05389243,-0.05045422,-0.00092183804,-0.018855056,0.008307921,0.0021311291,0.0,1.0868795,-0.28599808,-0.73699886,2.1423044,0.0,0.15225095,0.00092183804,0.12903728,0.26131773,0.10707354,0.11325619,inf,inf,inf,inf,0,1,0,1,1,0,1,1,0,0,0
30251743,0,0.0,0.0,0.0,0.0,0.5727336,3.323168e-05,8.524516e-06,0.0,0.019795407,-0.0128179705,-0.012527348,-0.02993391,0.008307921,0.0021311291,0.0,0.28474766,-0.2227311,-0.21252134,2.1396456,0.0,0.1550355,0.012527348,0.12869969,0.26108158,0.106884696,0.11318597,inf,inf,inf,inf,0,1,0,1,1,0,1,1,0,0,0
30355743,0,0.0,0.0,0.0,0.0,0.57271683,3.323168e-05,8.524516e-06,0.0,0.025171889,-0.012878527,-0.008864386,-0.023214296,0.008307921,0.0021311291,0.0,0.7193368,-0.9212313,-0.65847206,2.1370392,0.0,0.15505224,0.008864386,0.12899,0.2614944,0.10701806,0.11329255,inf,inf,inf,inf,0,1,0,1,1,0,1,1,0,0,0
30459743,0,0.0,0.0,0.0,0.0,0.5696777,3.323168e-05,8.524516e-06,0.0,0.021887423,-0.03956319,-0.0048551783,-0.01904442,0.008307921,0.0021311291,0.0,0.060030412,0.0015233301,0.38679308,2.132277,0.0,0.15809137,0.0048551783,0.12926106,0.2618919,0.10714443,0.11341547,inf,inf,inf,inf,0,1,0,1,1,0,1,1,0,0,0
30555751,0,0.0,0.0,0.0,0.0,0.56744313,3.323168e-05,8.524516e-06,0.0,0.04895819,0.004303561,-0.0032981252,-0.01723121,0.008307921,0.0021311291,0.0,0.046419073,0.034042772,0.19775254,2.132788,0.0,0.16032594,0.0032981252,0.12888162,0.26158533,0.1069239,0.11332749,inf,inf,inf,inf,0,1,0,1,1,0,1,1,0,0,0
30660548,0,0.0,0.0,0.0,0.0,0.56758744,3.323168e-05,8.524516e-06,0.0,0.041200463,-0.050729092,-0.015566148,-0.026499175,0.008307921,0.0021311291,0.0,-0.7185463,-0.58879083,0.15938891,2.13254,0.0,0.16018164,0.015566148,0.1292013,0.262,0.10710166,0.11344594,inf,inf,inf,inf,0,1,0,1,1,0,1,1,0,0,0
30764543,0,0.0,0.0,0.0,0.0,0.5690756,3.323168e-05,8.524516e-06,0.0,0.0008603177,-0.023975804,-0.005476444,-0.012702619,0.008307921,0.0021311291,0.0,0.13660495,-0.21639784,-0.1258655,2.1308389,0.0,0.15869349,0.005476444,0.1273849,0.2601719,0.10615085,0.112949915,inf,inf,inf,inf,0,1,0,1,1,0,1,1,0,0,0
30860543,0,0.0,0.0,0.0,0.0,0.56576264,3.323168e-05,8.524516e-06,0.0,0.052559126,-0.035390027,0.005363144,-0.0031351051,0.008307921,0.0021311291,0.0,0.8493561,0.0619304,0.85399383,2.1284194,0.0,0.16200644,-0.005363144,0.1291866,0.26214337,0.10711204,0.113471895,inf,inf,inf,inf,0,1,0,1,1,0,1,1,0,0,0
30964543,0,0.0,0.0,0.0,0.0,0.5633034,3.323168e-05,8.524516e-06,0.0,0.050029982,-0.043924045,-0.00036025117,-0.009120024,0.008307921,0.0021311291,0.0,-0.4771139,0.08933723,0.25429398,2.1288047,0.0,0.16446567,0.00036025117,0.12946792,0.26252186,0.107315235,0.11357727,inf,inf,inf,inf,0,1,0,1,1,0,1,1,0,0,0
31068543,0,0.0,0.0,0.0,0.0,0.5584302,3.323168e-05,8.524516e-06,0.0,0.0020449655,-0.038433366,-0.03243223,-0.04377299,0.008307921,0.0021311291,0.0,0.22533572,-0.89260364,-1.0753721,2.1290965,0.0,0.16933888,0.03243223,0.12766863,0.2606812,0.10645015,0.113069996,inf,inf,inf,inf,0,1,0,1,1,0,1,1,0,0,0
31165383,0,0.0,0.0,0.0,0.0,0.55671215,3.323168e-05,8.524516e-06,0.0,0.01726996,-0.016769547,0.003041838,-0.006740761,0.008307921,0.0021311291,0.0,-0.037840284,1.2475636,0.5588324,2.1258988,0.0,0.17105693,-0.003041838,0.12731929,0.26035413,0.10627328,0.1129835,inf,inf,inf,inf,0,1,0,1,1,0,1,1,0,0,0
31269343,0,0.0,0.0,0.0,0.0,0.5570476,3.323168e-05,8.524516e-06,0.0,0.030873796,0.03487185,-0.00832645,-0.01585217,0.008307921,0.0021311291,0.0,-0.47407827,-1.326402,0.091744766,2.1241832,0.0,0.17072147,0.00832645,0.12769003,0.26076534,0.10659604,0.11310305,inf,inf,inf,inf,0,1,0,1,1,0,1,1,0,0,0
31373343,0,0.0,0.0,0.0,0.0,0.55731046,3.323168e-05,8.524516e-06,0.0,0.0048118965,-0.06791758,-0.023127569,-0.028573764,0.008307921,0.0021311291,0.0,-0.85517085,-0.19297202,-0.016060697,2.1238523,0.0,0.17045861,0.023127569,0.12812462,0.26124552,0.10684682,0.11323771,inf,inf,inf,inf,0,1,0,1,1,0,1,1,0,0,0
31469404,0,0.0,0.0,0.0,0.0,0.5556601,3.323168e-05,8.524516e-06,0.0,-0.01803871,-0.0028910441,0.011516732,0.006622053,0.008307921,0.0021311291,0.0,0.23853146,0.9096091,0.39586025,2.122939,0.0,0.17210895,-0.011516732,0.12780994,0.26092535,0.10678415,0.11314214,inf,inf,inf,inf,0,1,0,1,1,0,1,1,0,0,0
31573452,0,0.0,0.0,0.0,0.0,0.5564788,3.323168e-05,8.524516e-06,0.0,0.06309567,-0.034447886,-0.0021438038,-0.0045039062,0.008307921,0.0021311291,0.0,0.73470753,-1.1716604,0.27223486,2.1276257,0.0,0.17129028,0.0021438038,0.1282274,0.2613544,0.10715095,0.113257065,inf,inf,inf,inf,0,1,0,1,1,0,1,1,0,0,0
