timestamp,vel_pos_innov[0],vel_pos_innov[1],vel_pos_innov[2],vel_pos_innov[3],vel_pos_innov[4],vel_pos_innov[5],mag_innov[0],mag_innov[1],mag_innov[2],heading_innov,airspeed_innov,beta_innov,flow_innov[0],flow_innov[1],hagl_innov,vel_pos_innov_var[0],vel_pos_innov_var[1],vel_pos_innov_var[2],vel_pos_innov_var[3],vel_pos_innov_var[4],vel_pos_innov_var[5],mag_innov_var[0],mag_innov_var[1],mag_innov_var[2],heading_innov_var,airspeed_innov_var,beta_innov_var,flow_innov_var[0],flow_innov_var[1],hagl_innov_var,output_tracking_error[0],output_tracking_error[1],output_tracking_error[2],drag_innov[0],drag_innov[1],drag_innov_var[0],drag_innov_var[1],aux_vel_innov[0],aux_vel_innov[1]
6713350,0.0,0.0,0.0,-0.006522392,0.0023154789,-0.1824646,0.0,0.0,0.0,0.001989603,0.0,0.0,0.0,0.0,0.0,0.0,0.0,0.0,0.2822257,0.2822258,4.200591,0.0,0.0,0.0,0.09374881,0.0,0.0,0.0,0.0,0.0,0.0034787713,0.030891554,0.035752635,0.0,0.0,0.0,0.0,0.0,0.0
6913346,0.0,0.0,0.0,-0.0039819805,-0.0009085344,-0.15119934,0.0,0.0,0.0,0.010971785,0.0,0.0,0.0,0.0,0.0,0.0,0.0,0.0,0.28339523,0.28339505,4.1952233,0.0,0.0,0.0,0.093637295,0.0,0.0,0.0,0.0,0.0,0.0041571194,0.032366484,0.031521045,0.0,0.0,0.0,0.0,0.0,0.0
7114146,0.0,0.0,0.0,-0.004470145,-0.007436841,-0.34552002,0.0,0.0,0.0,0.01330924,0.0,0.0,0.0,0.0,0.0,0.0,0.0,0.0,0.28463352,0.28463387,4.191338,0.0,0.0,0.0,0.093525775,0.0,0.0,0.0,0.0,0.0,0.0035370355,0.036525924,0.037200857,0.0,0.0,0.0,0.0,0.0,0.0
7322146,0.0,0.0,0.0,-0.0024583598,0.0009986756,-0.02633667,0.0,0.0,0.0,-0.017804384,0.0,0.0,0.0,0.0,0.0,0.0,0.0,0.0,0.28510895,0.2851088,4.187521,0.0,0.0,0.0,0.09333619,0.0,0.0,0.0,0.0,0.0,0.004108288,0.021980684,0.018748054,0.0,0.0,0.0,0.0,0.0,0.0
7522954,0.0,0.0,0.0,-0.005043319,-0.0036825868,0.08912659,0.0,0.0,0.0,-0.012358189,0.0,0.0,0.0,0.0,0.0,0.0,0.0,0.0,0.28237534,0.28237602,4.1781807,0.0,0.0,0.0,0.09314709,0.0,0.0,0.0,0.0,0.0,0.0041935253,0.020510398,0.016555116,0.0,0.0,0.0,0.0,0.0,0.0
7722946,0.0,0.0,0.0,0.009230205,0.0030049498,0.14399719,0.0,0.0,0.0,-0.03775096,0.0,0.0,0.0,0.0,0.0,0.0,0.0,0.0,0.2812105,0.28120944,4.1718655,0.0,0.0,0.0,0.09299166,0.0,0.0,0.0,0.0,0.0,0.001957438,0.04873132,0.07147416,0.0,0.0,0.0,0.0,0.0,0.0
7930960,0.0,0.0,0.0,0.016146671,0.0021799803,0.23838806,0.0,0.0,0.0,-0.010083437,0.0,0.0,0.0,0.0,0.0,0.0,0.0,0.0,0.28021,0.28020886,4.1661177,0.0,0.0,0.0,0.09277888,0.0,0.0,0.0,0.0,0.0,0.005040305,0.048846737,0.067343265,0.0,0.0,0.0,0.0,0.0,0.0
8131780,0.0,0.0,0.0,0.013428894,0.0015916749,0.06668091,0.0,0.0,0.0,-0.0062174797,0.0,0.0,0.0,0.0,0.0,0.0,0.0,0.0,0.27800515,0.2780044,4.158504,0.0,0.0,0.0,0.0926414,0.0,0.0,0.0,0.0,0.0,0.007513663,0.047924682,0.0394318,0.0,0.0,0.0,0.0,0.0,0.0
8331745,0.0,0.0,0.0,0.010781293,0.0040765177,0.020019531,0.0,0.0,0.0,0.012238026,0.0,0.0,0.0,0.0,0.0,0.0,0.0,0.0,0.27750993,0.27750948,4.1549854,0.0,0.0,0.0,0.0924917,0.0,0.0,0.0,0.0,0.0,0.006024097,0.047249753,0.04033155,0.0,0.0,0.0,0.0,0.0,0.0
8539743,0.0,0.0,0.0,0.004843256,0.0054610507,-0.08924866,0.0,0.0,0.0,0.007879734,0.0,0.0,0.0,0.0,0.0,0.0,0.0,0.0,0.2769354,0.27693534,4.152189,0.0,0.0,0.0,0.0923461,0.0,0.0,0.0,0.0,0.0,0.0035954155,0.038067427,0.045651965,0.0,0.0,0.0,0.0,0.0,0.0
8740543,0.0,0.0,0.0,0.002797683,0.004283495,0.42674255,0.0,0.0,0.0,0.019145489,0.0,0.0,0.0,0.0,0.0,0.0,0.0,0.0,0.27692062,0.27692083,4.151631,0.0,0.0,0.0,0.092237495,0.0,0.0,0.0,0.0,0.0,0.0022154406,0.03357794,0.048138283,0.0,0.0,0.0,0.0,0.0,0.0
8940543,0.0,0.0,0.0,0.00050440093,0.0074274493,0.041732788,0.0,0.0,0.0,0.0003376007,0.0,0.0,0.0,0.0,0.0,0.0,0.0,0.0,0.27543736,0.27543762,4.1484685,0.0,0.0,0.0,0.09212307,0.0,0.0,0.0,0.0,0.0,0.0020382383,0.031442437,0.049279515,0.0,0.0,0.0,0.0,0.0,0.0
9140596,0.0,0.0,0.0,-0.004805788,0.00610441,-0.40525818,0.0,0.0,0.0,-0.00078582764,0.0,0.0,0.0,0.0,0.0,0.0,0.0,0.0,0.274765,0.27476558,4.147373,0.0,0.0,0.0,0.09201187,0.0,0.0,0.0,0.0,0.0,0.00195394,0.015084348,0.023135934,0.0,0.0,0.0,0.0,0.0,0.0
9349346,0.0,0.0,0.0,-0.009410478,0.007870044,0.059173584,0.0,0.0,0.0,-0.010513067,0.0,0.0,0.0,0.0,0.0,0.0,0.0,0.0,0.27362895,0.2736296,4.145191,0.0,0.0,0.0,0.09191699,0.0,0.0,0.0,0.0,0.0,0.002227993,0.016810974,0.01645032,0.0,0.0,0.0,0.0,0.0,0.0
9549343,0.0,0.0,0.0,-0.008407786,0.0036719094,0.05419922,0.0,0.0,0.0,0.019392729,0.0,0.0,0.0,0.0,0.0,0.0,0.0,0.0,0.27322167,0.27322206,4.144995,0.0,0.0,0.0,0.09182437,0.0,0.0,0.0,0.0,0.0,0.0035865337,0.025291996,0.02936589,0.0,0.0,0.0,0.0,0.0,0.0
9750187,0.0,0.0,0.0,-0.0017616021,0.0021888947,0.2137146,0.0,0.0,0.0,0.020524025,0.0,0.0,0.0,0.0,0.0,0.0,0.0,0.0,0.27216598,0.27216592,4.143268,0.0,0.0,0.0,0.09175429,0.0,0.0,0.0,0.0,0.0,0.0036773758,0.022329612,0.023930898,0.0,0.0,0.0,0.0,0.0,0.0
9958143,0.0,0.0,0.0,0.003022051,-0.0017580619,-0.10475159,0.0,0.0,0.0,-0.00063180923,0.0,0.0,0.0,0.0,0.0,0.0,0.0,0.0,0.27167305,0.27167284,4.1431746,0.0,0.0,0.0,0.09168029,0.0,0.0,0.0,0.0,0.0,0.0026963628,0.01522401,0.022165999,0.0,0.0,0.0,0.0,0.0,0.0
10158145,0.0,0.0,0.0,0.0072598774,-0.0035451672,-0.5227661,0.0,0.0,0.0,0.013625383,0.0,0.0,0.0,0.0,0.0,0.0,0.0,0.0,0.2709758,0.27097556,4.1425405,0.0,0.0,0.0,0.09160746,0.0,0.0,0.0,0.0,0.0,0.002136361,0.022684757,0.03653991,0.0,0.0,0.0,0.0,0.0,0.0
10358943,0.0,0.0,0.0,0.013776753,-0.0052919625,-0.6666107,0.0,0.0,0.0,-0.018392086,0.0,0.0,0.0,0.0,0.0,0.0,0.0,0.0,0.27032787,0.27032772,4.141706,0.0,0.0,0.0,0.09154456,0.0,0.0,0.0,0.0,0.0,0.0016755335,0.040256932,0.06219768,0.0,0.0,0.0,0.0,0.0,0.0
10566943,0.0,0.0,0.0,0.01833562,-0.005542749,-0.018737793,0.0,0.0,0.0,-3.886223e-05,0.0,0.0,0.0,0.0,0.0,0.0,0.0,0.0,0.27008224,0.2700822,4.142057,0.0,0.0,0.0,0.09148238,0.0,0.0,0.0,0.0,0.0,0.0021166396,0.036989927,0.058573592,0.0,0.0,0.0,0.0,0.0,0.0
10767743,0.0,0.0,0.0,0.021539638,-0.0036492923,0.13998413,0.0,0.0,0.0,0.0071578026,0.0,0.0,0.0,0.0,0.0,0.0,0.0,0.0,0.26872733,0.26872742,4.1384554,0.0,0.0,0.0,0.0914349,0.0,0.0,0.0,0.0,0.0,0.0025092694,0.02901747,0.043736696,0.0,0.0,0.0,0.0,0.0,0.0
10967750,0.0,0.0,0.0,0.023536734,-0.005411209,0.13002014,0.0,0.0,0.0,-0.01847148,0.0,0.0,0.0,0.0,0.0,0.0,0.0,0.0,0.26817513,0.26817524,4.136835,0.0,0.0,0.0,0.09138424,0.0,0.0,0.0,0.0,0.0,0.0026411498,0.024934815,0.021645315,0.0,0.0,0.0,0.0,0.0,0.0
11175759,0.0,0.0,0.0,0.024055075,-0.0074336194,0.3132019,0.0,0.0,0.0,-0.0023198128,0.0,0.0,0.0,0.0,0.0,0.0,0.0,0.0,0.26768154,0.26768166,4.1350236,0.0,0.0,0.0,0.09133378,0.0,0.0,0.0,0.0,0.0,0.002481186,0.027721444,0.031444494,0.0,0.0,0.0,0.0,0.0,0.0
11376577,0.0,0.0,0.0,0.026943648,-0.0074302,-0.29577637,0.0,0.0,0.0,0.0055589676,0.0,0.0,0.0,0.0,0.0,0.0,0.0,0.0,0.267024,0.26702413,4.1330695,0.0,0.0,0.0,0.09694509,0.0,0.0,0.0,0.0,0.0,0.002131191,0.02070723,0.021891823,0.0,0.0,0.0,0.0,0.0,0.0
11576543,0.0,0.0,0.0,0.011765763,-0.009486997,-0.11451721,0.0,0.0,0.0,-0.003804922,0.0,0.0,0.0,0.0,0.0,0.0,0.0,0.0,0.26565886,0.26565933,4.129818,0.0,0.0,0.0,0.09410393,0.0,0.0,0.0,0.0,0.0,0.0009780234,0.014363373,0.018142113,0.0,0.0,0.0,0.0,0.0,0.0
11784546,0.0,0.0,0.0,0.025144937,-0.0065023256,0.13943481,0.0,0.0,0.0,0.0044031143,0.0,0.0,0.0,0.0,0.0,0.0,0.0,0.0,0.26496252,0.2649626,4.1276746,0.0,0.0,0.0,0.09282917,0.0,0.0,0.0,0.0,0.0,0.0011359307,0.010707085,0.016136497,0.0,0.0,0.0,0.0,0.0,0.0
11985398,0.0,0.0,0.0,0.032126196,-0.013064944,-0.06704712,0.0,0.0,0.0,-0.005007267,0.0,0.0,0.0,0.0,0.0,0.0,0.0,0.0,0.26522705,0.26522735,4.1251135,0.0,0.0,0.0,0.092219144,0.0,0.0,0.0,0.0,0.0,0.00136277,0.016020723,0.023376789,0.0,0.0,0.0,0.0,0.0,0.0
12185401,0.0,0.0,0.0,0.044951905,-0.0046134726,-0.33418274,0.0,0.0,0.0,-0.012814045,0.0,0.0,0.0,0.0,0.0,0.0,0.0,0.0,0.26608723,0.26608884,4.121984,0.0,0.0,0.0,0.09183392,0.0,0.0,0.0,0.0,0.0,0.0026189946,0.022675203,0.020537809,0.0,0.0,0.0,0.0,0.0,0.0
12393349,0.0,0.0,0.0,0.0366604,-0.017032161,0.010498047,0.0,0.0,0.0,-0.012870312,0.0,0.0,0.0,0.0,0.0,0.0,0.0,0.0,0.26803014,0.2680309,4.1209316,0.0,0.0,0.0,0.09154785,0.0,0.0,0.0,0.0,0.0,0.00340708,0.033124503,0.028024513,0.0,0.0,0.0,0.0,0.0,0.0
12594150,0.0,0.0,0.0,0.029333005,-0.008026915,0.4385376,0.0,0.0,0.0,0.005391121,0.0,0.0,0.0,0.0,0.0,0.0,0.0,0.0,0.26914772,0.2691483,4.118681,0.0,0.0,0.0,0.09136785,0.0,0.0,0.0,0.0,0.0,0.0033249608,0.033755705,0.029283093,0.0,0.0,0.0,0.0,0.0,0.0
12794162,0.0,0.0,0.0,0.017913554,-0.010678443,-0.10977173,0.0,0.0,0.0,0.009441614,0.0,0.0,0.0,0.0,0.0,0.0,0.0,0.0,0.26929623,0.26929626,4.115687,0.0,0.0,0.0,0.0912336,0.0,0.0,0.0,0.0,0.0,0.0021569184,0.024639461,0.026451739,0.0,0.0,0.0,0.0,0.0,0.0
13002943,0.0,0.0,0.0,0.0077078785,-0.001562141,-0.09802246,0.0,0.0,0.0,-0.012727737,0.0,0.0,0.0,0.0,0.0,0.0,0.0,0.0,0.26883736,0.2688372,4.112467,0.0,0.0,0.0,0.09112299,0.0,0.0,0.0,0.0,0.0,0.0013956417,0.006971582,0.008151376,0.0,0.0,0.0,0.0,0.0,0.0
13202943,0.0,0.0,0.0,-0.004479811,0.0019093675,-0.29847717,0.0,0.0,0.0,0.013797283,0.0,0.0,0.0,0.0,0.0,0.0,0.0,0.0,0.26842883,0.26842868,4.1106906,0.0,0.0,0.0,0.09104939,0.0,0.0,0.0,0.0,0.0,0.00021555948,0.009862007,0.013434898,0.0,0.0,0.0,0.0,0.0,0.0
13402958,0.0,0.0,0.0,-0.0034291008,0.0008545543,-0.2681427,0.0,0.0,0.0,0.019384861,0.0,0.0,0.0,0.0,0.0,0.0,0.0,0.0,0.26762784,0.26762766,4.108753,0.0,0.0,0.0,0.090991415,0.0,0.0,0.0,0.0,0.0,0.00012023364,0.015959566,0.020061694,0.0,0.0,0.0,0.0,0.0,0.0
13611743,0.0,0.0,0.0,-0.0042206207,-0.00281829,-0.2747345,0.0,0.0,0.0,-0.0049402714,0.0,0.0,0.0,0.0,0.0,0.0,0.0,0.0,0.26671484,0.2667147,4.1068153,0.0,0.0,0.0,0.090943195,0.0,0.0,0.0,0.0,0.0,0.00023670329,0.01952127,0.022015821,0.0,0.0,0.0,0.0,0.0,0.0
13811743,0.0,0.0,0.0,-0.008344196,-0.0045918273,0.13671875,0.0,0.0,0.0,0.010088205,0.0,0.0,0.0,0.0,0.0,0.0,0.0,0.0,0.26582858,0.26582852,4.10499,0.0,0.0,0.0,0.09090997,0.0,0.0,0.0,0.0,0.0,0.0010727365,0.021766646,0.024542928,0.0,0.0,0.0,0.0,0.0,0.0
14012543,0.0,0.0,0.0,-0.016521871,-0.00026051558,-0.11727905,0.0,0.0,0.0,-0.0067625046,0.0,0.0,0.0,0.0,0.0,0.0,0.0,0.0,0.26490217,0.26490223,4.1030445,0.0,0.0,0.0,0.090883166,0.0,0.0,0.0,0.0,0.0,0.0002829773,0.022640832,0.02599132,0.0,0.0,0.0,0.0,0.0,0.0
14220543,0.0,0.0,0.0,-0.04700384,0.0120346155,-0.29725647,0.0,0.0,0.0,0.006754875,0.0,0.0,0.0,0.0,0.0,0.0,0.0,0.0,0.26391095,0.26391232,4.100818,0.0,0.0,0.0,0.090867296,0.0,0.0,0.0,0.0,0.0,0.00063718355,0.031856637,0.03640264,0.0,0.0,0.0,0.0,0.0,0.0
14420579,0.0,0.0,0.0,-0.051149566,0.01757099,0.22888184,0.0,0.0,0.0,0.00020980835,0.0,0.0,0.0,0.0,0.0,0.0,0.0,0.0,0.2631782,0.26317936,4.098983,0.0,0.0,0.0,0.09085391,0.0,0.0,0.0,0.0,0.0,0.001016,0.03557921,0.042815108,0.0,0.0,0.0,0.0,0.0,0.0
14620552,0.0,0.0,0.0,-0.047732987,0.0106293615,-0.20025635,0.0,0.0,0.0,0.016404152,0.0,0.0,0.0,0.0,0.0,0.0,0.0,0.0,0.26279366,0.26279467,4.098163,0.0,0.0,0.0,0.090844266,0.0,0.0,0.0,0.0,0.0,0.0013518325,0.03295019,0.04274494,0.0,0.0,0.0,0.0,0.0,0.0
14822145,0.0,0.0,0.0,-0.021188522,0.0025974964,-0.13661194,0.0,0.0,0.0,0.0070369244,0.0,0.0,0.0,0.0,0.0,0.0,0.0,0.0,0.26195496,0.26195464,4.0954494,0.0,0.0,0.0,0.09083784,0.0,0.0,0.0,0.0,0.0,0.0012235501,0.025809335,0.036118437,0.0,0.0,0.0,0.0,0.0,0.0
15022143,0.0,0.0,0.0,-0.009311352,-0.0055284826,-0.29832458,0.0,0.0,0.0,-0.005716324,0.0,0.0,0.0,0.0,0.0,0.0,0.0,0.0,0.26152053,0.26151997,4.09385,0.0,0.0,0.0,0.09083634,0.0,0.0,0.0,0.0,0.0,0.00084922294,0.01877004,0.03496582,0.0,0.0,0.0,0.0,0.0,0.0
15222143,0.0,0.0,0.0,-0.0023338285,-0.006422947,-0.0010528564,0.0,0.0,0.0,0.021301985,0.0,0.0,0.0,0.0,0.0,0.0,0.0,0.0,0.26115796,0.261157,4.092205,0.0,0.0,0.0,0.09083358,0.0,0.0,0.0,0.0,0.0,0.00040788864,0.009896997,0.013991391,0.0,0.0,0.0,0.0,0.0,0.0
15430146,0.0,0.0,0.0,-0.001143383,-0.009941257,-0.17001343,0.0,0.0,0.0,0.002268076,0.0,0.0,0.0,0.0,0.0,0.0,0.0,0.0,0.2609058,0.26090452,4.09062,0.0,0.0,0.0,0.090832554,0.0,0.0,0.0,0.0,0.0,0.0007280383,0.005182182,0.006366387,0.0,0.0,0.0,0.0,0.0,0.0
15630220,0.0,0.0,0.0,0.005587337,-0.011631653,0.09970093,0.0,0.0,0.0,0.01103735,0.0,0.0,0.0,0.0,0.0,0.0,0.0,0.0,0.26064247,0.26064083,4.088558,0.0,0.0,0.0,0.09083423,0.0,0.0,0.0,0.0,0.0,0.0009057583,0.0030246228,0.005653751,0.0,0.0,0.0,0.0,0.0,0.0
15830943,0.0,0.0,0.0,0.015358444,-0.014898643,-0.07673645,0.0,0.0,0.0,0.0008327961,0.0,0.0,0.0,0.0,0.0,0.0,0.0,0.0,0.2607775,0.26077554,4.0876875,0.0,0.0,0.0,0.09083329,0.0,0.0,0.0,0.0,0.0,0.001267129,0.0044503543,0.00770573,0.0,0.0,0.0,0.0,0.0,0.0
16030943,0.0,0.0,0.0,0.011740397,-0.009060651,0.26783752,0.0,0.0,0.0,-0.010030746,0.0,0.0,0.0,0.0,0.0,0.0,0.0,0.0,0.2608804,0.26087746,4.0863204,0.0,0.0,0.0,0.09083316,0.0,0.0,0.0,0.0,0.0,0.0008101702,0.007661898,0.01470746,0.0,0.0,0.0,0.0,0.0,0.0
16239743,0.0,0.0,0.0,0.00045287644,0.014673189,-0.2722168,0.0,0.0,0.0,-0.016803265,0.0,0.0,0.0,0.0,0.0,0.0,0.0,0.0,0.26106575,0.26106018,4.084956,0.0,0.0,0.0,0.09083183,0.0,0.0,0.0,0.0,0.0,0.00033131609,0.009658376,0.022310222,0.0,0.0,0.0,0.0,0.0,0.0
16439762,0.0,0.0,0.0,-0.012620207,0.010901925,-0.093307495,0.0,0.0,0.0,0.0133214,0.0,0.0,0.0,0.0,0.0,0.0,0.0,0.0,0.26114532,0.26114053,4.083156,0.0,0.0,0.0,0.09083085,0.0,0.0,0.0,0.0,0.0,0.00084084563,0.006643432,0.011358331,0.0,0.0,0.0,0.0,0.0,0.0
16639743,0.0,0.0,0.0,-0.013188686,0.017629715,0.0021972656,0.0,0.0,0.0,-0.008643627,0.0,0.0,0.0,0.0,0.0,0.0,0.0,0.0,0.2614717,0.26146638,4.0817184,0.0,0.0,0.0,0.09083137,0.0,0.0,0.0,0.0,0.0,0.0008864578,0.009966203,0.0091312025,0.0,0.0,0.0,0.0,0.0,0.0
16840552,0.0,0.0,0.0,-0.0148861585,0.0075886287,0.15620422,0.0,0.0,0.0,0.0016567707,0.0,0.0,0.0,0.0,0.0,0.0,0.0,0.0,0.26165012,0.2616462,4.0801415,0.0,0.0,0.0,0.0908285,0.0,0.0,0.0,0.0,0.0,0.0011843233,0.013631422,0.02220394,0.0,0.0,0.0,0.0,0.0,0.0
17040546,0.0,0.0,0.0,-0.002847867,-0.021478307,-0.114730835,0.0,0.0,0.0,0.011159658,0.0,0.0,0.0,0.0,0.0,0.0,0.0,0.0,0.26184887,0.26184717,4.07873,0.0,0.0,0.0,0.09082784,0.0,0.0,0.0,0.0,0.0,0.0014600725,0.009372921,0.017708002,0.0,0.0,0.0,0.0,0.0,0.0
17248543,0.0,0.0,0.0,0.01563215,-0.023459656,-0.23135376,0.0,0.0,0.0,-0.00063323975,0.0,0.0,0.0,0.0,0.0,0.0,0.0,0.0,0.2621931,0.26219174,4.0776367,0.0,0.0,0.0,0.090824254,0.0,0.0,0.0,0.0,0.0,0.0021605315,0.012914118,0.030321976,0.0,0.0,0.0,0.0,0.0,0.0
17449343,0.0,0.0,0.0,0.02354846,-0.029585153,-0.2124939,0.0,0.0,0.0,0.008015871,0.0,0.0,0.0,0.0,0.0,0.0,0.0,0.0,0.26241457,0.26241368,4.076739,0.0,0.0,0.0,0.09081963,0.0,0.0,0.0,0.0,0.0,0.0017093037,0.013254479,0.015426965,0.0,0.0,0.0,0.0,0.0,0.0
17649392,0.0,0.0,0.0,0.030682957,-0.03690651,0.13363647,0.0,0.0,0.0,-0.01546669,0.0,0.0,0.0,0.0,0.0,0.0,0.0,0.0,0.2625494,0.26254898,4.075905,0.0,0.0,0.0,0.09081445,0.0,0.0,0.0,0.0,0.0,0.0019482346,0.019581627,0.022849906,0.0,0.0,0.0,0.0,0.0,0.0
17850146,0.0,0.0,0.0,0.03993416,-0.031883877,0.048202515,0.0,0.0,0.0,0.0012218952,0.0,0.0,0.0,0.0,0.0,0.0,0.0,0.0,0.26260543,0.26260537,4.075078,0.0,0.0,0.0,0.09080889,0.0,0.0,0.0,0.0,0.0,0.0022608745,0.02300896,0.027987292,0.0,0.0,0.0,0.0,0.0,0.0
18050153,0.0,0.0,0.0,0.031004196,-0.03679948,-0.21194458,0.0,0.0,0.0,0.024383783,0.0,0.0,0.0,0.0,0.0,0.0,0.0,0.0,0.26259223,0.2625919,4.074321,0.0,0.0,0.0,0.09080502,0.0,0.0,0.0,0.0,0.0,0.002225576,0.023029203,0.02918042,0.0,0.0,0.0,0.0,0.0,0.0
18258158,0.0,0.0,0.0,0.03439246,-0.029329492,-0.19699097,0.0,0.0,0.0,0.0038056374,0.0,0.0,0.0,0.0,0.0,0.0,0.0,0.0,0.26235676,0.26235655,4.0732055,0.0,0.0,0.0,0.09079823,0.0,0.0,0.0,0.0,0.0,0.0021221724,0.020541692,0.028505377,0.0,0.0,0.0,0.0,0.0,0.0
18458985,0.0,0.0,0.0,0.0283682,-0.03238987,-0.020141602,0.0,0.0,0.0,-0.025495052,0.0,0.0,0.0,0.0,0.0,0.0,0.0,0.0,0.26228943,0.26228917,4.0725565,0.0,0.0,0.0,0.09079102,0.0,0.0,0.0,0.0,0.0,0.0018508409,0.018139545,0.02531839,0.0,0.0,0.0,0.0,0.0,0.0
18658943,0.0,0.0,0.0,0.023890335,-0.024214806,0.1605072,0.0,0.0,0.0,-0.00284791,0.0,0.0,0.0,0.0,0.0,0.0,0.0,0.0,0.2621951,0.26219478,4.0719934,0.0,0.0,0.0,0.09078344,0.0,0.0,0.0,0.0,0.0,0.0015250844,0.013580826,0.020227943,0.0,0.0,0.0,0.0,0.0,0.0
18858965,0.0,0.0,0.0,0.01803992,-0.020679357,-0.18458557,0.0,0.0,0.0,0.003181219,0.0,0.0,0.0,0.0,0.0,0.0,0.0,0.0,0.2618582,0.26185787,4.0709553,0.0,0.0,0.0,0.09077775,0.0,0.0,0.0,0.0,0.0,0.001250161,0.011796312,0.028103817,0.0,0.0,0.0,0.0,0.0,0.0
19067743,0.0,0.0,0.0,0.014078288,-0.017781993,0.2135315,0.0,0.0,0.0,0.008718491,0.0,0.0,0.0,0.0,0.0,0.0,0.0,0.0,0.2618949,0.2618946,4.0708604,0.0,0.0,0.0,0.09076938,0.0,0.0,0.0,0.0,0.0,0.001088524,0.0042216973,0.008281232,0.0,0.0,0.0,0.0,0.0,0.0
19267743,0.0,0.0,0.0,0.0085821515,-0.0090032155,-0.101867676,0.0,0.0,0.0,0.016526699,0.0,0.0,0.0,0.0,0.0,0.0,0.0,0.0,0.26173636,0.261736,4.070448,0.0,0.0,0.0,0.09076093,0.0,0.0,0.0,0.0,0.0,0.0010784187,0.002297979,0.0032199319,0.0,0.0,0.0,0.0,0.0,0.0
19467796,0.0,0.0,0.0,0.004937318,-0.0037482337,-0.24569702,0.0,0.0,0.0,0.018423796,0.0,0.0,0.0,0.0,0.0,0.0,0.0,0.0,0.26156116,0.26156077,4.070047,0.0,0.0,0.0,0.09075434,0.0,0.0,0.0,0.0,0.0,0.0009928853,0.005223247,0.008450403,0.0,0.0,0.0,0.0,0.0,0.0
19668543,0.0,0.0,0.0,-0.002693658,-0.0040733856,-0.23019409,0.0,0.0,0.0,-0.0047516823,0.0,0.0,0.0,0.0,0.0,0.0,0.0,0.0,0.26125753,0.26125735,4.069346,0.0,0.0,0.0,0.09074557,0.0,0.0,0.0,0.0,0.0,0.00029186823,0.0069930484,0.008313163,0.0,0.0,0.0,0.0,0.0,0.0
19869343,0.0,0.0,0.0,-0.0056460737,0.0028513535,0.017959595,0.0,0.0,0.0,-0.00420928,0.0,0.0,0.0,0.0,0.0,0.0,0.0,0.0,0.26113516,0.2611349,4.069114,0.0,0.0,0.0,0.09073635,0.0,0.0,0.0,0.0,0.0,0.00027334326,0.010867442,0.017104665,0.0,0.0,0.0,0.0,0.0,0.0
20069343,0.0,0.0,0.0,-0.013107031,0.005806945,0.12905884,0.0,0.0,0.0,0.026522398,0.0,0.0,0.0,0.0,0.0,0.0,0.0,0.0,0.26102546,0.26102537,4.068939,0.0,0.0,0.0,0.090727404,0.0,0.0,0.0,0.0,0.0,0.00045433978,0.01493311,0.028838573,0.0,0.0,0.0,0.0,0.0,0.0
20269343,0.0,0.0,0.0,-0.022700101,0.014020745,0.011688232,0.0,0.0,0.0,-0.01854992,0.0,0.0,0.0,0.0,0.0,0.0,0.0,0.0,0.26075566,0.26075563,4.068402,0.0,0.0,0.0,0.0907202,0.0,0.0,0.0,0.0,0.0,0.0006875363,0.014806577,0.020357326,0.0,0.0,0.0,0.0,0.0,0.0
20477343,0.0,0.0,0.0,-0.023486907,0.017592642,-0.24412537,0.0,0.0,0.0,0.020498991,0.0,0.0,0.0,0.0,0.0,0.0,0.0,0.0,0.26059422,0.26059413,4.068206,0.0,0.0,0.0,0.09071072,0.0,0.0,0.0,0.0,0.0,0.0008220243,0.017306313,0.023344139,0.0,0.0,0.0,0.0,0.0,0.0
20677346,0.0,0.0,0.0,-0.025003815,0.012152918,-0.04472351,0.0,0.0,0.0,0.02439332,0.0,0.0,0.0,0.0,0.0,0.0,0.0,0.0,0.2604756,0.26047578,4.0681176,0.0,0.0,0.0,0.09070169,0.0,0.0,0.0,0.0,0.0,0.0011575214,0.017736627,0.028518414,0.0,0.0,0.0,0.0,0.0,0.0
20878143,0.0,0.0,0.0,-0.021747034,0.014954419,0.060821533,0.0,0.0,0.0,0.027351856,0.0,0.0,0.0,0.0,0.0,0.0,0.0,0.0,0.2603671,0.2603671,4.068091,0.0,0.0,0.0,0.0906927,0.0,0.0,0.0,0.0,0.0,0.0009485487,0.016182214,0.025856096,0.0,0.0,0.0,0.0,0.0,0.0
21086143,0.0,0.0,0.0,-0.02392069,0.015604857,-0.023406982,0.0,0.0,0.0,0.051081657,0.0,0.0,0.0,0.0,0.0,0.0,0.0,0.0,0.26025406,0.2602541,4.068063,0.0,0.0,0.0,0.09068487,0.0,0.0,0.0,0.0,0.0,0.00085123745,0.014446387,0.020300873,0.0,0.0,0.0,0.0,0.0,0.0
21286943,0.0,0.0,0.0,-0.02207424,0.015293553,-0.4978485,0.0,0.0,0.0,0.003962755,0.0,0.0,0.0,0.0,0.0,0.0,0.0,0.0,0.26004046,0.26004046,4.067717,0.0,0.0,0.0,0.09067596,0.0,0.0,0.0,0.0,0.0,0.0009402789,0.013190821,0.019704076,0.0,0.0,0.0,0.0,0.0,0.0
21486956,0.0,0.0,0.0,-0.02645291,0.012296724,-0.10232544,0.0,0.0,0.0,0.013326168,0.0,0.0,0.0,0.0,0.0,0.0,0.0,0.0,0.25984553,0.25984576,4.0674253,0.0,0.0,0.0,0.090667136,0.0,0.0,0.0,0.0,0.0,0.0014562532,0.0120856725,0.017087976,0.0,0.0,0.0,0.0,0.0,0.0
21686943,0.0,0.0,0.0,-0.016782844,0.01249304,0.23335266,0.0,0.0,0.0,0.015620708,0.0,0.0,0.0,0.0,0.0,0.0,0.0,0.0,0.25979152,0.2597915,4.067532,0.0,0.0,0.0,0.09065792,0.0,0.0,0.0,0.0,0.0,0.0017345651,0.01140048,0.020995636,0.0,0.0,0.0,0.0,0.0,0.0
21895743,0.0,0.0,0.0,-0.02251321,0.008032431,-0.10475159,0.0,0.0,0.0,0.03405547,0.0,0.0,0.0,0.0,0.0,0.0,0.0,0.0,0.25971854,0.25971875,4.067627,0.0,0.0,0.0,0.090650715,0.0,0.0,0.0,0.0,0.0,0.0016232962,0.008728872,0.014853947,0.0,0.0,0.0,0.0,0.0,0.0
22095750,0.0,0.0,0.0,-0.019566255,0.010678505,0.07923889,0.0,0.0,0.0,0.012874365,0.0,0.0,0.0,0.0,0.0,0.0,0.0,0.0,0.25957295,0.259573,4.0674458,0.0,0.0,0.0,0.09064217,0.0,0.0,0.0,0.0,0.0,0.0016317791,0.007144185,0.010433117,0.0,0.0,0.0,0.0,0.0,0.0
22295743,0.0,0.0,0.0,-0.026850363,0.013167411,-0.045196533,0.0,0.0,0.0,0.03941512,0.0,0.0,0.0,0.0,0.0,0.0,0.0,0.0,0.25953895,0.2595391,4.0676136,0.0,0.0,0.0,0.09063324,0.0,0.0,0.0,0.0,0.0,0.0015948758,0.0085762115,0.017398946,0.0,0.0,0.0,0.0,0.0,0.0
22504607,0.0,0.0,0.0,-0.026334845,0.0151739055,-0.2579193,0.0,0.0,0.0,-0.020128727,0.0,0.0,0.0,0.0,0.0,0.0,0.0,0.0,0.25938565,0.25938573,4.0674157,0.0,0.0,0.0,0.09062624,0.0,0.0,0.0,0.0,0.0,0.00092370197,0.006940364,0.008930542,0.0,0.0,0.0,0.0,0.0,0.0
22704547,0.0,0.0,0.0,-0.026588649,0.019984657,0.09358215,0.0,0.0,0.0,0.03478551,0.0,0.0,0.0,0.0,0.0,0.0,0.0,0.0,0.25938582,0.2593857,4.0676723,0.0,0.0,0.0,0.09061633,0.0,0.0,0.0,0.0,0.0,0.0017106925,0.0067568547,0.008995188,0.0,0.0,0.0,0.0,0.0,0.0
22905392,0.0,0.0,0.0,-0.027515626,0.017675582,0.008331299,0.0,0.0,0.0,0.036626577,0.0,0.0,0.0,0.0,0.0,0.0,0.0,0.0,0.25935492,0.2593549,4.0678673,0.0,0.0,0.0,0.09060954,0.0,0.0,0.0,0.0,0.0,0.002025585,0.0068518785,0.01053526,0.0,0.0,0.0,0.0,0.0,0.0
23105402,0.0,0.0,0.0,-0.02309599,0.016367467,0.08139038,0.0,0.0,0.0,0.01049757,0.0,0.0,0.0,0.0,0.0,0.0,0.0,0.0,0.2592359,0.25923577,4.067739,0.0,0.0,0.0,0.09060165,0.0,0.0,0.0,0.0,0.0,0.0015993946,0.007422868,0.01618925,0.0,0.0,0.0,0.0,0.0,0.0
23313343,0.0,0.0,0.0,-0.018040953,0.012273548,-0.0044403076,0.0,0.0,0.0,0.007620573,0.0,0.0,0.0,0.0,0.0,0.0,0.0,0.0,0.2591983,0.25919816,4.0679216,0.0,0.0,0.0,0.09059342,0.0,0.0,0.0,0.0,0.0,0.0013765332,0.0054305377,0.011689227,0.0,0.0,0.0,0.0,0.0,0.0
23514154,0.0,0.0,0.0,-0.018443923,0.013304733,-0.50149536,0.0,0.0,0.0,0.01290679,0.0,0.0,0.0,0.0,0.0,0.0,0.0,0.0,0.25906846,0.25906828,4.067738,0.0,0.0,0.0,0.09058693,0.0,0.0,0.0,0.0,0.0,0.0013952457,0.0037272796,0.0063703917,0.0,0.0,0.0,0.0,0.0,0.0
23714162,0.0,0.0,0.0,-0.013224408,0.004920021,-0.40585327,0.0,0.0,0.0,0.010772705,0.0,0.0,0.0,0.0,0.0,0.0,0.0,0.0,0.25905636,0.2590563,4.0679617,0.0,0.0,0.0,0.09057945,0.0,0.0,0.0,0.0,0.0,0.0017740609,0.0018945496,0.004376826,0.0,0.0,0.0,0.0,0.0,0.0
23922149,0.0,0.0,0.0,-0.0066039274,0.001303214,-0.059646606,0.0,0.0,0.0,0.029314518,0.0,0.0,0.0,0.0,0.0,0.0,0.0,0.0,0.2591299,0.25912985,4.068504,0.0,0.0,0.0,0.09057166,0.0,0.0,0.0,0.0,0.0,0.001942581,0.0013945835,0.0033586058,0.0,0.0,0.0,0.0,0.0,0.0
24123763,0.0,0.0,0.0,-0.0073982347,0.0026291886,-0.05140686,0.0,0.0,0.0,0.0033376217,0.0,0.0,0.0,0.0,0.0,0.0,0.0,0.0,0.25900865,0.2590086,4.06832,0.0,0.0,0.0,0.09056446,0.0,0.0,0.0,0.0,0.0,0.0017233308,0.002233648,0.0049224445,0.0,0.0,0.0,0.0,0.0,0.0
24323746,0.0,0.0,0.0,-0.009564441,0.0021440415,0.17051697,0.0,0.0,0.0,0.029394865,0.0,0.0,0.0,0.0,0.0,0.0,0.0,0.0,0.25888756,0.25888756,4.0681148,0.0,0.0,0.0,0.0905584,0.0,0.0,0.0,0.0,0.0,0.001760289,0.0023141804,0.0055574737,0.0,0.0,0.0,0.0,0.0,0.0
24523743,0.0,0.0,0.0,-0.012025654,0.0020408875,-0.3043518,0.0,0.0,0.0,0.007377863,0.0,0.0,0.0,0.0,0.0,0.0,0.0,0.0,0.25888953,0.25888956,4.068299,0.0,0.0,0.0,0.09055144,0.0,0.0,0.0,0.0,0.0,0.0023466484,0.0031399278,0.007723399,0.0,0.0,0.0,0.0,0.0,0.0
24731743,0.0,0.0,0.0,-0.009905882,0.0065312134,-0.26550293,0.0,0.0,0.0,0.03281641,0.0,0.0,0.0,0.0,0.0,0.0,0.0,0.0,0.25879148,0.25879142,4.068092,0.0,0.0,0.0,0.09054421,0.0,0.0,0.0,0.0,0.0,0.0030316012,0.0033823054,0.009851342,0.0,0.0,0.0,0.0,0.0,0.0
24931743,0.0,0.0,0.0,-0.015744612,0.0024938916,-0.090408325,0.0,0.0,0.0,0.0010917187,0.0,0.0,0.0,0.0,0.0,0.0,0.0,0.0,0.25889143,0.25889152,4.06863,0.0,0.0,0.0,0.09053846,0.0,0.0,0.0,0.0,0.0,0.0027311286,0.0030699011,0.009261518,0.0,0.0,0.0,0.0,0.0,0.0
25132556,0.0,0.0,0.0,-0.0145614855,0.0045197727,-0.20083618,0.0,0.0,0.0,0.027801037,0.0,0.0,0.0,0.0,0.0,0.0,0.0,0.0,0.2588754,0.25887546,4.0687456,0.0,0.0,0.0,0.09053189,0.0,0.0,0.0,0.0,0.0,0.0022043828,0.0023521222,0.0066356696,0.0,0.0,0.0,0.0,0.0,0.0
25340589,0.0,0.0,0.0,-0.018037293,0.0011002372,0.27008057,0.0,0.0,0.0,0.026869059,0.0,0.0,0.0,0.0,0.0,0.0,0.0,0.0,0.25886673,0.2588669,4.0688763,0.0,0.0,0.0,0.09052506,0.0,0.0,0.0,0.0,0.0,0.0025203526,0.0028933152,0.0076298234,0.0,0.0,0.0,0.0,0.0,0.0
25540543,0.0,0.0,0.0,-0.016355123,0.0031751364,0.49128723,0.0,0.0,0.0,-0.00198102,0.0,0.0,0.0,0.0,0.0,0.0,0.0,0.0,0.25874823,0.25874835,4.068552,0.0,0.0,0.0,0.090518765,0.0,0.0,0.0,0.0,0.0,0.0023642858,0.0040686894,0.010906731,0.0,0.0,0.0,0.0,0.0,0.0
25741346,0.0,0.0,0.0,-0.021221433,0.0030332573,-0.08369446,0.0,0.0,0.0,0.04864812,0.0,0.0,0.0,0.0,0.0,0.0,0.0,0.0,0.25885823,0.25885844,4.069058,0.0,0.0,0.0,0.09051221,0.0,0.0,0.0,0.0,0.0,0.0028584122,0.003166002,0.008471628,0.0,0.0,0.0,0.0,0.0,0.0
25941343,0.0,0.0,0.0,-0.017562067,0.0024126647,-0.023635864,0.0,0.0,0.0,0.015398264,0.0,0.0,0.0,0.0,0.0,0.0,0.0,0.0,0.25875956,0.2587597,4.0687547,0.0,0.0,0.0,0.090506986,0.0,0.0,0.0,0.0,0.0,0.002875623,0.002183039,0.005289983,0.0,0.0,0.0,0.0,0.0,0.0
26141379,0.0,0.0,0.0,-0.013907238,-0.0017286637,0.1448822,0.0,0.0,0.0,0.05949068,0.0,0.0,0.0,0.0,0.0,0.0,0.0,0.0,0.25877342,0.2587735,4.0688424,0.0,0.0,0.0,0.09050106,0.0,0.0,0.0,0.0,0.0,0.003368102,0.003253999,0.009233583,0.0,0.0,0.0,0.0,0.0,0.0
26342207,0.0,0.0,0.0,-0.009999659,-0.0038282294,-0.20393372,0.0,0.0,0.0,0.01774168,0.0,0.0,0.0,0.0,0.0,0.0,0.0,0.0,0.2587747,0.25877476,4.0688977,0.0,0.0,0.0,0.09049524,0.0,0.0,0.0,0.0,0.0,0.0030797352,0.0029969565,0.008370092,0.0,0.0,0.0,0.0,0.0,0.0
26550224,0.0,0.0,0.0,-0.0107728485,-0.0028253174,-0.21334839,0.0,0.0,0.0,-0.0051493645,0.0,0.0,0.0,0.0,0.0,0.0,0.0,0.0,0.25877976,0.25877982,4.0689697,0.0,0.0,0.0,0.090489194,0.0,0.0,0.0,0.0,0.0,0.0028747923,0.004513883,0.012598189,0.0,0.0,0.0,0.0,0.0,0.0
26750947,0.0,0.0,0.0,-0.010016237,-0.0038406514,0.040786743,0.0,0.0,0.0,0.029851913,0.0,0.0,0.0,0.0,0.0,0.0,0.0,0.0,0.25886685,0.25886685,4.0693626,0.0,0.0,0.0,0.090484366,0.0,0.0,0.0,0.0,0.0,0.002755245,0.004075127,0.010989823,0.0,0.0,0.0,0.0,0.0,0.0
26950943,0.0,0.0,0.0,-0.005821405,-0.006937136,-0.12809753,0.0,0.0,0.0,0.03210926,0.0,0.0,0.0,0.0,0.0,0.0,0.0,0.0,0.25885755,0.25885755,4.0693874,0.0,0.0,0.0,0.090478875,0.0,0.0,0.0,0.0,0.0,0.0027772544,0.0025846614,0.005326156,0.0,0.0,0.0,0.0,0.0,0.0
27150943,0.0,0.0,0.0,-0.004607803,-0.012221144,-0.008041382,0.0,0.0,0.0,0.04050255,0.0,0.0,0.0,0.0,0.0,0.0,0.0,0.0,0.2588435,0.25884348,4.0693736,0.0,0.0,0.0,0.09047315,0.0,0.0,0.0,0.0,0.0,0.003313819,0.0040278477,0.008778304,0.0,0.0,0.0,0.0,0.0,0.0
27359759,0.0,0.0,0.0,0.000115604584,-0.012434664,-0.08383179,0.0,0.0,0.0,0.041903496,0.0,0.0,0.0,0.0,0.0,0.0,0.0,0.0,0.2588281,0.25882804,4.0693526,0.0,0.0,0.0,0.09046861,0.0,0.0,0.0,0.0,0.0,0.003196995,0.0039537568,0.0069875563,0.0,0.0,0.0,0.0,0.0,0.0
27559743,0.0,0.0,0.0,-0.0022370424,-0.012817322,0.124191284,0.0,0.0,0.0,0.06802797,0.0,0.0,0.0,0.0,0.0,0.0,0.0,0.0,0.25863466,0.25863454,4.0685973,0.0,0.0,0.0,0.09046342,0.0,0.0,0.0,0.0,0.0,0.0038983864,0.004901415,0.009806693,0.0,0.0,0.0,0.0,0.0,0.0
27759788,0.0,0.0,0.0,0.004063506,-0.011177967,-0.04434204,0.0,0.0,0.0,0.034347057,0.0,0.0,0.0,0.0,0.0,0.0,0.0,0.0,0.2586476,0.25864747,4.0686374,0.0,0.0,0.0,0.09045803,0.0,0.0,0.0,0.0,0.0,0.003965387,0.004721159,0.007613443,0.0,0.0,0.0,0.0,0.0,0.0
27960546,0.0,0.0,0.0,0.0061132745,-0.016979462,-0.16064453,0.0,0.0,0.0,0.056145906,0.0,0.0,0.0,0.0,0.0,0.0,0.0,0.0,0.25867027,0.25867012,4.068705,0.0,0.0,0.0,0.09045307,0.0,0.0,0.0,0.0,0.0,0.002854797,0.006072371,0.013697187,0.0,0.0,0.0,0.0,0.0,0.0
28160543,0.0,0.0,0.0,-0.01644243,0.015233188,0.31419373,0.0,0.0,0.0,0.0425694,0.0,0.0,0.0,0.0,0.0,0.0,0.0,0.0,0.25860372,0.25860325,4.068448,0.0,0.0,0.0,0.090448864,0.0,0.0,0.0,0.0,0.0,0.0029250009,0.0027270764,0.0047166436,0.0,0.0,0.0,0.0,0.0,0.0
28360543,0.0,0.0,0.0,-0.013631806,0.016641205,-0.10609436,0.0,0.0,0.0,0.05406308,0.0,0.0,0.0,0.0,0.0,0.0,0.0,0.0,0.2587058,0.25870526,4.0688987,0.0,0.0,0.0,0.09044408,0.0,0.0,0.0,0.0,0.0,0.0030853716,0.0020454188,0.00656925,0.0,0.0,0.0,0.0,0.0,0.0
28561357,0.0,0.0,0.0,-0.009986445,0.010305563,0.29008484,0.0,0.0,0.0,0.040459156,0.0,0.0,0.0,0.0,0.0,0.0,0.0,0.0,0.25859946,0.25859904,4.06857,0.0,0.0,0.0,0.0904391,0.0,0.0,0.0,0.0,0.0,0.0034759988,0.0037722143,0.0073386277,0.0,0.0,0.0,0.0,0.0,0.0
28770143,0.0,0.0,0.0,-0.006103999,0.012199459,0.31932068,0.0,0.0,0.0,0.0064308643,0.0,0.0,0.0,0.0,0.0,0.0,0.0,0.0,0.25849825,0.25849777,4.068266,0.0,0.0,0.0,0.0904345,0.0,0.0,0.0,0.0,0.0,0.0029170967,0.0050324695,0.010419678,0.0,0.0,0.0,0.0,0.0,0.0
28970149,0.0,0.0,0.0,-0.0075540333,0.0113628395,-0.24238586,0.0,0.0,0.0,0.059921265,0.0,0.0,0.0,0.0,0.0,0.0,0.0,0.0,0.2585143,0.2585139,4.068412,0.0,0.0,0.0,0.09042971,0.0,0.0,0.0,0.0,0.0,0.0023642126,0.0036097844,0.0060925554,0.0,0.0,0.0,0.0,0.0,0.0
29170150,0.0,0.0,0.0,-0.00125737,0.005243695,0.46546936,0.0,0.0,0.0,0.027127981,0.0,0.0,0.0,0.0,0.0,0.0,0.0,0.0,0.25852343,0.25852308,4.0685334,0.0,0.0,0.0,0.090425864,0.0,0.0,0.0,0.0,0.0,0.0024314541,0.0072796335,0.020828072,0.0,0.0,0.0,0.0,0.0,0.0
29370145,0.0,0.0,0.0,0.002837705,0.0019850396,-0.14331055,0.0,0.0,0.0,0.059129953,0.0,0.0,0.0,0.0,0.0,0.0,0.0,0.0,0.25843075,0.25843045,4.0682597,0.0,0.0,0.0,0.090421535,0.0,0.0,0.0,0.0,0.0,0.0023824254,0.0045264727,0.013005175,0.0,0.0,0.0,0.0,0.0,0.0
29578943,0.0,0.0,0.0,0.0010819027,0.0030247746,-0.08769226,0.0,0.0,0.0,0.036744833,0.0,0.0,0.0,0.0,0.0,0.0,0.0,0.0,0.25843996,0.25843963,4.0683885,0.0,0.0,0.0,0.09041699,0.0,0.0,0.0,0.0,0.0,0.002403605,0.002954846,0.006033224,0.0,0.0,0.0,0.0,0.0,0.0
29778962,0.0,0.0,0.0,-0.00079615717,0.007121659,0.21284485,0.0,0.0,0.0,0.051797867,0.0,0.0,0.0,0.0,0.0,0.0,0.0,0.0,0.25844777,0.2584474,4.0685325,0.0,0.0,0.0,0.09041336,0.0,0.0,0.0,0.0,0.0,0.002507997,0.0023309246,0.0043792566,0.0,0.0,0.0,0.0,0.0,0.0
29978958,0.0,0.0,0.0,0.0017020443,0.0059264875,-0.013473511,0.0,0.0,0.0,0.0331223,0.0,0.0,0.0,0.0,0.0,0.0,0.0,0.0,0.25852838,0.25852805,4.0689964,0.0,0.0,0.0,0.09040926,0.0,0.0,0.0,0.0,0.0,0.0022873806,0.0024975734,0.0046892012,0.0,0.0,0.0,0.0,0.0,0.0
30187743,0.0,0.0,0.0,0.0059082196,-0.00048832485,-0.14933777,0.0,0.0,0.0,0.022863388,0.0,0.0,0.0,0.0,0.0,0.0,0.0,0.0,0.2583994,0.25839916,4.0686197,0.0,0.0,0.0,0.09040496,0.0,0.0,0.0,0.0,0.0,0.0023754034,0.0024310914,0.0040742625,0.0,0.0,0.0,0.0,0.0,0.0
30387800,0.0,0.0,0.0,0.008086813,-0.0036044677,0.08340454,0.0,0.0,0.0,0.03239107,0.0,0.0,0.0,0.0,0.0,0.0,0.0,0.0,0.25840816,0.25840795,4.068758,0.0,0.0,0.0,0.09040152,0.0,0.0,0.0,0.0,0.0,0.0022970773,0.0029272563,0.0058754683,0.0,0.0,0.0,0.0,0.0,0.0
30587743,0.0,0.0,0.0,0.008536818,-0.0051537473,-0.107681274,0.0,0.0,0.0,0.04336047,0.0,0.0,0.0,0.0,0.0,0.0,0.0,0.0,0.2583813,0.25838116,4.0687623,0.0,0.0,0.0,0.09039762,0.0,0.0,0.0,0.0,0.0,0.0026546058,0.0038355212,0.007900018,0.0,0.0,0.0,0.0,0.0,0.0
30796543,0.0,0.0,0.0,0.011684718,-0.0067752493,0.013366699,0.0,0.0,0.0,0.06329179,0.0,0.0,0.0,0.0,0.0,0.0,0.0,0.0,0.25838286,0.25838274,4.068851,0.0,0.0,0.0,0.09039355,0.0,0.0,0.0,0.0,0.0,0.0023427173,0.0040699434,0.007479285,0.0,0.0,0.0,0.0,0.0,0.0
30996543,0.0,0.0,0.0,0.011312484,-0.0112018585,0.2616272,0.0,0.0,0.0,0.04812026,0.0,0.0,0.0,0.0,0.0,0.0,0.0,0.0,0.25836724,0.25836718,4.068871,0.0,0.0,0.0,0.090389825,0.0,0.0,0.0,0.0,0.0,0.0020776142,0.005372036,0.011696794,0.0,0.0,0.0,0.0,0.0,0.0
31197343,0.0,0.0,0.0,0.015980333,-0.016913172,0.06782532,0.0,0.0,0.0,0.050033092,0.0,0.0,0.0,0.0,0.0,0.0,0.0,0.0,0.25836584,0.2583658,4.0689106,0.0,0.0,0.0,0.09038662,0.0,0.0,0.0,0.0,0.0,0.0020636476,0.004978696,0.008812162,0.0,0.0,0.0,0.0,0.0,0.0
31405434,0.0,0.0,0.0,0.012330145,-0.016766245,-0.10832214,0.0,0.0,0.0,0.013338089,0.0,0.0,0.0,0.0,0.0,0.0,0.0,0.0,0.2583828,0.25838277,4.069001,0.0,0.0,0.0,0.09038277,0.0,0.0,0.0,0.0,0.0,0.0018495595,0.004718133,0.008340835,0.0,0.0,0.0,0.0,0.0,0.0
31606151,0.0,0.0,0.0,0.011851044,-0.015201305,0.17582703,0.0,0.0,0.0,0.0043239594,0.0,0.0,0.0,0.0,0.0,0.0,0.0,0.0,0.25830022,0.25830022,4.068642,0.0,0.0,0.0,0.09037924,0.0,0.0,0.0,0.0,0.0,0.0017267442,0.0047957813,0.008069621,0.0,0.0,0.0,0.0,0.0,0.0
31806155,0.0,0.0,0.0,0.014114522,-0.015488151,-0.07711792,0.0,0.0,0.0,0.03986597,0.0,0.0,0.0,0.0,0.0,0.0,0.0,0.0,0.25832897,0.258329,4.0687437,0.0,0.0,0.0,0.09037576,0.0,0.0,0.0,0.0,0.0,0.001811591,0.0043876152,0.008595,0.0,0.0,0.0,0.0,0.0,0.0
32014143,0.0,0.0,0.0,0.010188946,-0.016979242,-0.16488647,0.0,0.0,0.0,0.010860443,0.0,0.0,0.0,0.0,0.0,0.0,0.0,0.0,0.2583542,0.25835422,4.0688133,0.0,0.0,0.0,0.090372115,0.0,0.0,0.0,0.0,0.0,0.001261869,0.00386495,0.0069009867,0.0,0.0,0.0,0.0,0.0,0.0
32214999,0.0,0.0,0.0,0.013853161,-0.017932186,-0.1592865,0.0,0.0,0.0,0.012782574,0.0,0.0,0.0,0.0,0.0,0.0,0.0,0.0,0.25838423,0.2583843,4.0688887,0.0,0.0,0.0,0.0903692,0.0,0.0,0.0,0.0,0.0,0.00133364,0.004405867,0.009007304,0.0,0.0,0.0,0.0,0.0,0.0
32414943,0.0,0.0,0.0,0.015518742,-0.01948448,-0.057357788,0.0,0.0,0.0,-0.0005185604,0.0,0.0,0.0,0.0,0.0,0.0,0.0,0.0,0.25841808,0.2584181,4.0689845,0.0,0.0,0.0,0.09036591,0.0,0.0,0.0,0.0,0.0,0.0013170631,0.0066575403,0.01721459,0.0,0.0,0.0,0.0,0.0,0.0
32614986,0.0,0.0,0.0,0.012704362,-0.017338844,-0.13768005,0.0,0.0,0.0,0.007952213,0.0,0.0,0.0,0.0,0.0,0.0,0.0,0.0,0.25836417,0.25836426,4.0686812,0.0,0.0,0.0,0.09036245,0.0,0.0,0.0,0.0,0.0,0.0012804902,0.0050846185,0.012734411,0.0,0.0,0.0,0.0,0.0,0.0
32823743,0.0,0.0,0.0,0.008689409,-0.013078216,-0.1158905,0.0,0.0,0.0,0.03353572,0.0,0.0,0.0,0.0,0.0,0.0,0.0,0.0,0.2584018,0.2584019,4.068738,0.0,0.0,0.0,0.09035969,0.0,0.0,0.0,0.0,0.0,0.0012680313,0.0076643215,0.021733563,0.0,0.0,0.0,0.0,0.0,0.0
33023743,0.0,0.0,0.0,0.00642736,-0.0069343518,0.14987183,0.0,0.0,0.0,0.030436039,0.0,0.0,0.0,0.0,0.0,0.0,0.0,0.0,0.2584446,0.25844473,4.068843,0.0,0.0,0.0,0.09035656,0.0,0.0,0.0,0.0,0.0,0.0015341463,0.0036305354,0.011771717,0.0,0.0,0.0,0.0,0.0,0.0
33223753,0.0,0.0,0.0,0.0029277317,-0.008879028,0.2280426,0.0,0.0,0.0,0.017914772,0.0,0.0,0.0,0.0,0.0,0.0,0.0,0.0,0.2584696,0.25846976,4.0688887,0.0,0.0,0.0,0.09035328,0.0,0.0,0.0,0.0,0.0,0.0017528645,0.002147077,0.004941835,0.0,0.0,0.0,0.0,0.0,0.0
33432546,0.0,0.0,0.0,0.010085214,-0.009600171,0.016082764,0.0,0.0,0.0,0.02486062,0.0,0.0,0.0,0.0,0.0,0.0,0.0,0.0,0.2584867,0.2584868,4.068916,0.0,0.0,0.0,0.09035027,0.0,0.0,0.0,0.0,0.0,0.0015754509,0.001546627,0.0044136727,0.0,0.0,0.0,0.0,0.0,0.0
33632603,0.0,0.0,0.0,0.0057657044,-0.017474797,-0.65242004,0.0,0.0,0.0,0.008510828,0.0,0.0,0.0,0.0,0.0,0.0,0.0,0.0,0.2585182,0.2585183,4.06899,0.0,0.0,0.0,0.09034711,0.0,0.0,0.0,0.0,0.0,0.0013345281,0.00466558,0.012874899,0.0,0.0,0.0,0.0,0.0,0.0
33832543,0.0,0.0,0.0,0.0089443335,-0.013787782,0.16500854,0.0,0.0,0.0,0.05552602,0.0,0.0,0.0,0.0,0.0,0.0,0.0,0.0,0.25853077,0.25853086,4.0690093,0.0,0.0,0.0,0.090344585,0.0,0.0,0.0,0.0,0.0,0.0014668178,0.001651339,0.0029365649,0.0,0.0,0.0,0.0,0.0,0.0
34033352,0.0,0.0,0.0,0.00433823,-0.0146783,0.3066101,0.0,0.0,0.0,0.025480986,0.0,0.0,0.0,0.0,0.0,0.0,0.0,0.0,0.25854397,0.2585441,4.069026,0.0,0.0,0.0,0.09034173,0.0,0.0,0.0,0.0,0.0,0.0018742536,0.0038339964,0.010848763,0.0,0.0,0.0,0.0,0.0,0.0
34241343,0.0,0.0,0.0,0.0022421193,-0.009746526,0.2013855,0.0,0.0,0.0,-0.013399124,0.0,0.0,0.0,0.0,0.0,0.0,0.0,0.0,0.2585745,0.2585746,4.0690994,0.0,0.0,0.0,0.09033873,0.0,0.0,0.0,0.0,0.0,0.0015027275,0.0010023103,0.00315422,0.0,0.0,0.0,0.0,0.0,0.0
34442143,0.0,0.0,0.0,-0.0011797305,-0.0052312636,-0.14476013,0.0,0.0,0.0,0.016655922,0.0,0.0,0.0,0.0,0.0,0.0,0.0,0.0,0.2585864,0.2585866,4.069116,0.0,0.0,0.0,0.09033597,0.0,0.0,0.0,0.0,0.0,0.0009221617,0.0016166423,0.0051167426,0.0,0.0,0.0,0.0,0.0,0.0
34642143,0.0,0.0,0.0,-0.0037324391,-0.0010820652,-0.07662964,0.0,0.0,0.0,-0.017224073,0.0,0.0,0.0,0.0,0.0,0.0,0.0,0.0,0.2585998,0.25859994,4.069154,0.0,0.0,0.0,0.090333626,0.0,0.0,0.0,0.0,0.0,0.00041164638,0.0022102324,0.0041494225,0.0,0.0,0.0,0.0,0.0,0.0
34842143,0.0,0.0,0.0,-0.01318432,0.0129574025,-0.10070801,0.0,0.0,0.0,0.013649225,0.0,0.0,0.0,0.0,0.0,0.0,0.0,0.0,0.25869185,0.25869197,4.0695214,0.0,0.0,0.0,0.09033096,0.0,0.0,0.0,0.0,0.0,0.0006796767,0.004011756,0.006953809,0.0,0.0,0.0,0.0,0.0,0.0
35050995,0.0,0.0,0.0,-0.019434683,0.023303665,-0.153656,0.0,0.0,0.0,0.023421764,0.0,0.0,0.0,0.0,0.0,0.0,0.0,0.0,0.2585975,0.25859755,4.0691476,0.0,0.0,0.0,0.09032815,0.0,0.0,0.0,0.0,0.0,0.0010796727,0.006466417,0.010998121,0.0,0.0,0.0,0.0,0.0,0.0
35250943,0.0,0.0,0.0,-0.023892218,0.029898955,0.17936707,0.0,0.0,0.0,0.008983135,0.0,0.0,0.0,0.0,0.0,0.0,0.0,0.0,0.25857553,0.25857556,4.0690646,0.0,0.0,0.0,0.0903259,0.0,0.0,0.0,0.0,0.0,0.0010357429,0.010317319,0.020666474,0.0,0.0,0.0,0.0,0.0,0.0
35458943,0.0,0.0,0.0,-0.027113613,0.035892785,0.3385315,0.0,0.0,0.0,0.033019066,0.0,0.0,0.0,0.0,0.0,0.0,0.0,0.0,0.25866812,0.25866807,4.0694294,0.0,0.0,0.0,0.09032319,0.0,0.0,0.0,0.0,0.0,0.0011964022,0.012390026,0.027145505,0.0,0.0,0.0,0.0,0.0,0.0
35660577,0.0,0.0,0.0,-0.02644413,0.032635383,-0.017410278,0.0,0.0,0.0,0.02504468,0.0,0.0,0.0,0.0,0.0,0.0,0.0,0.0,0.25866124,0.25866127,4.069404,0.0,0.0,0.0,0.090320684,0.0,0.0,0.0,0.0,0.0,0.0010769808,0.012183582,0.025432017,0.0,0.0,0.0,0.0,0.0,0.0
35860569,0.0,0.0,0.0,-0.024831712,0.03095031,0.0627594,0.0,0.0,0.0,0.0058608055,0.0,0.0,0.0,0.0,0.0,0.0,0.0,0.0,0.25858462,0.25858465,4.0690846,0.0,0.0,0.0,0.090318225,0.0,0.0,0.0,0.0,0.0,0.00089087535,0.0109298,0.022185279,0.0,0.0,0.0,0.0,0.0,0.0
36068543,0.0,0.0,0.0,-0.022342276,0.026414406,0.66322327,0.0,0.0,0.0,0.0144991875,0.0,0.0,0.0,0.0,0.0,0.0,0.0,0.0,0.25859165,0.25859174,4.069092,0.0,0.0,0.0,0.090315655,0.0,0.0,0.0,0.0,0.0,0.0006448828,0.009212752,0.019086396,0.0,0.0,0.0,0.0,0.0,0.0
36268543,0.0,0.0,0.0,-0.020216022,0.022270216,-0.14447021,0.0,0.0,0.0,0.0111022,0.0,0.0,0.0,0.0,0.0,0.0,0.0,0.0,0.258587,0.2585871,4.069079,0.0,0.0,0.0,0.0903136,0.0,0.0,0.0,0.0,0.0,0.0005604526,0.007211066,0.014256095,0.0,0.0,0.0,0.0,0.0,0.0
36468570,0.0,0.0,0.0,-0.015585191,0.016311998,-0.19909668,0.0,0.0,0.0,-0.06496167,0.0,0.0,0.0,0.0,0.0,0.0,0.0,0.0,0.25859037,0.2585905,4.069088,0.0,0.0,0.0,0.09031127,0.0,0.0,0.0,0.0,0.0,0.00048109124,0.0049890587,0.009010539,0.0,0.0,0.0,0.0,0.0,0.0
36669377,0.0,0.0,0.0,-0.012930456,0.010159198,-0.081451416,0.0,0.0,0.0,0.02752304,0.0,0.0,0.0,0.0,0.0,0.0,0.0,0.0,0.25867444,0.2586746,4.0694532,0.0,0.0,0.0,0.09030883,0.0,0.0,0.0,0.0,0.0,0.00038307568,0.003412149,0.006632407,0.0,0.0,0.0,0.0,0.0,0.0
36869343,0.0,0.0,0.0,-0.008137489,0.003743217,-0.16667175,0.0,0.0,0.0,0.0056562424,0.0,0.0,0.0,0.0,0.0,0.0,0.0,0.0,0.25847763,0.25847775,4.068673,0.0,0.0,0.0,0.09030657,0.0,0.0,0.0,0.0,0.0,0.00032541345,0.007942112,0.023323007,0.0,0.0,0.0,0.0,0.0,0.0
37069343,0.0,0.0,0.0,-0.0048445933,-0.0013337999,-0.28034973,0.0,0.0,0.0,-0.0035719872,0.0,0.0,0.0,0.0,0.015190914,0.0,0.0,0.0,0.2584952,0.2584953,4.0687423,0.0,0.0,0.0,0.09030465,0.0,0.0,0.0,0.0,6.3405733,0.00014567848,0.0036730785,0.011625657,0.0,0.0,0.0,0.0,0.0,0.0
37278143,0.0,0.0,0.0,-0.0012300961,-0.008321318,-0.23161316,0.0,0.0,0.0,-0.0066723824,0.0,0.0,0.0,0.0,0.015190914,0.0,0.0,0.0,0.2585719,0.25857198,4.0690804,0.0,0.0,0.0,0.090302326,0.0,0.0,0.0,0.0,6.3405733,9.0506146e-05,0.0061866506,0.017970743,0.0,0.0,0.0,0.0,0.0,0.0
37478143,0.0,0.0,0.0,0.002027515,-0.013794399,-0.046569824,0.0,0.0,0.0,-0.015146732,0.0,0.0,0.0,0.0,0.015190914,0.0,0.0,0.0,0.25857833,0.25857836,4.0691285,0.0,0.0,0.0,0.09030019,0.0,0.0,0.0,0.0,6.3405733,0.0003248455,0.006607697,0.017568894,0.0,0.0,0.0,0.0,0.0,0.0
37678192,0.0,0.0,0.0,0.0050150566,-0.017966101,-0.14308167,0.0,0.0,0.0,0.0013959408,0.0,0.0,0.0,0.0,0.015190914,0.0,0.0,0.0,0.258476,0.25847596,4.068747,0.0,0.0,0.0,0.09029836,0.0,0.0,0.0,0.0,6.3405733,0.0005473266,0.0062721665,0.012310614,0.0,0.0,0.0,0.0,0.0,0.0
37886943,0.0,0.0,0.0,0.006613624,-0.022800041,0.09561157,0.0,0.0,0.0,-0.0025773048,0.0,0.0,0.0,0.0,0.015190914,0.0,0.0,0.0,0.2584758,0.25847575,4.0687675,0.0,0.0,0.0,0.09029614,0.0,0.0,0.0,0.0,6.3405733,0.0006561377,0.006500299,0.011662612,0.0,0.0,0.0,0.0,0.0,0.0
38086943,0.0,0.0,0.0,0.009306188,-0.026693081,-0.13197327,0.0,0.0,0.0,-0.0030448437,0.0,0.0,0.0,0.0,0.01640872,0.0,0.0,0.0,0.25839552,0.25839537,4.068435,0.0,0.0,0.0,0.09029409,0.0,0.0,0.0,0.0,0.22069176,0.00073970365,0.0076963,0.013691212,0.0,0.0,0.0,0.0,0.0,0.0
38286943,0.0,0.0,0.0,0.010406013,-0.029289408,-0.37971497,0.0,0.0,0.0,-0.019109488,0.0,0.0,0.0,0.0,0.01640872,0.0,0.0,0.0,0.2583316,0.25833145,4.0681467,0.0,0.0,0.0,0.09029235,0.0,0.0,0.0,0.0,0.22069176,0.0008359494,0.008136676,0.014623824,0.0,0.0,0.0,0.0,0.0,0.0
38487743,0.0,0.0,0.0,0.012315905,-0.03262326,0.30351257,0.0,0.0,0.0,-0.025616884,0.0,0.0,0.0,0.0,0.01640872,0.0,0.0,0.0,0.25845927,0.2584591,4.0686603,0.0,0.0,0.0,0.09029036,0.0,0.0,0.0,0.0,0.22069176,0.00094512873,0.008788944,0.017246487,0.0,0.0,0.0,0.0,0.0,0.0
38695743,0.0,0.0,0.0,0.013330604,-0.03436378,0.083740234,0.0,0.0,0.0,-0.019043207,0.0,0.0,0.0,0.0,0.01640872,0.0,0.0,0.0,0.2583859,0.2583857,4.068365,0.0,0.0,0.0,0.090288274,0.0,0.0,0.0,0.0,0.22069176,0.0010217249,0.008075972,0.014562688,0.0,0.0,0.0,0.0,0.0,0.0
38898184,0.0,0.0,0.0,0.013649316,-0.03573641,0.21655273,0.0,0.0,0.0,-0.027157307,0.0,0.0,0.0,0.0,0.01640872,0.0,0.0,0.0,0.2583075,0.25830728,4.068046,0.0,0.0,0.0,0.09028635,0.0,0.0,0.0,0.0,0.22069176,0.00087242783,0.010051871,0.021593252,0.0,0.0,0.0,0.0,0.0,0.0
39098143,0.0,0.0,0.0,0.014855442,-0.037217263,-0.08592224,0.0,0.0,0.0,0.0043759346,0.0,0.0,0.0,0.0,0.019034661,0.0,0.0,0.0,0.25836626,0.25836605,4.068282,0.0,0.0,0.0,0.09028434,0.0,0.0,0.0,0.0,0.21993817,0.0007305018,0.009323142,0.019562706,0.0,0.0,0.0,0.0,0.0,0.0
39298151,0.0,0.0,0.0,0.01459602,-0.03752123,0.5569763,0.0,0.0,0.0,-0.012835026,0.0,0.0,0.0,0.0,0.019034661,0.0,0.0,0.0,0.25831056,0.25831035,4.0680404,0.0,0.0,0.0,0.09028272,0.0,0.0,0.0,0.0,0.21993817,0.0010153617,0.009116451,0.020379066,0.0,0.0,0.0,0.0,0.0,0.0
39498177,0.0,0.0,0.0,0.014685116,-0.037947666,0.030258179,0.0,0.0,0.0,0.016958714,0.0,0.0,0.0,0.0,0.019034661,0.0,0.0,0.0,0.2583354,0.25833523,4.068158,0.0,0.0,0.0,0.09028088,0.0,0.0,0.0,0.0,0.21993817,0.000812103,0.008664644,0.019813817,0.0,0.0,0.0,0.0,0.0,0.0
39698152,0.0,0.0,0.0,0.014682611,-0.038134493,0.28359985,0.0,0.0,0.0,-0.0052428246,0.0,0.0,0.0,0.0,0.019034661,0.0,0.0,0.0,0.25836626,0.25836608,4.0682955,0.0,0.0,0.0,0.090279065,0.0,0.0,0.0,0.0,0.21993817,0.00087961956,0.008264823,0.019600725,0.0,0.0,0.0,0.0,0.0,0.0
39906943,0.0,0.0,0.0,0.014295469,-0.037710607,0.44543457,0.0,0.0,0.0,-0.026873827,0.0,0.0,0.0,0.0,0.019034661,0.0,0.0,0.0,0.25839138,0.25839123,4.068442,0.0,0.0,0.0,0.090277165,0.0,0.0,0.0,0.0,0.21993817,0.0010019714,0.008148637,0.020556785,0.0,0.0,0.0,0.0,0.0,0.0
40106943,0.0,0.0,0.0,0.013874599,-0.036888722,-0.053466797,0.0,0.0,0.0,-0.028808832,0.0,0.0,0.0,0.0,0.04664237,0.0,0.0,0.0,0.25831622,0.25831607,4.0681696,0.0,0.0,0.0,0.09027565,0.0,0.0,0.0,0.0,0.2209482,0.0013375679,0.006104659,0.014361478,0.0,0.0,0.0,0.0,0.0,0.0
40306943,0.0,0.0,0.0,0.013005451,-0.036230203,0.107421875,0.0,0.0,0.0,-0.031170845,0.0,0.0,0.0,0.0,0.04664237,0.0,0.0,0.0,0.25832325,0.2583231,4.068244,0.0,0.0,0.0,0.09027392,0.0,0.0,0.0,0.0,0.2209482,0.001382242,0.0058720713,0.011274642,0.0,0.0,0.0,0.0,0.0,0.0
40514943,0.0,0.0,0.0,0.012617401,-0.035364784,0.36927795,0.0,0.0,0.0,-0.011826038,0.0,0.0,0.0,0.0,0.04664237,0.0,0.0,0.0,0.2583375,0.25833738,4.0683475,0.0,0.0,0.0,0.09027209,0.0,0.0,0.0,0.0,0.2209482,0.0012391369,0.0043615946,0.0079275835,0.0,0.0,0.0,0.0,0.0,0.0
40714989,0.0,0.0,0.0,0.0115418695,-0.034452353,-0.04396057,0.0,0.0,0.0,-0.0206604,0.0,0.0,0.0,0.0,0.04664237,0.0,0.0,0.0,0.25843245,0.25843227,4.068808,0.0,0.0,0.0,0.090270646,0.0,0.0,0.0,0.0,0.2209482,0.0010382817,0.0062473705,0.016882118,0.0,0.0,0.0,0.0,0.0,0.0
40914943,0.0,0.0,0.0,0.010800187,-0.033345617,0.29226685,0.0,0.0,0.0,-0.018591642,0.0,0.0,0.0,0.0,0.04664237,0.0,0.0,0.0,0.2584243,0.25842416,4.0688567,0.0,0.0,0.0,0.09026898,0.0,0.0,0.0,0.0,0.2209482,0.0011034039,0.0030585935,0.004642955,0.0,0.0,0.0,0.0,0.0,0.0
41115788,0.0,0.0,0.0,0.0097854575,-0.03141785,0.22976685,0.0,0.0,0.0,-0.04373145,0.0,0.0,0.0,0.0,0.01794421,0.0,0.0,0.0,0.2584159,0.2584158,4.0688972,0.0,0.0,0.0,0.09026723,0.0,0.0,0.0,0.0,0.21960163,0.0013060444,0.0028035713,0.0049917116,0.0,0.0,0.0,0.0,0.0,0.0
41315743,0.0,0.0,0.0,0.008918747,-0.030601474,0.1966095,0.0,0.0,0.0,-0.041846514,0.0,0.0,0.0,0.0,0.01794421,0.0,0.0,0.0,0.2583369,0.25833675,4.0686107,0.0,0.0,0.0,0.09026561,0.0,0.0,0.0,0.0,0.21960163,0.0015233307,0.001927024,0.003234498,0.0,0.0,0.0,0.0,0.0,0.0
41523743,0.0,0.0,0.0,0.009471223,-0.032479536,0.031036377,0.0,0.0,0.0,-0.036124706,0.0,0.0,0.0,0.0,0.01794421,0.0,0.0,0.0,0.25826114,0.258261,4.0683093,0.0,0.0,0.0,0.090264246,0.0,0.0,0.0,0.0,0.21960163,0.0016453177,0.0018288473,0.004680011,0.0,0.0,0.0,0.0,0.0,0.0
41724543,0.0,0.0,0.0,0.015072792,-0.04182517,-0.031066895,0.0,0.0,0.0,0.013633251,0.0,0.0,0.0,0.0,0.01794421,0.0,0.0,0.0,0.25827545,0.2582752,4.0683875,0.0,0.0,0.0,0.09026257,0.0,0.0,0.0,0.0,0.21960163,0.0015269706,0.0064789457,0.018624406,0.0,0.0,0.0,0.0,0.0,0.0
41924543,0.0,0.0,0.0,0.019337207,-0.05199075,0.09414673,0.0,0.0,0.0,-0.010200977,0.0,0.0,0.0,0.0,0.01794421,0.0,0.0,0.0,0.2583044,0.25830406,4.0684953,0.0,0.0,0.0,0.09026102,0.0,0.0,0.0,0.0,0.21960163,0.0013624855,0.004459825,0.0076337284,0.0,0.0,0.0,0.0,0.0,0.0
42133343,0.0,0.0,0.0,0.020572886,-0.05387451,-0.019897461,0.0,0.0,0.0,-0.033604622,0.0,0.0,0.0,0.0,0.01794421,0.0,0.0,0.0,0.25832495,0.25832462,4.0685835,0.0,0.0,0.0,0.090259396,0.0,0.0,0.0,0.0,0.21960163,0.0015685384,0.0052678245,0.008197047,0.0,0.0,0.0,0.0,0.0,0.0
42333343,0.0,0.0,0.0,0.010139868,-0.03434535,0.325531,0.0,0.0,0.0,-0.04376912,0.0,0.0,0.0,0.0,0.01794421,0.0,0.0,0.0,0.258178,0.25817788,4.067953,0.0,0.0,0.0,0.0902581,0.0,0.0,0.0,0.0,0.21960163,0.0014994666,0.003626185,0.00617278,0.0,0.0,0.0,0.0,0.0,0.0
42533359,0.0,0.0,0.0,0.0071275714,-0.029682495,0.1174469,0.0,0.0,0.0,-0.026162148,0.0,0.0,0.0,0.0,0.01794421,0.0,0.0,0.0,0.25829312,0.25829306,4.0684276,0.0,0.0,0.0,0.09025661,0.0,0.0,0.0,0.0,0.21960163,0.0016321976,0.0023691924,0.0058995746,0.0,0.0,0.0,0.0,0.0,0.0
42734143,0.0,0.0,0.0,0.0037686785,-0.02143879,-0.043563843,0.0,0.0,0.0,-0.030530691,0.0,0.0,0.0,0.0,0.01794421,0.0,0.0,0.0,0.25830856,0.25830856,4.0684996,0.0,0.0,0.0,0.090255134,0.0,0.0,0.0,0.0,0.21960163,0.0015168001,0.0017928141,0.0050365576,0.0,0.0,0.0,0.0,0.0,0.0
42942143,0.0,0.0,0.0,-0.0019305459,-0.013761751,0.12037659,0.0,0.0,0.0,-0.04465294,0.0,0.0,0.0,0.0,0.01794421,0.0,0.0,0.0,0.2583266,0.2583266,4.0685754,0.0,0.0,0.0,0.0902536,0.0,0.0,0.0,0.0,0.21960163,0.001383302,0.0026246107,0.0048761964,0.0,0.0,0.0,0.0,0.0,0.0
43142166,0.0,0.0,0.0,-0.0032250579,-0.008823891,0.04650879,0.0,0.0,0.0,0.003184557,0.0,0.0,0.0,0.0,0.01794421,0.0,0.0,0.0,0.25833625,0.25833625,4.06863,0.0,0.0,0.0,0.09025238,0.0,0.0,0.0,0.0,0.21960163,0.0013668791,0.0049582464,0.011045577,0.0,0.0,0.0,0.0,0.0,0.0
43343743,0.0,0.0,0.0,-0.005980716,-0.0052132346,-0.066833496,0.0,0.0,0.0,-0.05539322,0.0,0.0,0.0,0.0,0.01794421,0.0,0.0,0.0,0.25835773,0.25835773,4.0687284,0.0,0.0,0.0,0.090250954,0.0,0.0,0.0,0.0,0.21960163,0.0014673284,0.0055819387,0.010917648,0.0,0.0,0.0,0.0,0.0,0.0
43543796,0.0,0.0,0.0,-0.008191136,-0.0021686067,0.042434692,0.0,0.0,0.0,-0.028811932,0.0,0.0,0.0,0.0,0.01794421,0.0,0.0,0.0,0.25829253,0.25829253,4.0684514,0.0,0.0,0.0,0.09024948,0.0,0.0,0.0,0.0,0.21960163,0.0017341528,0.006334901,0.011631974,0.0,0.0,0.0,0.0,0.0,0.0
43743743,0.0,0.0,0.0,-0.009611453,0.00013315152,0.13674927,0.0,0.0,0.0,-0.027554274,0.0,0.0,0.0,0.0,0.01794421,0.0,0.0,0.0,0.2582224,0.25822237,4.068146,0.0,0.0,0.0,0.090248294,0.0,0.0,0.0,0.0,0.21960163,0.001625597,0.0067695375,0.0129404515,0.0,0.0,0.0,0.0,0.0,0.0
43951743,0.0,0.0,0.0,-0.010315638,0.0031222012,-0.20030212,0.0,0.0,0.0,-0.05947709,0.0,0.0,0.0,0.0,0.01794421,0.0,0.0,0.0,0.2582414,0.25824136,4.068203,0.0,0.0,0.0,0.09024693,0.0,0.0,0.0,0.0,0.21960163,0.001621644,0.0073375506,0.014339344,0.0,0.0,0.0,0.0,0.0,0.0
44151743,0.0,0.0,0.0,-0.01029343,0.0051949015,-0.20336914,0.0,0.0,0.0,-0.039314747,0.0,0.0,0.0,0.0,0.01794421,0.0,0.0,0.0,0.2583553,0.25835526,4.0686913,0.0,0.0,0.0,0.0902455,0.0,0.0,0.0,0.0,0.21960163,0.001563959,0.0069449013,0.012741022,0.0,0.0,0.0,0.0,0.0,0.0
44352543,0.0,0.0,0.0,-0.010354711,0.006311504,0.13056946,0.0,0.0,0.0,-0.042589903,0.0,0.0,0.0,0.0,0.01794421,0.0,0.0,0.0,0.2583624,0.25836238,4.0687447,0.0,0.0,0.0,0.09024417,0.0,0.0,0.0,0.0,0.21960163,0.0015061613,0.0074117044,0.014797771,0.0,0.0,0.0,0.0,0.0,0.0
44552577,0.0,0.0,0.0,-0.009393381,0.006839187,-0.32582092,0.0,0.0,0.0,-0.015587568,0.0,0.0,0.0,0.0,0.01794421,0.0,0.0,0.0,0.25828323,0.2582832,4.0684233,0.0,0.0,0.0,0.09024305,0.0,0.0,0.0,0.0,0.21960163,0.0016202681,0.0068249716,0.012385274,0.0,0.0,0.0,0.0,0.0,0.0
44760596,0.0,0.0,0.0,-0.00925799,0.006805706,0.13134766,0.0,0.0,0.0,-0.046669245,0.0,0.0,0.0,0.0,0.01794421,0.0,0.0,0.0,0.25829667,0.25829664,4.0684896,0.0,0.0,0.0,0.09024167,0.0,0.0,0.0,0.0,0.21960163,0.001576642,0.00625415,0.011242296,0.0,0.0,0.0,0.0,0.0,0.0
44961343,0.0,0.0,0.0,-0.008238774,0.0066846097,-0.20985413,0.0,0.0,0.0,-0.022129536,0.0,0.0,0.0,0.0,0.01794421,0.0,0.0,0.0,0.25831115,0.25831112,4.06856,0.0,0.0,0.0,0.09024039,0.0,0.0,0.0,0.0,0.21960163,0.0015073362,0.005952108,0.011197743,0.0,0.0,0.0,0.0,0.0,0.0
45161349,0.0,0.0,0.0,-0.007855636,0.0059664627,0.21424866,0.0,0.0,0.0,-0.049849987,0.0,0.0,0.0,0.0,0.01794421,0.0,0.0,0.0,0.25824976,0.25824976,4.0683,0.0,0.0,0.0,0.09023912,0.0,0.0,0.0,0.0,0.21960163,0.001658629,0.005336751,0.009911467,0.0,0.0,0.0,0.0,0.0,0.0
45362146,0.0,0.0,0.0,-0.0064952797,0.005299152,0.093566895,0.0,0.0,0.0,-0.02614355,0.0,0.0,0.0,0.0,0.01794421,0.0,0.0,0.0,0.258271,0.25827098,4.068389,0.0,0.0,0.0,0.0902378,0.0,0.0,0.0,0.0,0.21960163,0.0017113154,0.004772479,0.008863286,0.0,0.0,0.0,0.0,0.0,0.0
45562143,0.0,0.0,0.0,-0.008777017,0.0006387003,0.14137268,0.0,0.0,0.0,-0.045618534,0.0,0.0,0.0,0.0,0.01794421,0.0,0.0,0.0,0.25821245,0.25821248,4.0681233,0.0,0.0,0.0,0.09023674,0.0,0.0,0.0,0.0,0.21960163,0.0016157576,0.0039656786,0.008342679,0.0,0.0,0.0,0.0,0.0,0.0
45762146,0.0,0.0,0.0,-0.002785964,0.0017037424,0.30212402,0.0,0.0,0.0,-0.06352687,0.0,0.0,0.0,0.0,0.01794421,0.0,0.0,0.0,0.25824428,0.25824428,4.0682435,0.0,0.0,0.0,0.09023552,0.0,0.0,0.0,0.0,0.21960163,0.0018536015,0.0031576303,0.005822832,0.0,0.0,0.0,0.0,0.0,0.0
45962943,0.0,0.0,0.0,-0.0062400615,-0.0067365402,0.026031494,0.0,0.0,0.0,-0.048803806,0.0,0.0,0.0,0.0,0.01794421,0.0,0.0,0.0,0.25826654,0.25826654,4.0683436,0.0,0.0,0.0,0.090234496,0.0,0.0,0.0,0.0,0.21960163,0.0019068868,0.00391742,0.010556948,0.0,0.0,0.0,0.0,0.0,0.0
46170943,0.0,0.0,0.0,0.017020185,-0.033539318,-0.25912476,0.0,0.0,0.0,-0.057023525,0.0,0.0,0.0,0.0,0.01794421,0.0,0.0,0.0,0.25829375,0.25829375,4.068476,0.0,0.0,0.0,0.09023323,0.0,0.0,0.0,0.0,0.21960163,0.0017767841,0.0012540838,0.0026503946,0.0,0.0,0.0,0.0,0.0,0.0
46370964,0.0,0.0,0.0,0.025250359,-0.06201838,0.15962219,0.0,0.0,0.0,-0.057596445,0.0,0.0,0.0,0.0,0.01794421,0.0,0.0,0.0,0.25829905,0.25829864,4.0685377,0.0,0.0,0.0,0.090232044,0.0,0.0,0.0,0.0,0.21960163,0.0017479603,0.0070077847,0.012091704,0.0,0.0,0.0,0.0,0.0,0.0
46571743,0.0,0.0,0.0,0.040147755,-0.07960116,-0.064590454,0.0,0.0,0.0,-0.029118061,0.0,0.0,0.0,0.0,0.01794421,0.0,0.0,0.0,0.25838333,0.25838265,4.068957,0.0,0.0,0.0,0.090230875,0.0,0.0,0.0,0.0,0.21960163,0.001510995,0.012789361,0.021966238,0.0,0.0,0.0,0.0,0.0,0.0
46779743,0.0,0.0,0.0,0.04091416,-0.09008794,0.09980774,0.0,0.0,0.0,-0.0127568245,0.0,0.0,0.0,0.0,0.01794421,0.0,0.0,0.0,0.2582999,0.25829884,4.0686517,0.0,0.0,0.0,0.09022964,0.0,0.0,0.0,0.0,0.21960163,0.0015950839,0.015825564,0.027321527,0.0,0.0,0.0,0.0,0.0,0.0
46979743,0.0,0.0,0.0,0.04542763,-0.08743662,-0.072891235,0.0,0.0,0.0,-0.015831947,0.0,0.0,0.0,0.0,0.01794421,0.0,0.0,0.0,0.25822446,0.2582236,4.0683436,0.0,0.0,0.0,0.09022867,0.0,0.0,0.0,0.0,0.21960163,0.0017628516,0.016791364,0.02975534,0.0,0.0,0.0,0.0,0.0,0.0
47180657,0.0,0.0,0.0,0.04354733,-0.088618726,-0.16375732,0.0,0.0,0.0,-0.04300475,0.0,0.0,0.0,0.0,0.01794421,0.0,0.0,0.0,0.258325,0.2583241,4.068792,0.0,0.0,0.0,0.09022753,0.0,0.0,0.0,0.0,0.21960163,0.0014294949,0.016598046,0.029977351,0.0,0.0,0.0,0.0,0.0,0.0
47380543,0.0,0.0,0.0,0.045324687,-0.08465707,-0.24111938,0.0,0.0,0.0,-0.016371727,0.0,0.0,0.0,0.0,0.01794421,0.0,0.0,0.0,0.2582437,0.25824293,4.068467,0.0,0.0,0.0,0.09022634,0.0,0.0,0.0,0.0,0.21960163,0.001359233,0.017799685,0.033021804,0.0,0.0,0.0,0.0,0.0,0.0
47589398,0.0,0.0,0.0,0.04175656,-0.077985816,-0.12666321,0.0,0.0,0.0,-0.04918456,0.0,0.0,0.0,0.0,0.01794421,0.0,0.0,0.0,0.25825167,0.25825107,4.068523,0.0,0.0,0.0,0.090225406,0.0,0.0,0.0,0.0,0.21960163,0.0013131452,0.014842091,0.027355911,0.0,0.0,0.0,0.0,0.0,0.0
47789345,0.0,0.0,0.0,0.036118094,-0.06988544,0.18702698,0.0,0.0,0.0,-0.027185917,0.0,0.0,0.0,0.0,0.01794421,0.0,0.0,0.0,0.25826982,0.25826934,4.0686173,0.0,0.0,0.0,0.09022408,0.0,0.0,0.0,0.0,0.21960163,0.0012661739,0.011954655,0.022171881,0.0,0.0,0.0,0.0,0.0,0.0
47989358,0.0,0.0,0.0,0.027907804,-0.06023639,0.20123291,0.0,0.0,0.0,0.011318922,0.0,0.0,0.0,0.0,0.01794421,0.0,0.0,0.0,0.25828186,0.2582815,4.0686817,0.0,0.0,0.0,0.09022317,0.0,0.0,0.0,0.0,0.21960163,0.0010373017,0.009305667,0.01950696,0.0,0.0,0.0,0.0,0.0,0.0
48198153,0.0,0.0,0.0,0.022518927,-0.05111494,-0.34924316,0.0,0.0,0.0,-0.005710602,0.0,0.0,0.0,0.0,0.01794421,0.0,0.0,0.0,0.25820008,0.25819987,4.0683393,0.0,0.0,0.0,0.090222105,0.0,0.0,0.0,0.0,0.21960163,0.00073543936,0.0074851247,0.01783938,0.0,0.0,0.0,0.0,0.0,0.0
48398143,0.0,0.0,0.0,0.019965343,-0.0514109,-0.28164673,0.0,0.0,0.0,0.007753849,0.0,0.0,0.0,0.0,0.01794421,0.0,0.0,0.0,0.2581513,0.25815105,4.068116,0.0,0.0,0.0,0.090221,0.0,0.0,0.0,0.0,0.21960163,0.0005932087,0.0036220269,0.0075714104,0.0,0.0,0.0,0.0,0.0,0.0
48598177,0.0,0.0,0.0,0.013584032,-0.047999542,0.16749573,0.0,0.0,0.0,0.020748496,0.0,0.0,0.0,0.0,0.01794421,0.0,0.0,0.0,0.25817472,0.25817454,4.0682273,0.0,0.0,0.0,0.09022013,0.0,0.0,0.0,0.0,0.21960163,0.0005446311,0.002439742,0.0060022254,0.0,0.0,0.0,0.0,0.0,0.0
48806943,0.0,0.0,0.0,0.0068487576,-0.043624222,0.023498535,0.0,0.0,0.0,0.03209555,0.0,0.0,0.0,0.0,0.01794421,0.0,0.0,0.0,0.25818646,0.2581863,4.068321,0.0,0.0,0.0,0.09021911,0.0,0.0,0.0,0.0,0.21960163,0.00048772077,0.0017717035,0.0044330047,0.0,0.0,0.0,0.0,0.0,0.0
49006943,0.0,0.0,0.0,-3.5711266e-05,-0.035443023,-0.11222839,0.0,0.0,0.0,0.041300654,0.0,0.0,0.0,0.0,0.01794421,0.0,0.0,0.0,0.258123,0.25812295,4.0680766,0.0,0.0,0.0,0.09021804,0.0,0.0,0.0,0.0,0.21960163,0.0007433053,0.003316716,0.0068854955,0.0,0.0,0.0,0.0,0.0,0.0
49206943,0.0,0.0,0.0,-0.0029556642,-0.03242175,0.277771,0.0,0.0,0.0,0.009463668,0.0,0.0,0.0,0.0,0.01794421,0.0,0.0,0.0,0.25814882,0.2581488,4.0682316,0.0,0.0,0.0,0.09021705,0.0,0.0,0.0,0.0,0.21960163,0.00056409027,0.005071138,0.010910602,0.0,0.0,0.0,0.0,0.0,0.0
49407743,0.0,0.0,0.0,-0.0089448495,-0.03389526,-0.23442078,0.0,0.0,0.0,0.022389293,0.0,0.0,0.0,0.0,0.01794421,0.0,0.0,0.0,0.25824517,0.25824517,4.068736,0.0,0.0,0.0,0.09021622,0.0,0.0,0.0,0.0,0.21960163,0.0006792298,0.0058004158,0.010952328,0.0,0.0,0.0,0.0,0.0,0.0
49615743,0.0,0.0,0.0,-0.018231735,-0.024732636,0.05810547,0.0,0.0,0.0,0.021631956,0.0,0.0,0.0,0.0,0.01794421,0.0,0.0,0.0,0.25815597,0.25815603,4.0684166,0.0,0.0,0.0,0.090215184,0.0,0.0,0.0,0.0,0.21960163,0.0012880306,0.0075868936,0.015114575,0.0,0.0,0.0,0.0,0.0,0.0
49816543,0.0,0.0,0.0,-0.023465259,-0.012847773,-0.13536072,0.0,0.0,0.0,0.037866473,0.0,0.0,0.0,0.0,0.01794421,0.0,0.0,0.0,0.25816393,0.258164,4.068507,0.0,0.0,0.0,0.09021423,0.0,0.0,0.0,0.0,0.21960163,0.0017077273,0.009721204,0.019938108,0.0,0.0,0.0,0.0,0.0,0.0
50016543,0.0,0.0,0.0,-0.030571729,-0.004802246,-0.37927246,0.0,0.0,0.0,0.06581187,0.0,0.0,0.0,0.0,0.01794421,0.0,0.0,0.0,0.25818542,0.25818548,4.0686345,0.0,0.0,0.0,0.090213284,0.0,0.0,0.0,0.0,0.21960163,0.0019206522,0.012171796,0.02549552,0.0,0.0,0.0,0.0,0.0,0.0
50216543,0.0,0.0,0.0,-0.040368114,0.008830089,-0.19265747,0.0,0.0,0.0,0.04302609,0.0,0.0,0.0,0.0,0.01794421,0.0,0.0,0.0,0.2581243,0.25812426,4.0683565,0.0,0.0,0.0,0.090212286,0.0,0.0,0.0,0.0,0.21960163,0.0021837975,0.013367526,0.026820611,0.0,0.0,0.0,0.0,0.0,0.0
50417343,0.0,0.0,0.0,-0.041291624,0.024524175,-0.09500122,0.0,0.0,0.0,0.07158232,0.0,0.0,0.0,0.0,0.01794421,0.0,0.0,0.0,0.25807396,0.25807363,4.0680685,0.0,0.0,0.0,0.09021151,0.0,0.0,0.0,0.0,0.21960163,0.0021209258,0.015236484,0.027678115,0.0,0.0,0.0,0.0,0.0,0.0
50617343,0.0,0.0,0.0,-0.05114227,0.033503048,-0.13032532,0.0,0.0,0.0,0.07413983,0.0,0.0,0.0,0.0,0.01794421,0.0,0.0,0.0,0.25805914,0.2580587,4.067882,0.0,0.0,0.0,0.09021059,0.0,0.0,0.0,0.0,0.21960163,0.0024026395,0.017240357,0.03126804,0.0,0.0,0.0,0.0,0.0,0.0
50826178,0.0,0.0,0.0,-0.049579,0.05185469,0.21646118,0.0,0.0,0.0,0.043368697,0.0,0.0,0.0,0.0,0.01794421,0.0,0.0,0.0,0.25804484,0.25804386,4.067665,0.0,0.0,0.0,0.09020963,0.0,0.0,0.0,0.0,0.21960163,0.002797965,0.018168401,0.032614276,0.0,0.0,0.0,0.0,0.0,0.0
51026147,0.0,0.0,0.0,-0.06172421,0.07123053,-0.121154785,0.0,0.0,0.0,0.0758363,0.0,0.0,0.0,0.0,0.01794421,0.0,0.0,0.0,0.25822386,0.25822228,4.0682373,0.0,0.0,0.0,0.09020874,0.0,0.0,0.0,0.0,0.21960163,0.00259503,0.020681038,0.035307877,0.0,0.0,0.0,0.0,0.0,0.0
51226153,0.0,0.0,0.0,-0.06236996,0.07307927,0.18666077,0.0,0.0,0.0,0.07919538,0.0,0.0,0.0,0.0,0.01794421,0.0,0.0,0.0,0.2582146,0.2582129,4.067971,0.0,0.0,0.0,0.09020798,0.0,0.0,0.0,0.0,0.21960163,0.002905494,0.023884784,0.040729273,0.0,0.0,0.0,0.0,0.0,0.0
51426984,0.0,0.0,0.0,-0.060911797,0.06948755,-0.40420532,0.0,0.0,0.0,0.11584628,0.0,0.0,0.0,0.0,0.01794421,0.0,0.0,0.0,0.2583879,0.25838625,4.0685034,0.0,0.0,0.0,0.09020711,0.0,0.0,0.0,0.0,0.21960163,0.003591959,0.022404235,0.03882522,0.0,0.0,0.0,0.0,0.0,0.0
51634993,0.0,0.0,0.0,-0.063028604,0.06099366,0.06422424,0.0,0.0,0.0,0.10293245,0.0,0.0,0.0,0.0,0.01794421,0.0,0.0,0.0,0.258466,0.25846463,4.068589,0.0,0.0,0.0,0.09020619,0.0,0.0,0.0,0.0,0.21960163,0.0037833645,0.021536915,0.03665676,0.0,0.0,0.0,0.0,0.0,0.0
51834943,0.0,0.0,0.0,-0.05763899,0.049189057,-0.26316833,0.0,0.0,0.0,0.13820016,0.0,0.0,0.0,0.0,0.01794421,0.0,0.0,0.0,0.25846097,0.2584599,4.0683174,0.0,0.0,0.0,0.09020547,0.0,0.0,0.0,0.0,0.21960163,0.003907716,0.018743528,0.032612197,0.0,0.0,0.0,0.0,0.0,0.0
52035788,0.0,0.0,0.0,-0.056431558,0.042304505,0.08377075,0.0,0.0,0.0,0.10055864,0.0,0.0,0.0,0.0,0.01794421,0.0,0.0,0.0,0.25847736,0.2584764,4.0680795,0.0,0.0,0.0,0.09020463,0.0,0.0,0.0,0.0,0.21960163,0.003968421,0.015223722,0.025606422,0.0,0.0,0.0,0.0,0.0,0.0
52243743,0.0,0.0,0.0,-0.053917583,0.031366296,-0.101989746,0.0,0.0,0.0,0.14388108,0.0,0.0,0.0,0.0,0.01794421,0.0,0.0,0.0,0.25859463,0.25859386,4.068237,0.0,0.0,0.0,0.09020375,0.0,0.0,0.0,0.0,0.21960163,0.0044719735,0.0113046765,0.018989043,0.0,0.0,0.0,0.0,0.0,0.0
52443743,0.0,0.0,0.0,-0.04705341,0.011336854,0.06506348,0.0,0.0,0.0,0.12510586,0.0,0.0,0.0,0.0,0.01794421,0.0,0.0,0.0,0.2586951,0.25869456,4.0683002,0.0,0.0,0.0,0.090202935,0.0,0.0,0.0,0.0,0.21960163,0.0046679927,0.009477002,0.016076814,0.0,0.0,0.0,0.0,0.0,0.0
52644543,0.0,0.0,0.0,-0.04136714,0.004517242,-0.022354126,0.0,0.0,0.0,0.117507696,0.0,0.0,0.0,0.0,0.01794421,0.0,0.0,0.0,0.2587141,0.2587136,4.068057,0.0,0.0,0.0,0.09020211,0.0,0.0,0.0,0.0,0.21960163,0.0050336365,0.0047237542,0.008376182,0.0,0.0,0.0,0.0,0.0,0.0
52844543,0.0,0.0,0.0,-0.04512556,-0.002267246,0.07336426,0.0,0.0,0.0,0.13939202,0.0,0.0,0.0,0.0,0.01794421,0.0,0.0,0.0,0.25893292,0.25893235,4.068578,0.0,0.0,0.0,0.09020143,0.0,0.0,0.0,0.0,0.21960163,0.0051638945,0.004707862,0.007725476,0.0,0.0,0.0,0.0,0.0,0.0
53045382,0.0,0.0,0.0,-0.03725366,-0.011845349,0.49795532,0.0,0.0,0.0,0.11430216,0.0,0.0,0.0,0.0,0.01794421,0.0,0.0,0.0,0.25893328,0.25893277,4.068336,0.0,0.0,0.0,0.09020065,0.0,0.0,0.0,0.0,0.21960163,0.0047336556,0.005376441,0.010059485,0.0,0.0,0.0,0.0,0.0,0.0
53253343,0.0,0.0,0.0,-0.03825844,-0.014598186,-0.2775116,0.0,0.0,0.0,0.12778723,0.0,0.0,0.0,0.0,0.01794421,0.0,0.0,0.0,0.25901255,0.25901195,4.0684214,0.0,0.0,0.0,0.09020025,0.0,0.0,0.0,0.0,0.21960163,0.0043028546,0.005556047,0.010627946,0.0,0.0,0.0,0.0,0.0,0.0
53453359,0.0,0.0,0.0,-0.027518885,-0.019258106,-0.20117188,0.0,0.0,0.0,0.14933479,0.0,0.0,0.0,0.0,0.01794421,0.0,0.0,0.0,0.2590798,0.2590793,4.068509,0.0,0.0,0.0,0.09019991,0.0,0.0,0.0,0.0,0.21960163,0.004427012,0.006952217,0.013797994,0.0,0.0,0.0,0.0,0.0,0.0
53654152,0.0,0.0,0.0,-0.027867993,-0.016549585,-0.15161133,0.0,0.0,0.0,0.12290144,0.0,0.0,0.0,0.0,0.01794421,0.0,0.0,0.0,0.2591229,0.25912234,4.0685806,0.0,0.0,0.0,0.090199254,0.0,0.0,0.0,0.0,0.21960163,0.0046533537,0.0065377164,0.013458612,0.0,0.0,0.0,0.0,0.0,0.0
