timestamp,roll_body,pitch_body,yaw_body,yaw_sp_move_rate,q_d[0],q_d[1],q_d[2],q_d[3],thrust_body[0],thrust_body[1],thrust_body[2],q_d_valid,roll_reset_integral,pitch_reset_integral,yaw_reset_integral,fw_control_yaw,apply_flaps
11798304,0.0,-0.0,2.8238351,0.0,0.15821119,0.0,0.0,0.9874053,0.0,0.0,-0.0,1,0,0,0,0,0
11898306,0.0,-0.0,2.8142295,0.0,0.16295168,0.0,0.0,0.9866341,0.0,0.0,-0.0,1,0,0,0,0,0
12002302,0.0,-0.0,2.811906,0.0,0.16409774,0.0,0.0,0.9864441,0.0,0.0,-0.0,1,0,0,0,0,0
12102361,0.0,-0.0,2.806481,0.0,0.16677296,0.0,0.0,0.98599535,0.0,0.0,-0.0,1,0,0,0,0,0
12202334,0.0,-0.0,2.809405,0.0,0.16533116,0.0,0.0,0.9862381,0.0,0.0,-0.0,1,0,0,0,0,0
12306296,0.0,-0.0,2.8007739,0.0,0.16958582,0.0,0.0,0.9855154,0.0,0.0,-0.0,1,0,0,0,0,0
12410325,0.0,-0.0,2.7956913,0.0,0.17208977,0.0,0.0,0.98508126,0.0,0.0,-0.0,1,0,0,0,0,0
12511109,0.0,-0.0,2.7993093,0.0,0.17030749,0.0,0.0,0.98539096,0.0,0.0,-0.0,1,0,0,0,0,0
12611118,0.0,-0.0,2.7929022,0.0,0.17346331,0.0,0.0,0.98484033,0.0,0.0,-0.0,1,0,0,0,0,0
12715905,0.0,-0.0,2.786387,0.0,0.17667064,0.0,0.0,0.98427004,0.0,0.0,-0.0,1,0,0,0,0,0
12815120,0.0,-0.0,2.7773466,0.0,0.18111789,0.0,0.0,0.9834614,0.0,0.0,-0.0,1,0,0,0,0,0
12919915,0.0,-0.0,2.7720473,0.0,0.18372309,0.0,0.0,0.98297805,0.0,0.0,-0.0,1,0,0,0,0,0
13019961,0.0,-0.0,2.75751,0.0,0.19086312,0.0,0.0,0.9816167,0.0,0.0,-0.0,1,0,0,0,0,0
13119909,0.0,-0.0,2.7386882,0.0,0.20009239,0.0,0.0,0.97977704,0.0,0.0,-0.0,1,0,0,0,0,0
13223946,0.0,-0.0,2.737372,0.0,0.2007372,0.0,0.0,0.97964513,0.0,0.0,-0.0,1,0,0,0,0,0
13323935,0.0,-0.0,2.735647,0.0,0.20158203,0.0,0.0,0.9794716,0.0,0.0,-0.0,1,0,0,0,0,0
13427905,0.0,-0.0,2.7321293,0.0,0.20330442,0.0,0.0,0.9791156,0.0,0.0,-0.0,1,0,0,0,0,0
13532713,0.0,-0.0,2.727165,0.0,0.20573413,0.0,0.0,0.9786079,0.0,0.0,-0.0,1,0,0,0,0,0
13636708,0.0,-0.0,2.7229145,0.0,0.20781347,0.0,0.0,0.9781685,0.0,0.0,-0.0,1,0,0,0,0,0
13736709,0.0,-0.0,2.7300768,0.0,0.20430917,0.0,0.0,0.9789064,0.0,0.0,-0.0,1,0,0,0,0,0
13837508,0.0,-0.0,2.729526,0.0,0.20457871,0.0,0.0,0.9788501,0.0,0.0,-0.0,1,0,0,0,0,0
13941512,0.0,-0.0,2.7246714,0.0,0.20695412,0.0,0.0,0.97835064,0.0,0.0,-0.0,1,0,0,0,0,0
14041516,0.0,-0.0,2.7306361,0.0,0.20403539,0.0,0.0,0.9789635,0.0,0.0,-0.0,1,0,0,0,0,0
14145558,0.0,-0.0,2.7299047,0.0,0.20439342,0.0,0.0,0.9788888,0.0,0.0,-0.0,1,0,0,0,0,0
14245534,0.0,-0.0,2.7293608,0.0,0.20465958,0.0,0.0,0.9788332,0.0,0.0,-0.0,1,0,0,0,0,0
14349509,0.0,-0.0,2.737938,0.0,0.20045994,0.0,0.0,0.9797019,0.0,0.0,-0.0,1,0,0,0,0,0
14453501,0.0,-0.0,2.753974,0.0,0.19259831,0.0,0.0,0.9812777,0.0,0.0,-0.0,1,0,0,0,0,0
14557500,0.0,-0.0,2.7482846,0.0,0.19538896,0.0,0.0,0.9807258,0.0,0.0,-0.0,1,0,0,0,0,0
14658303,0.0,-0.0,2.743721,0.0,0.19762625,0.0,0.0,0.9802774,0.0,0.0,-0.0,1,0,0,0,0,0
14759110,0.0,-0.0,2.7456,0.0,0.1967052,0.0,0.0,0.9804627,0.0,0.0,-0.0,1,0,0,0,0,0
14859899,0.0,-0.0,2.7465506,0.0,0.19623919,0.0,0.0,0.9805561,0.0,0.0,-0.0,1,0,0,0,0,0
14963104,0.0,-0.0,2.743551,0.0,0.19770958,0.0,0.0,0.9802606,0.0,0.0,-0.0,1,0,0,0,0,0
15063913,0.0,-0.0,2.739256,0.0,0.19981427,0.0,0.0,0.9798338,0.0,0.0,-0.0,1,0,0,0,0,0
15167108,0.0,-0.0,2.7392054,0.0,0.19983904,0.0,0.0,0.9798287,0.0,0.0,-0.0,1,0,0,0,0,0
15271115,0.0,-0.0,2.7347782,0.0,0.2020075,0.0,0.0,0.97938395,0.0,0.0,-0.0,1,0,0,0,0,0
15371113,0.0,-0.0,2.7309093,0.0,0.20390165,0.0,0.0,0.9789914,0.0,0.0,-0.0,1,0,0,0,0,0
15471165,0.0,-0.0,2.7202265,0.0,0.2091279,0.0,0.0,0.9778883,0.0,0.0,-0.0,1,0,0,0,0,0
15575903,0.0,-0.0,2.706962,0.0,0.21560882,0.0,0.0,0.9764798,0.0,0.0,-0.0,1,0,0,0,0,0
15675110,0.0,-0.0,2.70102,0.0,0.21850903,0.0,0.0,0.9758349,0.0,0.0,-0.0,1,0,0,0,0,0
15779912,0.0,-0.0,2.6853185,0.0,0.22616328,0.0,0.0,0.9740894,0.0,0.0,-0.0,1,0,0,0,0,0
15879935,0.0,-0.0,2.658349,0.0,0.23927763,0.0,0.0,0.9709512,0.0,0.0,-0.0,1,0,0,0,0,0
15979916,0.0,-0.0,2.6477509,0.0,0.24441941,0.0,0.0,0.9696696,0.0,0.0,-0.0,1,0,0,0,0,0
16080722,0.0,-0.0,2.6462216,0.0,0.24516076,0.0,0.0,0.9694824,0.0,0.0,-0.0,1,0,0,0,0,0
16183911,0.0,-0.0,2.6429992,0.0,0.2467225,0.0,0.0,0.96908617,0.0,0.0,-0.0,1,0,0,0,0,0
16285717,0.0,-0.0,2.6304169,0.0,0.25281423,0.0,0.0,0.9675148,0.0,0.0,-0.0,1,0,0,0,0,0
16388700,0.0,-0.0,2.6291332,0.0,0.25343516,0.0,0.0,0.9673524,0.0,0.0,-0.0,1,0,0,0,0,0
16488706,0.0,-0.0,2.632711,0.0,0.2517043,0.0,0.0,0.9678042,0.0,0.0,-0.0,1,0,0,0,0,0
16588709,0.0,-0.0,2.6399634,0.0,0.24819319,0.0,0.0,0.96871054,0.0,0.0,-0.0,1,0,0,0,0,0
16688750,0.0,-0.0,2.6543908,0.0,0.2411988,0.0,0.0,0.97047573,0.0,0.0,-0.0,1,0,0,0,0,0
16792733,0.0,-0.0,2.6622143,0.0,0.23740071,0.0,0.0,0.9714118,0.0,0.0,-0.0,1,0,0,0,0,0
16893557,0.0,-0.0,2.6650558,0.0,0.23602036,0.0,0.0,0.9717481,0.0,0.0,-0.0,1,0,0,0,0,0
16997530,0.0,-0.0,2.664225,0.0,0.23642392,0.0,0.0,0.97165,0.0,0.0,-0.0,1,0,0,0,0,0
17098298,0.0,-0.0,2.6610062,0.0,0.23798743,0.0,0.0,0.97126824,0.0,0.0,-0.0,1,0,0,0,0,0
17197661,0.0,-0.0,2.6654732,0.0,0.2358175,0.0,0.0,0.97179735,0.0,0.0,-0.0,1,0,0,0,0,0
17301529,0.0,-0.0,2.6633,0.0,0.23687331,0.0,0.0,0.9715406,0.0,0.0,-0.0,1,0,0,0,0,0
17402298,0.0,-0.0,2.6578379,0.0,0.2395258,0.0,0.0,0.97089,0.0,0.0,-0.0,1,0,0,0,0,0
17502357,0.0,-0.0,2.6590743,0.0,0.23892552,0.0,0.0,0.9710379,0.0,0.0,-0.0,1,0,0,0,0,0
17606367,0.0,-0.0,2.647109,0.0,0.24473058,0.0,0.0,0.96959114,0.0,0.0,-0.0,1,0,0,0,0,0
17707132,0.0,-0.0,2.632642,0.0,0.25173765,0.0,0.0,0.9677955,0.0,0.0,-0.0,1,0,0,0,0,0
17807109,0.0,-0.0,2.6358147,0.0,0.25020212,0.0,0.0,0.96819365,0.0,0.0,-0.0,1,0,0,0,0,0
17911277,0.0,-0.0,2.6218014,0.0,0.2569797,0.0,0.0,0.9664168,0.0,0.0,-0.0,1,0,0,0,0,0
18011103,0.0,-0.0,2.611744,0.0,0.26183626,0.0,0.0,0.9651123,0.0,0.0,-0.0,1,0,0,0,0,0
18111109,0.0,-0.0,2.6098697,0.0,0.26274055,0.0,0.0,0.9648665,0.0,0.0,-0.0,1,0,0,0,0,0
18215148,0.0,-0.0,2.5994127,0.0,0.26778176,0.0,0.0,0.9634796,0.0,0.0,-0.0,1,0,0,0,0,0
18315124,0.0,-0.0,2.5964851,0.0,0.2691918,0.0,0.0,0.9630866,0.0,0.0,-0.0,1,0,0,0,0,0
18415907,0.0,-0.0,2.5924177,0.0,0.27114987,0.0,0.0,0.9625371,0.0,0.0,-0.0,1,0,0,0,0,0
18519938,0.0,-0.0,2.5974345,0.0,0.2687346,0.0,0.0,0.9632143,0.0,0.0,-0.0,1,0,0,0,0,0
18619900,0.0,-0.0,2.5996463,0.0,0.2676692,0.0,0.0,0.9635109,0.0,0.0,-0.0,1,0,0,0,0,0
18719906,0.0,-0.0,2.589897,0.0,0.27236286,0.0,0.0,0.9621946,0.0,0.0,-0.0,1,0,0,0,0,0
18823937,0.0,-0.0,2.6044042,0.0,0.26537633,0.0,0.0,0.9641449,0.0,0.0,-0.0,1,0,0,0,0,0
18923961,0.0,-0.0,2.5941896,0.0,0.270297,0.0,0.0,0.962777,0.0,0.0,-0.0,1,0,0,0,0,0
19027903,0.0,-0.0,2.6026,0.0,0.26624593,0.0,0.0,0.96390516,0.0,0.0,-0.0,1,0,0,0,0,0
19128711,0.0,-0.0,2.6025858,0.0,0.26625282,0.0,0.0,0.96390325,0.0,0.0,-0.0,1,0,0,0,0,0
19228882,0.0,-0.0,2.5897074,0.0,0.27245402,0.0,0.0,0.9621688,0.0,0.0,-0.0,1,0,0,0,0,0
19328720,0.0,-0.0,2.6029627,0.0,0.26607114,0.0,0.0,0.9639534,0.0,0.0,-0.0,1,0,0,0,0,0
19432719,0.0,-0.0,2.5992467,0.0,0.26786172,0.0,0.0,0.96345735,0.0,0.0,-0.0,1,0,0,0,0,0
19532706,0.0,-0.0,2.5981126,0.0,0.26840803,0.0,0.0,0.9633053,0.0,0.0,-0.0,1,0,0,0,0,0
19634489,0.0,-0.0,2.5903418,0.0,0.27214882,0.0,0.0,0.9622552,0.0,0.0,-0.0,1,0,0,0,0,0
19737511,0.0,-0.0,2.5903504,0.0,0.27214468,0.0,0.0,0.9622564,0.0,0.0,-0.0,1,0,0,0,0,0
19838310,0.0,-0.0,2.5932143,0.0,0.2707665,0.0,0.0,0.96264505,0.0,0.0,-0.0,1,0,0,0,0,0
19938299,0.0,-0.0,2.58388,0.0,0.27525637,0.0,0.0,0.9613709,0.0,0.0,-0.0,1,0,0,0,0,0
20042314,0.0,-0.0,2.5835624,0.0,0.275409,0.0,0.0,0.96132714,0.0,0.0,-0.0,1,0,0,0,0,0
20142297,0.0,-0.0,2.5809162,0.0,0.2766807,0.0,0.0,0.96096194,0.0,0.0,-0.0,1,0,0,0,0,0
20242322,0.0,-0.0,2.5682385,0.0,0.2827665,0.0,0.0,0.95918876,0.0,0.0,-0.0,1,0,0,0,0,0
20346298,0.0,-0.0,2.557403,0.0,0.28795892,0.0,0.0,0.9576428,0.0,0.0,-0.0,1,0,0,0,0,0
20446303,0.0,-0.0,2.5475588,0.0,0.29266906,0.0,0.0,0.9562138,0.0,0.0,-0.0,1,0,0,0,0,0
20550303,0.0,-0.0,2.5352926,0.0,0.29852805,0.0,0.0,0.9544009,0.0,0.0,-0.0,1,0,0,0,0,0
20655140,0.0,-0.0,2.5257807,0.0,0.30306378,0.0,0.0,0.9529703,0.0,0.0,-0.0,1,0,0,0,0,0
20759113,0.0,-0.0,2.5194995,0.0,0.30605513,0.0,0.0,0.9520138,0.0,0.0,-0.0,1,0,0,0,0,0
20859112,0.0,-0.0,2.5122738,0.0,0.30949265,0.0,0.0,0.95090187,0.0,0.0,-0.0,1,0,0,0,0,0
20963113,0.0,-0.0,2.5074868,0.0,0.31176773,0.0,0.0,0.95015836,0.0,0.0,-0.0,1,0,0,0,0,0
21063275,0.0,-0.0,2.5018284,0.0,0.31445464,0.0,0.0,0.9492725,0.0,0.0,-0.0,1,0,0,0,0,0
21163956,0.0,-0.0,2.4946227,0.0,0.3178727,0.0,0.0,0.9481334,0.0,0.0,-0.0,1,0,0,0,0,0
21267902,0.0,-0.0,2.5029876,0.0,0.3139044,0.0,0.0,0.9494546,0.0,0.0,-0.0,1,0,0,0,0,0
21367912,0.0,-0.0,2.4999995,0.0,0.31532258,0.0,0.0,0.94898456,0.0,0.0,-0.0,1,0,0,0,0,0
21467918,0.0,-0.0,2.493704,0.0,0.31830817,0.0,0.0,0.9479873,0.0,0.0,-0.0,1,0,0,0,0,0
21571909,0.0,-0.0,2.494867,0.0,0.31775686,0.0,0.0,0.9481722,0.0,0.0,-0.0,1,0,0,0,0,0
21671909,0.0,-0.0,2.4936795,0.0,0.3183198,0.0,0.0,0.9479834,0.0,0.0,-0.0,1,0,0,0,0,0
21771910,0.0,-0.0,2.500126,0.0,0.31526262,0.0,0.0,0.9490045,0.0,0.0,-0.0,1,0,0,0,0,0
21873514,0.0,-0.0,2.490733,0.0,0.31971613,0.0,0.0,0.94751334,0.0,0.0,-0.0,1,0,0,0,0,0
21976706,0.0,-0.0,2.4881344,0.0,0.32094693,0.0,0.0,0.9470972,0.0,0.0,-0.0,1,0,0,0,0,0
22076716,0.0,-0.0,2.488895,0.0,0.32058674,0.0,0.0,0.9472192,0.0,0.0,-0.0,1,0,0,0,0,0
22180713,0.0,-0.0,2.479554,0.0,0.32500723,0.0,0.0,0.94571155,0.0,0.0,-0.0,1,0,0,0,0,0
22281508,0.0,-0.0,2.4793274,0.0,0.3251143,0.0,0.0,0.9456747,0.0,0.0,-0.0,1,0,0,0,0,0
22381506,0.0,-0.0,2.4769773,0.0,0.3262253,0.0,0.0,0.94529206,0.0,0.0,-0.0,1,0,0,0,0,0
22485641,0.0,-0.0,2.476986,0.0,0.32622126,0.0,0.0,0.9452935,0.0,0.0,-0.0,1,0,0,0,0,0
22585668,0.0,-0.0,2.470314,0.0,0.32937288,0.0,0.0,0.9442,0.0,0.0,-0.0,1,0,0,0,0,0
22685521,0.0,-0.0,2.4646728,0.0,0.3320348,0.0,0.0,0.9432671,0.0,0.0,-0.0,1,0,0,0,0,0
22789528,0.0,-0.0,2.4647496,0.0,0.3319986,0.0,0.0,0.94327986,0.0,0.0,-0.0,1,0,0,0,0,0
22890297,0.0,-0.0,2.4641826,0.0,0.33226597,0.0,0.0,0.94318575,0.0,0.0,-0.0,1,0,0,0,0,0
22990326,0.0,-0.0,2.4566886,0.0,0.33579773,0.0,0.0,0.9419341,0.0,0.0,-0.0,1,0,0,0,0,0
23094337,0.0,-0.0,2.4528928,0.0,0.33758485,0.0,0.0,0.94129515,0.0,0.0,-0.0,1,0,0,0,0,0
23194322,0.0,-0.0,2.4547913,0.0,0.33669117,0.0,0.0,0.9416151,0.0,0.0,-0.0,1,0,0,0,0,0
23294346,0.0,-0.0,2.4593594,0.0,0.3345396,0.0,0.0,0.9423817,0.0,0.0,-0.0,1,0,0,0,0,0
23395129,0.0,-0.0,2.453631,0.0,0.33723742,0.0,0.0,0.94141966,0.0,0.0,-0.0,1,0,0,0,0,0
23499113,0.0,-0.0,2.4471226,0.0,0.34029916,0.0,0.0,0.9403173,0.0,0.0,-0.0,1,0,0,0,0,0
23599106,0.0,-0.0,2.4420958,0.0,0.3426615,0.0,0.0,0.93945897,0.0,0.0,-0.0,1,0,0,0,0,0
23703109,0.0,-0.0,2.4337306,0.0,0.34658784,0.0,0.0,0.93801755,0.0,0.0,-0.0,1,0,0,0,0,0
23803108,0.0,-0.0,2.4282446,0.0,0.34915954,0.0,0.0,0.93706334,0.0,0.0,-0.0,1,0,0,0,0,0
23903288,0.0,-0.0,2.41688,0.0,0.35447857,0.0,0.0,0.93506414,0.0,0.0,-0.0,1,0,0,0,0,0
24007904,0.0,-0.0,2.4062636,0.0,0.35943702,0.0,0.0,0.9331693,0.0,0.0,-0.0,1,0,0,0,0,0
24108701,0.0,-0.0,2.3950357,0.0,0.36467007,0.0,0.0,0.93113685,0.0,0.0,-0.0,1,0,0,0,0,0
24208716,0.0,-0.0,2.384338,0.0,0.36964542,0.0,0.0,0.92917293,0.0,0.0,-0.0,1,0,0,0,0,0
24308712,0.0,-0.0,2.3766005,0.0,0.37323734,0.0,0.0,0.9277359,0.0,0.0,-0.0,1,0,0,0,0,0
24412705,0.0,-0.0,2.3684983,0.0,0.37699258,0.0,0.0,0.9262163,0.0,0.0,-0.0,1,0,0,0,0,0
24512704,0.0,-0.0,2.3523333,0.0,0.38446635,0.0,0.0,0.923139,0.0,0.0,-0.0,1,0,0,0,0,0
24616716,0.0,-0.0,2.342291,0.0,0.38909665,0.0,0.0,0.92119694,0.0,0.0,-0.0,1,0,0,0,0,0
24716711,0.0,-0.0,2.3343427,0.0,0.39275458,0.0,0.0,0.9196433,0.0,0.0,-0.0,1,0,0,0,0,0
24816713,0.0,-0.0,2.3236072,0.0,0.39768532,0.0,0.0,0.91752183,0.0,0.0,-0.0,1,0,0,0,0,0
24920862,0.0,-0.0,2.3095913,0.0,0.40410545,0.0,0.0,0.9147124,0.0,0.0,-0.0,1,0,0,0,0,0
25020709,0.0,-0.0,2.304,0.0,0.40666115,0.0,0.0,0.9135791,0.0,0.0,-0.0,1,0,0,0,0,0
25121528,0.0,-0.0,2.304943,0.0,0.40623027,0.0,0.0,0.9137708,0.0,0.0,-0.0,1,0,0,0,0,0
25225568,0.0,-0.0,2.293128,0.0,0.41162127,0.0,0.0,0.911355,0.0,0.0,-0.0,1,0,0,0,0,0
25325547,0.0,-0.0,2.2890236,0.0,0.41349068,0.0,0.0,0.91050833,0.0,0.0,-0.0,1,0,0,0,0,0
25429509,0.0,-0.0,2.2909842,0.0,0.41259795,0.0,0.0,0.9109133,0.0,0.0,-0.0,1,0,0,0,0,0
25533506,0.0,-0.0,2.2782753,0.0,0.41837794,0.0,0.0,0.90827304,0.0,0.0,-0.0,1,0,0,0,0,0
25633502,0.0,-0.0,2.2774534,0.0,0.41875112,0.0,0.0,0.9081011,0.0,0.0,-0.0,1,0,0,0,0,0
25734327,0.0,-0.0,2.2770529,0.0,0.41893297,0.0,0.0,0.90801716,0.0,0.0,-0.0,1,0,0,0,0,0
25838311,0.0,-0.0,2.2763557,0.0,0.41924945,0.0,0.0,0.9078711,0.0,0.0,-0.0,1,0,0,0,0,0
25938298,0.0,-0.0,2.268703,0.0,0.42272025,0.0,0.0,0.90626025,0.0,0.0,-0.0,1,0,0,0,0,0
26038468,0.0,-0.0,2.2634647,0.0,0.42509243,0.0,0.0,0.90514994,0.0,0.0,-0.0,1,0,0,0,0,0
26142303,0.0,-0.0,2.2579043,0.0,0.42760727,0.0,0.0,0.9039646,0.0,0.0,-0.0,1,0,0,0,0,0
26243910,0.0,-0.0,2.250066,0.0,0.4311467,0.0,0.0,0.9022818,0.0,0.0,-0.0,1,0,0,0,0,0
26343113,0.0,-0.0,2.2450635,0.0,0.4334022,0.0,0.0,0.9012006,0.0,0.0,-0.0,1,0,0,0,0,0
26447106,0.0,-0.0,2.2347488,0.0,0.43804422,0.0,0.0,0.89895344,0.0,0.0,-0.0,1,0,0,0,0,0
26551105,0.0,-0.0,2.2256505,0.0,0.44212914,0.0,0.0,0.8969514,0.0,0.0,-0.0,1,0,0,0,0,0
26651900,0.0,-0.0,2.224437,0.0,0.44267333,0.0,0.0,0.896683,0.0,0.0,-0.0,1,0,0,0,0,0
26751959,0.0,-0.0,2.2164042,0.0,0.44627118,0.0,0.0,0.89489776,0.0,0.0,-0.0,1,0,0,0,0,0
26855941,0.0,-0.0,2.2088628,0.0,0.4496424,0.0,0.0,0.8932087,0.0,0.0,-0.0,1,0,0,0,0,0
26955944,0.0,-0.0,2.2056568,0.0,0.45107365,0.0,0.0,0.89248675,0.0,0.0,-0.0,1,0,0,0,0,0
27059934,0.0,-0.0,2.205676,0.0,0.451065,0.0,0.0,0.8924911,0.0,0.0,-0.0,1,0,0,0,0,0
27159907,0.0,-0.0,2.1962929,0.0,0.45524725,0.0,0.0,0.89036506,0.0,0.0,-0.0,1,0,0,0,0,0
27259911,0.0,-0.0,2.195744,0.0,0.45549157,0.0,0.0,0.89024013,0.0,0.0,-0.0,1,0,0,0,0,0
27360712,0.0,-0.0,2.1973498,0.0,0.45477667,0.0,0.0,0.8906055,0.0,0.0,-0.0,1,0,0,0,0,0
27464713,0.0,-0.0,2.1926646,0.0,0.45686173,0.0,0.0,0.88953775,0.0,0.0,-0.0,1,0,0,0,0,0
27565569,0.0,-0.0,2.195106,0.0,0.45577553,0.0,0.0,0.89009476,0.0,0.0,-0.0,1,0,0,0,0,0
27668719,0.0,-0.0,2.1902342,0.0,0.45794237,0.0,0.0,0.8889819,0.0,0.0,-0.0,1,0,0,0,0,0
27768701,0.0,-0.0,2.1885414,0.0,0.45869464,0.0,0.0,0.888594,0.0,0.0,-0.0,1,0,0,0,0,0
27869506,0.0,-0.0,2.1964357,0.0,0.45518368,0.0,0.0,0.89039755,0.0,0.0,-0.0,1,0,0,0,0,0
27973506,0.0,-0.0,2.1973662,0.0,0.45476934,0.0,0.0,0.89060926,0.0,0.0,-0.0,1,0,0,0,0,0
28073523,0.0,-0.0,2.1894941,0.0,0.4582713,0.0,0.0,0.88881236,0.0,0.0,-0.0,1,0,0,0,0,0
28173558,0.0,-0.0,2.193928,0.0,0.45629972,0.0,0.0,0.8898261,0.0,0.0,-0.0,1,0,0,0,0,0
28277515,0.0,-0.0,2.1992354,0.0,0.4539368,0.0,0.0,0.89103395,0.0,0.0,-0.0,1,0,0,0,0,0
28377546,0.0,-0.0,2.1849117,0.0,0.46030653,0.0,0.0,0.88776004,0.0,0.0,-0.0,1,0,0,0,0,0
28478297,0.0,-0.0,2.188186,0.0,0.45885256,0.0,0.0,0.88851243,0.0,0.0,-0.0,1,0,0,0,0,0
28582333,0.0,-0.0,2.1834698,0.0,0.46094647,0.0,0.0,0.887428,0.0,0.0,-0.0,1,0,0,0,0,0
28683104,0.0,-0.0,2.176567,0.0,0.46400654,0.0,0.0,0.8858318,0.0,0.0,-0.0,1,0,0,0,0,0
28783117,0.0,-0.0,2.1806,0.0,0.4622194,0.0,0.0,0.8867656,0.0,0.0,-0.0,1,0,0,0,0,0
28887128,0.0,-0.0,2.168992,0.0,0.46735832,0.0,0.0,0.884068,0.0,0.0,-0.0,1,0,0,0,0,0
28987114,0.0,-0.0,2.1635718,0.0,0.46975252,0.0,0.0,0.8827982,0.0,0.0,-0.0,1,0,0,0,0,0
29087269,0.0,-0.0,2.1600413,0.0,0.47131014,0.0,0.0,0.88196754,0.0,0.0,-0.0,1,0,0,0,0,0
29191159,0.0,-0.0,2.1543326,0.0,0.47382566,0.0,0.0,0.8806187,0.0,0.0,-0.0,1,0,0,0,0,0
29291115,0.0,-0.0,2.155119,0.0,0.4734794,0.0,0.0,0.8808049,0.0,0.0,-0.0,1,0,0,0,0,0
29391119,0.0,-0.0,2.1501865,0.0,0.4756502,0.0,0.0,0.87963456,0.0,0.0,-0.0,1,0,0,0,0,0
29495902,0.0,-0.0,2.1454158,0.0,0.4777471,0.0,0.0,0.8784974,0.0,0.0,-0.0,1,0,0,0,0,0
29595901,0.0,-0.0,2.1518455,0.0,0.47492042,0.0,0.0,0.8800288,0.0,0.0,-0.0,1,0,0,0,0,0
29695918,0.0,-0.0,2.149108,0.0,0.47612453,0.0,0.0,0.8793779,0.0,0.0,-0.0,1,0,0,0,0,0
29799911,0.0,-0.0,2.14569,0.0,0.47762668,0.0,0.0,0.8785629,0.0,0.0,-0.0,1,0,0,0,0,0
29899909,0.0,-0.0,2.146194,0.0,0.47740525,0.0,0.0,0.87868327,0.0,0.0,-0.0,1,0,0,0,0,0
30003911,0.0,-0.0,2.1458678,0.0,0.47754854,0.0,0.0,0.87860537,0.0,0.0,-0.0,1,0,0,0,0,0
30100706,0.0,-0.0,2.1452184,0.0,0.4778338,0.0,0.0,0.8784503,0.0,0.0,-0.0,1,0,0,0,0,0
30205545,0.0,-0.0,2.1397495,0.0,0.4802341,0.0,0.0,0.8771404,0.0,0.0,-0.0,1,0,0,0,0,0
30304742,0.0,-0.0,2.1351836,0.0,0.4822353,0.0,0.0,0.8760417,0.0,0.0,-0.0,1,0,0,0,0,0
30408734,0.0,-0.0,2.1370819,0.0,0.48140362,0.0,0.0,0.876499,0.0,0.0,-0.0,1,0,0,0,0,0
30508709,0.0,-0.0,2.1333146,0.0,0.48305374,0.0,0.0,0.8755907,0.0,0.0,-0.0,1,0,0,0,0,0
30609518,0.0,-0.0,2.1335423,0.0,0.48295406,0.0,0.0,0.87564564,0.0,0.0,-0.0,1,0,0,0,0,0
30713515,0.0,-0.0,2.130059,0.0,0.4844784,0.0,0.0,0.8748032,0.0,0.0,-0.0,1,0,0,0,0,0
30814367,0.0,-0.0,2.1307,0.0,0.48419794,0.0,0.0,0.8749585,0.0,0.0,-0.0,1,0,0,0,0,0
30917509,0.0,-0.0,2.128618,0.0,0.48510858,0.0,0.0,0.8744539,0.0,0.0,-0.0,1,0,0,0,0,0
31021508,0.0,-0.0,2.1234727,0.0,0.48735663,0.0,0.0,0.87320304,0.0,0.0,-0.0,1,0,0,0,0,0
31122312,0.0,-0.0,2.1299314,0.0,0.4845342,0.0,0.0,0.8747723,0.0,0.0,-0.0,1,0,0,0,0,0
31222297,0.0,-0.0,2.1229954,0.0,0.487565,0.0,0.0,0.8730867,0.0,0.0,-0.0,1,0,0,0,0,0
31326297,0.0,-0.0,2.1254973,0.0,0.48647243,0.0,0.0,0.87369597,0.0,0.0,-0.0,1,0,0,0,0,0
31426302,0.0,-0.0,2.1242251,0.0,0.4870281,0.0,0.0,0.8733863,0.0,0.0,-0.0,1,0,0,0,0,0
31526332,0.0,-0.0,2.124868,0.0,0.48674735,0.0,0.0,0.8735428,0.0,0.0,-0.0,1,0,0,0,0,0
31631107,0.0,-0.0,2.1230206,0.0,0.48755398,0.0,0.0,0.8730929,0.0,0.0,-0.0,1,0,0,0,0,0
31731103,0.0,-0.0,2.1286972,0.0,0.48507395,0.0,0.0,0.8744731,0.0,0.0,-0.0,1,0,0,0,0,0
31831129,0.0,-0.0,2.1299882,0.0,0.48450938,0.0,0.0,0.8747861,0.0,0.0,-0.0,1,0,0,0,0,0
31935106,0.0,-0.0,2.1271348,0.0,0.48575693,0.0,0.0,0.87409395,0.0,0.0,-0.0,1,0,0,0,0,0
32039906,0.0,-0.0,2.131156,0.0,0.4839985,0.0,0.0,0.87506884,0.0,0.0,-0.0,1,0,0,0,0,0
32139900,0.0,-0.0,2.1299033,0.0,0.4845465,0.0,0.0,0.8747655,0.0,0.0,-0.0,1,0,0,0,0,0
32243912,0.0,-0.0,2.1305847,0.0,0.48424843,0.0,0.0,0.87493056,0.0,0.0,-0.0,1,0,0,0,0,0
32344720,0.0,-0.0,2.1244118,0.0,0.48694655,0.0,0.0,0.87343174,0.0,0.0,-0.0,1,0,0,0,0,0
32443933,0.0,-0.0,2.1247368,0.0,0.48680463,0.0,0.0,0.8735109,0.0,0.0,-0.0,1,0,0,0,0,0
32544711,0.0,-0.0,2.126337,0.0,0.48610556,0.0,0.0,0.8739001,0.0,0.0,-0.0,1,0,0,0,0,0
32647918,0.0,-0.0,2.1215434,0.0,0.48819873,0.0,0.0,0.8727325,0.0,0.0,-0.0,1,0,0,0,0,0
32748735,0.0,-0.0,2.1230516,0.0,0.48754045,0.0,0.0,0.8731004,0.0,0.0,-0.0,1,0,0,0,0,0
32848719,0.0,-0.0,2.119492,0.0,0.48909363,0.0,0.0,0.8722313,0.0,0.0,-0.0,1,0,0,0,0,0
32952713,0.0,-0.0,2.1153092,0.0,0.49091673,0.0,0.0,0.8712065,0.0,0.0,-0.0,1,0,0,0,0,0
33052707,0.0,-0.0,2.121637,0.0,0.48815784,0.0,0.0,0.87275535,0.0,0.0,-0.0,1,0,0,0,0,0
33156743,0.0,-0.0,2.1120772,0.0,0.49232396,0.0,0.0,0.87041205,0.0,0.0,-0.0,1,0,0,0,0,0
33256717,0.0,-0.0,2.1119103,0.0,0.4923966,0.0,0.0,0.870371,0.0,0.0,-0.0,1,0,0,0,0,0
33357662,0.0,-0.0,2.1114695,0.0,0.49258843,0.0,0.0,0.8702624,0.0,0.0,-0.0,1,0,0,0,0,0
33461524,0.0,-0.0,2.1069906,0.0,0.49453613,0.0,0.0,0.8691571,0.0,0.0,-0.0,1,0,0,0,0,0
33561507,0.0,-0.0,2.1064117,0.0,0.49478766,0.0,0.0,0.8690139,0.0,0.0,-0.0,1,0,0,0,0,0
33661508,0.0,-0.0,2.1074345,0.0,0.4943432,0.0,0.0,0.8692668,0.0,0.0,-0.0,1,0,0,0,0,0
33765545,0.0,-0.0,2.10677,0.0,0.49463195,0.0,0.0,0.86910254,0.0,0.0,-0.0,1,0,0,0,0,0
33865524,0.0,-0.0,2.106976,0.0,0.49454245,0.0,0.0,0.8691535,0.0,0.0,-0.0,1,0,0,0,0,0
33967114,0.0,-0.0,2.1128078,0.0,0.492006,0.0,0.0,0.8705918,0.0,0.0,-0.0,1,0,0,0,0,0
34070315,0.0,-0.0,2.110865,0.0,0.4928514,0.0,0.0,0.8701135,0.0,0.0,-0.0,1,0,0,0,0,0
34170323,0.0,-0.0,2.107226,0.0,0.49443385,0.0,0.0,0.86921525,0.0,0.0,-0.0,1,0,0,0,0,0
34270325,0.0,-0.0,2.1044188,0.0,0.49565336,0.0,0.0,0.86852044,0.0,0.0,-0.0,1,0,0,0,0,0
34374326,0.0,-0.0,2.1056871,0.0,0.49510247,0.0,0.0,0.8688346,0.0,0.0,-0.0,1,0,0,0,0,0
34475140,0.0,-0.0,2.1035154,0.0,0.49604562,0.0,0.0,0.86829644,0.0,0.0,-0.0,1,0,0,0,0,0
34575119,0.0,-0.0,2.104094,0.0,0.4957944,0.0,0.0,0.86844,0.0,0.0,-0.0,1,0,0,0,0,0
34679119,0.0,-0.0,2.1035233,0.0,0.4960422,0.0,0.0,0.8682984,0.0,0.0,-0.0,1,0,0,0,0,0
34779143,0.0,-0.0,2.1029131,0.0,0.49630705,0.0,0.0,0.868147,0.0,0.0,-0.0,1,0,0,0,0,0
34879910,0.0,-0.0,2.1022005,0.0,0.49661636,0.0,0.0,0.86797017,0.0,0.0,-0.0,1,0,0,0,0,0
34979901,0.0,-0.0,2.1006417,0.0,0.4972927,0.0,0.0,0.86758286,0.0,0.0,-0.0,1,0,0,0,0,0
35084752,0.0,-0.0,2.0995126,0.0,0.49778244,0.0,0.0,0.86730194,0.0,0.0,-0.0,1,0,0,0,0,0
35183924,0.0,-0.0,2.09829,0.0,0.49831253,0.0,0.0,0.8669975,0.0,0.0,-0.0,1,0,0,0,0,0
35287915,0.0,-0.0,2.098341,0.0,0.49829042,0.0,0.0,0.8670102,0.0,0.0,-0.0,1,0,0,0,0,0
35387906,0.0,-0.0,2.0977135,0.0,0.49856243,0.0,0.0,0.86685383,0.0,0.0,-0.0,1,0,0,0,0,0
35491901,0.0,-0.0,2.094864,0.0,0.499797,0.0,0.0,0.8661426,0.0,0.0,-0.0,1,0,0,0,0,0
35589501,0.0,-0.0,2.0945349,0.0,0.49993947,0.0,0.0,0.8660604,0.0,0.0,-0.0,1,0,0,0,0,0
35693506,0.0,-0.0,2.093748,0.0,0.50028014,0.0,0.0,0.8658636,0.0,0.0,-0.0,1,0,0,0,0,0
35793544,0.0,-0.0,2.0926824,0.0,0.5007415,0.0,0.0,0.86559695,0.0,0.0,-0.0,1,0,0,0,0,0
35897525,0.0,-0.0,2.0912023,0.0,0.5013819,0.0,0.0,0.8652261,0.0,0.0,-0.0,1,0,0,0,0,0
35998298,0.0,-0.0,2.0905125,0.0,0.50168025,0.0,0.0,0.8650531,0.0,0.0,-0.0,1,0,0,0,0,0
36097540,0.0,-0.0,2.0896297,0.0,0.5020621,0.0,0.0,0.86483157,0.0,0.0,-0.0,1,0,0,0,0,0
36201535,0.0,-0.0,2.0886497,0.0,0.50248575,0.0,0.0,0.8645855,0.0,0.0,-0.0,1,0,0,0,0,0
36301514,0.0,-0.0,2.087936,0.0,0.50279427,0.0,0.0,0.8644061,0.0,0.0,-0.0,1,0,0,0,0,0
36405549,0.0,-0.0,2.086865,0.0,0.5032571,0.0,0.0,0.86413676,0.0,0.0,-0.0,1,0,0,0,0,0
36501506,0.0,-0.0,2.0861292,0.0,0.50357497,0.0,0.0,0.86395156,0.0,0.0,-0.0,1,0,0,0,0,0
36605535,0.0,-0.0,2.0851812,0.0,0.5039844,0.0,0.0,0.8637128,0.0,0.0,-0.0,1,0,0,0,0,0
36706298,0.0,-0.0,2.084472,0.0,0.5042907,0.0,0.0,0.863534,0.0,0.0,-0.0,1,0,0,0,0,0
36810304,0.0,-0.0,2.0838866,0.0,0.50454336,0.0,0.0,0.86338633,0.0,0.0,-0.0,1,0,0,0,0,0
36910325,0.0,-0.0,2.0830789,0.0,0.50489205,0.0,0.0,0.86318254,0.0,0.0,-0.0,1,0,0,0,0,0
37014316,0.0,-0.0,2.0819716,0.0,0.50536984,0.0,0.0,0.8629029,0.0,0.0,-0.0,1,0,0,0,0,0
37119107,0.0,-0.0,2.0812268,0.0,0.5056912,0.0,0.0,0.8627146,0.0,0.0,-0.0,1,0,0,0,0,0
37219115,0.0,-0.0,2.0804172,0.0,0.5060404,0.0,0.0,0.8625098,0.0,0.0,-0.0,1,0,0,0,0,0
37319270,0.0,-0.0,2.079433,0.0,0.5064647,0.0,0.0,0.8622607,0.0,0.0,-0.0,1,0,0,0,0,0
37423140,0.0,-0.0,2.0790484,0.0,0.50663054,0.0,0.0,0.86216325,0.0,0.0,-0.0,1,0,0,0,0,0
37527901,0.0,-0.0,2.078462,0.0,0.5068833,0.0,0.0,0.86201465,0.0,0.0,-0.0,1,0,0,0,0,0
37627904,0.0,-0.0,2.0777102,0.0,0.50720733,0.0,0.0,0.8618241,0.0,0.0,-0.0,1,0,0,0,0,0
37727901,0.0,-0.0,2.0765495,0.0,0.50770736,0.0,0.0,0.8615296,0.0,0.0,-0.0,1,0,0,0,0,0
37831909,0.0,-0.0,2.07602,0.0,0.50793546,0.0,0.0,0.8613951,0.0,0.0,-0.0,1,0,0,0,0,0
37931900,0.0,-0.0,2.075465,0.0,0.5081745,0.0,0.0,0.86125416,0.0,0.0,-0.0,1,0,0,0,0,0
38035910,0.0,-0.0,2.0750356,0.0,0.5083594,0.0,0.0,0.861145,0.0,0.0,-0.0,1,0,0,0,0,0
38135940,0.0,-0.0,2.0742247,0.0,0.5087085,0.0,0.0,0.86093885,0.0,0.0,-0.0,1,0,0,0,0,0
38236068,0.0,-0.0,2.0733356,0.0,0.50909114,0.0,0.0,0.86071265,0.0,0.0,-0.0,1,0,0,0,0,0
38336844,0.0,-0.0,2.073021,0.0,0.50922656,0.0,0.0,0.86063254,0.0,0.0,-0.0,1,0,0,0,0,0
38440708,0.0,-0.0,2.0727081,0.0,0.50936115,0.0,0.0,0.86055285,0.0,0.0,-0.0,1,0,0,0,0,0
38540717,0.0,-0.0,2.0718787,0.0,0.509718,0.0,0.0,0.8603415,0.0,0.0,-0.0,1,0,0,0,0,0
38640706,0.0,-0.0,2.0712605,0.0,0.5099839,0.0,0.0,0.86018395,0.0,0.0,-0.0,1,0,0,0,0,0
38745552,0.0,-0.0,2.070633,0.0,0.5102538,0.0,0.0,0.8600239,0.0,0.0,-0.0,1,0,0,0,0,0
38845557,0.0,-0.0,2.0700471,0.0,0.5105057,0.0,0.0,0.85987437,0.0,0.0,-0.0,1,0,0,0,0,0
38947142,0.0,-0.0,2.0695093,0.0,0.5107369,0.0,0.0,0.85973704,0.0,0.0,-0.0,1,0,0,0,0,0
39051227,0.0,-0.0,2.068963,0.0,0.51097167,0.0,0.0,0.85959756,0.0,0.0,-0.0,1,0,0,0,0,0
39155230,0.0,-0.0,2.0682545,0.0,0.5112762,0.0,0.0,0.8594165,0.0,0.0,-0.0,1,0,0,0,0,0
39255914,0.0,-0.0,2.0675912,0.0,0.51156116,0.0,0.0,0.85924685,0.0,0.0,-0.0,1,0,0,0,0,0
39355147,0.0,-0.0,2.0671449,0.0,0.5117529,0.0,0.0,0.8591327,0.0,0.0,-0.0,1,0,0,0,0,0
39459105,0.0,-0.0,2.0666702,0.0,0.5119568,0.0,0.0,0.8590112,0.0,0.0,-0.0,1,0,0,0,0,0
39559103,0.0,-0.0,2.0660093,0.0,0.51224065,0.0,0.0,0.85884196,0.0,0.0,-0.0,1,0,0,0,0,0
39659108,0.0,-0.0,2.0654109,0.0,0.5124976,0.0,0.0,0.85868865,0.0,0.0,-0.0,1,0,0,0,0,0
39763911,0.0,-0.0,2.0648913,0.0,0.51272064,0.0,0.0,0.8585555,0.0,0.0,-0.0,1,0,0,0,0,0
39863924,0.0,-0.0,2.0641894,0.0,0.51302195,0.0,0.0,0.85837555,0.0,0.0,-0.0,1,0,0,0,0,0
39963920,0.0,-0.0,2.0638032,0.0,0.51318765,0.0,0.0,0.8582764,0.0,0.0,-0.0,1,0,0,0,0,0
40067909,0.0,-0.0,2.0634341,0.0,0.5133461,0.0,0.0,0.8581817,0.0,0.0,-0.0,1,0,0,0,0,0
40167910,0.0,-0.0,2.0629873,0.0,0.51353776,0.0,0.0,0.85806704,0.0,0.0,-0.0,1,0,0,0,0,0
40267934,0.0,-0.0,2.062968,0.0,0.51354605,0.0,0.0,0.858062,0.0,0.0,-0.0,1,0,0,0,0,0
40371935,0.0,-0.0,2.062546,0.0,0.51372707,0.0,0.0,0.85795367,0.0,0.0,-0.0,1,0,0,0,0,0
40476058,0.0,-0.0,2.0618486,0.0,0.5140262,0.0,0.0,0.8577745,0.0,0.0,-0.0,1,0,0,0,0,0
40579944,0.0,-0.0,2.0617561,0.0,0.51406586,0.0,0.0,0.8577507,0.0,0.0,-0.0,1,0,0,0,0,0
40679920,0.0,-0.0,2.061551,0.0,0.51415384,0.0,0.0,0.857698,0.0,0.0,-0.0,1,0,0,0,0,0
40783926,0.0,-0.0,2.0606902,0.0,0.51452297,0.0,0.0,0.8574766,0.0,0.0,-0.0,1,0,0,0,0,0
40883933,0.0,-0.0,2.0605307,0.0,0.51459134,0.0,0.0,0.8574356,0.0,0.0,-0.0,1,0,0,0,0,0
40984741,0.0,-0.0,2.060329,0.0,0.5146778,0.0,0.0,0.85738367,0.0,0.0,-0.0,1,0,0,0,0,0
41084720,0.0,-0.0,2.059887,0.0,0.5148673,0.0,0.0,0.8572699,0.0,0.0,-0.0,1,0,0,0,0,0
41189535,0.0,-0.0,2.0596063,0.0,0.5149876,0.0,0.0,0.85719764,0.0,0.0,-0.0,1,0,0,0,0,0
41288706,0.0,-0.0,2.059475,0.0,0.5150439,0.0,0.0,0.85716385,0.0,0.0,-0.0,1,0,0,0,0,0
41388711,0.0,-0.0,2.0600817,0.0,0.5147838,0.0,0.0,0.85732,0.0,0.0,-0.0,1,0,0,0,0,0
41492700,0.0,-0.0,2.0617583,0.0,0.51406497,0.0,0.0,0.85775125,0.0,0.0,-0.0,1,0,0,0,0,0
41593500,0.0,-0.0,2.0646093,0.0,0.5128417,0.0,0.0,0.85848314,0.0,0.0,-0.0,1,0,0,0,0,0
41697518,0.0,-0.0,2.067502,0.0,0.5115995,0.0,0.0,0.8592241,0.0,0.0,-0.0,1,0,0,0,0,0
41797504,0.0,-0.0,2.0696027,0.0,0.5106967,0.0,0.0,0.85976094,0.0,0.0,-0.0,1,0,0,0,0,0
41897539,0.0,-0.0,2.0725827,0.0,0.5094151,0.0,0.0,0.8605209,0.0,0.0,-0.0,1,0,0,0,0,0
42001534,0.0,-0.0,2.074024,0.0,0.50879484,0.0,0.0,0.86088777,0.0,0.0,-0.0,1,0,0,0,0,0
42103104,0.0,-0.0,2.074047,0.0,0.5087849,0.0,0.0,0.86089367,0.0,0.0,-0.0,1,0,0,0,0,0
42207112,0.0,-0.0,2.070294,0.0,0.5103996,0.0,0.0,0.85993737,0.0,0.0,-0.0,1,0,0,0,0,0
42306357,0.0,-0.0,2.0706968,0.0,0.5102263,0.0,0.0,0.8600402,0.0,0.0,-0.0,1,0,0,0,0,0
42410342,0.0,-0.0,2.0721323,0.0,0.50960886,0.0,0.0,0.86040616,0.0,0.0,-0.0,1,0,0,0,0,0
42510353,0.0,-0.0,2.071324,0.0,0.50995654,0.0,0.0,0.86020017,0.0,0.0,-0.0,1,0,0,0,0,0
42614341,0.0,-0.0,2.0695446,0.0,0.51072174,0.0,0.0,0.85974604,0.0,0.0,-0.0,1,0,0,0,0,0
42719116,0.0,-0.0,2.0700245,0.0,0.5105154,0.0,0.0,0.85986865,0.0,0.0,-0.0,1,0,0,0,0,0
42823116,0.0,-0.0,2.0699067,0.0,0.51056606,0.0,0.0,0.85983855,0.0,0.0,-0.0,1,0,0,0,0,0
42923920,0.0,-0.0,2.0694494,0.0,0.51076263,0.0,0.0,0.8597218,0.0,0.0,-0.0,1,0,0,0,0,0
43023104,0.0,-0.0,2.0690198,0.0,0.5109473,0.0,0.0,0.85961205,0.0,0.0,-0.0,1,0,0,0,0,0
43127116,0.0,-0.0,2.0688767,0.0,0.5110088,0.0,0.0,0.8595755,0.0,0.0,-0.0,1,0,0,0,0,0
43228709,0.0,-0.0,2.0689673,0.0,0.5109698,0.0,0.0,0.85959864,0.0,0.0,-0.0,1,0,0,0,0,0
43328717,0.0,-0.0,2.06947,0.0,0.5107538,0.0,0.0,0.859727,0.0,0.0,-0.0,1,0,0,0,0,0
43432716,0.0,-0.0,2.0689049,0.0,0.5109967,0.0,0.0,0.8595827,0.0,0.0,-0.0,1,0,0,0,0,0
43536712,0.0,-0.0,2.0692167,0.0,0.51086265,0.0,0.0,0.85966235,0.0,0.0,-0.0,1,0,0,0,0,0
43636709,0.0,-0.0,2.0688703,0.0,0.51101154,0.0,0.0,0.85957384,0.0,0.0,-0.0,1,0,0,0,0,0
43740711,0.0,-0.0,2.0675,0.0,0.5116003,0.0,0.0,0.85922354,0.0,0.0,-0.0,1,0,0,0,0,0
43840733,0.0,-0.0,2.067765,0.0,0.51148653,0.0,0.0,0.8592913,0.0,0.0,-0.0,1,0,0,0,0,0
43940707,0.0,-0.0,2.0672615,0.0,0.51170284,0.0,0.0,0.8591625,0.0,0.0,-0.0,1,0,0,0,0,0
44040706,0.0,-0.0,2.0671434,0.0,0.51175356,0.0,0.0,0.85913235,0.0,0.0,-0.0,1,0,0,0,0,0
44144707,0.0,-0.0,2.0672145,0.0,0.51172304,0.0,0.0,0.85915047,0.0,0.0,-0.0,1,0,0,0,0,0
44248701,0.0,-0.0,2.0670857,0.0,0.5117783,0.0,0.0,0.85911757,0.0,0.0,-0.0,1,0,0,0,0,0
44349503,0.0,-0.0,2.0670235,0.0,0.51180506,0.0,0.0,0.8591016,0.0,0.0,-0.0,1,0,0,0,0,0
44449500,0.0,-0.0,2.066958,0.0,0.5118332,0.0,0.0,0.85908484,0.0,0.0,-0.0,1,0,0,0,0,0
44553513,0.0,-0.0,2.067186,0.0,0.5117352,0.0,0.0,0.8591432,0.0,0.0,-0.0,1,0,0,0,0,0
44657508,0.0,-0.0,2.0667076,0.0,0.5119407,0.0,0.0,0.85902077,0.0,0.0,-0.0,1,0,0,0,0,0
44758332,0.0,-0.0,2.065802,0.0,0.51232964,0.0,0.0,0.8587889,0.0,0.0,-0.0,1,0,0,0,0,0
44858303,0.0,-0.0,2.066081,0.0,0.51220983,0.0,0.0,0.8588604,0.0,0.0,-0.0,1,0,0,0,0,0
44962332,0.0,-0.0,2.0653515,0.0,0.5125231,0.0,0.0,0.85867345,0.0,0.0,-0.0,1,0,0,0,0,0
45062362,0.0,-0.0,2.0651116,0.0,0.51262605,0.0,0.0,0.858612,0.0,0.0,-0.0,1,0,0,0,0,0
45162310,0.0,-0.0,2.0653172,0.0,0.51253784,0.0,0.0,0.8586647,0.0,0.0,-0.0,1,0,0,0,0,0
45266317,0.0,-0.0,2.0703702,0.0,0.51036674,0.0,0.0,0.85995686,0.0,0.0,-0.0,1,0,0,0,0,0
45367110,0.0,-0.0,2.0697165,0.0,0.51064783,0.0,0.0,0.85978997,0.0,0.0,-0.0,1,0,0,0,0,0
45467152,0.0,-0.0,2.070488,0.0,0.51031613,0.0,0.0,0.8599869,0.0,0.0,-0.0,1,0,0,0,0,0
45571145,0.0,-0.0,2.0722425,0.0,0.5095615,0.0,0.0,0.86043423,0.0,0.0,-0.0,1,0,0,0,0,0
45671115,0.0,-0.0,2.074252,0.0,0.50869673,0.0,0.0,0.86094576,0.0,0.0,-0.0,1,0,0,0,0,0
45771103,0.0,-0.0,2.0803356,0.0,0.5060755,0.0,0.0,0.86248916,0.0,0.0,-0.0,1,0,0,0,0,0
45875906,0.0,-0.0,2.0800304,0.0,0.5062071,0.0,0.0,0.862412,0.0,0.0,-0.0,1,0,0,0,0,0
45975900,0.0,-0.0,2.073583,0.0,0.50898474,0.0,0.0,0.86077553,0.0,0.0,-0.0,1,0,0,0,0,0
46075907,0.0,-0.0,2.070722,0.0,0.51021546,0.0,0.0,0.8600466,0.0,0.0,-0.0,1,0,0,0,0,0
46179901,0.0,-0.0,2.0707603,0.0,0.510199,0.0,0.0,0.86005634,0.0,0.0,-0.0,1,0,0,0,0,0
46279904,0.0,-0.0,2.0686321,0.0,0.5111139,0.0,0.0,0.859513,0.0,0.0,-0.0,1,0,0,0,0,0
46383921,0.0,-0.0,2.06782,0.0,0.51146287,0.0,0.0,0.8593054,0.0,0.0,-0.0,1,0,0,0,0,0
46483922,0.0,-0.0,2.0678024,0.0,0.51147044,0.0,0.0,0.8593009,0.0,0.0,-0.0,1,0,0,0,0,0
46585551,0.0,-0.0,2.0780978,0.0,0.50704026,0.0,0.0,0.8619224,0.0,0.0,-0.0,1,0,0,0,0,0
46684832,0.0,-0.0,2.0712023,0.0,0.51000893,0.0,0.0,0.8601691,0.0,0.0,-0.0,1,0,0,0,0,0
46788824,0.0,-0.0,2.0778682,0.0,0.5071392,0.0,0.0,0.86186415,0.0,0.0,-0.0,1,0,0,0,0,0
46892740,0.0,-0.0,2.0740163,0.0,0.5087982,0.0,0.0,0.8608858,0.0,0.0,-0.0,1,0,0,0,0,0
46992734,0.0,-0.0,2.076364,0.0,0.5077872,0.0,0.0,0.8614825,0.0,0.0,-0.0,1,0,0,0,0,0
47093518,0.0,-0.0,2.075912,0.0,0.50798196,0.0,0.0,0.8613677,0.0,0.0,-0.0,1,0,0,0,0,0
47197658,0.0,-0.0,2.075705,0.0,0.50807106,0.0,0.0,0.8613152,0.0,0.0,-0.0,1,0,0,0,0,0
47297510,0.0,-0.0,2.0773044,0.0,0.50738215,0.0,0.0,0.86172116,0.0,0.0,-0.0,1,0,0,0,0,0
47401510,0.0,-0.0,2.0723262,0.0,0.5095255,0.0,0.0,0.8604556,0.0,0.0,-0.0,1,0,0,0,0,0
47501500,0.0,-0.0,2.0674324,0.0,0.5116294,0.0,0.0,0.85920626,0.0,0.0,-0.0,1,0,0,0,0,0
47602300,0.0,-0.0,2.0655508,0.0,0.5124375,0.0,0.0,0.85872453,0.0,0.0,-0.0,1,0,0,0,0,0
47706298,0.0,-0.0,2.0636644,0.0,0.51324725,0.0,0.0,0.85824084,0.0,0.0,-0.0,1,0,0,0,0,0
47806303,0.0,-0.0,2.0590868,0.0,0.5152102,0.0,0.0,0.85706383,0.0,0.0,-0.0,1,0,0,0,0,0
47906358,0.0,-0.0,2.0482566,0.0,0.51984376,0.0,0.0,0.85426134,0.0,0.0,-0.0,1,0,0,0,0,0
48010300,0.0,-0.0,2.0472069,0.0,0.52029204,0.0,0.0,0.8539884,0.0,0.0,-0.0,1,0,0,0,0,0
48111103,0.0,-0.0,2.0324225,0.0,0.5265906,0.0,0.0,0.85011905,0.0,0.0,-0.0,1,0,0,0,0,0
48211904,0.0,-0.0,2.0195732,0.0,0.53204143,0.0,0.0,0.8467183,0.0,0.0,-0.0,1,0,0,0,0,0
48311112,0.0,-0.0,2.0139666,0.0,0.534413,0.0,0.0,0.84522355,0.0,0.0,-0.0,1,0,0,0,0,0
48415114,0.0,-0.0,2.003376,0.0,0.5388811,0.0,0.0,0.84238183,0.0,0.0,-0.0,1,0,0,0,0,0
48515142,0.0,-0.0,1.9974014,0.0,0.5413952,0.0,0.0,0.8407682,0.0,0.0,-0.0,1,0,0,0,0,0
48619160,0.0,-0.0,1.985735,0.0,0.5462903,0.0,0.0,0.83759594,0.0,0.0,-0.0,1,0,0,0,0,0
48719918,0.0,-0.0,1.9779245,0.0,0.54955715,0.0,0.0,0.83545613,0.0,0.0,-0.0,1,0,0,0,0,0
48819916,0.0,-0.0,1.9702452,0.0,0.55276096,0.0,0.0,0.83333987,0.0,0.0,-0.0,1,0,0,0,0,0
48923927,0.0,-0.0,1.959147,0.0,0.55737674,0.0,0.0,0.83025974,0.0,0.0,-0.0,1,0,0,0,0,0
49023914,0.0,-0.0,1.9537129,0.0,0.55963045,0.0,0.0,0.82874227,0.0,0.0,-0.0,1,0,0,0,0,0
49127900,0.0,-0.0,1.9399369,0.0,0.56532556,0.0,0.0,0.82486784,0.0,0.0,-0.0,1,0,0,0,0,0
49228727,0.0,-0.0,1.9299434,0.0,0.5694401,0.0,0.0,0.82203287,0.0,0.0,-0.0,1,0,0,0,0,0
49328706,0.0,-0.0,1.9211677,0.0,0.5730416,0.0,0.0,0.8195263,0.0,0.0,-0.0,1,0,0,0,0,0
49428716,0.0,-0.0,1.9100293,0.0,0.5775968,0.0,0.0,0.81632215,0.0,0.0,-0.0,1,0,0,0,0,0
49532753,0.0,-0.0,1.9040143,0.0,0.5800493,0.0,0.0,0.8145814,0.0,0.0,-0.0,1,0,0,0,0,0
49632706,0.0,-0.0,1.8971723,0.0,0.5828325,0.0,0.0,0.8125923,0.0,0.0,-0.0,1,0,0,0,0,0
49736713,0.0,-0.0,1.8850479,0.0,0.58774793,0.0,0.0,0.8090441,0.0,0.0,-0.0,1,0,0,0,0,0
49841524,0.0,-0.0,1.8738256,0.0,0.5922783,0.0,0.0,0.80573344,0.0,0.0,-0.0,1,0,0,0,0,0
49941501,0.0,-0.0,1.8672212,0.0,0.5949358,0.0,0.0,0.8037733,0.0,0.0,-0.0,1,0,0,0,0,0
50042300,0.0,-0.0,1.8535912,0.0,0.6003996,0.0,0.0,0.7997001,0.0,0.0,-0.0,1,0,0,0,0,0
50145535,0.0,-0.0,1.8420787,0.0,0.6049929,0.0,0.0,0.79623085,0.0,0.0,-0.0,1,0,0,0,0,0
50245533,0.0,-0.0,1.8332938,0.0,0.6084845,0.0,0.0,0.79356575,0.0,0.0,-0.0,1,0,0,0,0,0
50346302,0.0,-0.0,1.8284588,0.0,0.61040115,0.0,0.0,0.79209244,0.0,0.0,-0.0,1,0,0,0,0,0
50450311,0.0,-0.0,1.8178122,0.0,0.614609,0.0,0.0,0.7888319,0.0,0.0,-0.0,1,0,0,0,0,0
50551121,0.0,-0.0,1.8021208,0.0,0.620779,0.0,0.0,0.7839856,0.0,0.0,-0.0,1,0,0,0,0,0
50650305,0.0,-0.0,1.7966647,0.0,0.6229154,0.0,0.0,0.7822892,0.0,0.0,-0.0,1,0,0,0,0,0
50754323,0.0,-0.0,1.7888285,0.0,0.6259757,0.0,0.0,0.77984256,0.0,0.0,-0.0,1,0,0,0,0,0
50855281,0.0,-0.0,1.7859886,0.0,0.6270824,0.0,0.0,0.7789529,0.0,0.0,-0.0,1,0,0,0,0,0
50955116,0.0,-0.0,1.7792634,0.0,0.62969816,0.0,0.0,0.77683985,0.0,0.0,-0.0,1,0,0,0,0,0
51059121,0.0,-0.0,1.7663696,0.0,0.63469326,0.0,0.0,0.77276415,0.0,0.0,-0.0,1,0,0,0,0,0
51163112,0.0,-0.0,1.7620236,0.0,0.636371,0.0,0.0,0.77138317,0.0,0.0,-0.0,1,0,0,0,0,0
51263267,0.0,-0.0,1.7405673,0.0,0.6446097,0.0,0.0,0.7645118,0.0,0.0,-0.0,1,0,0,0,0,0
51363962,0.0,-0.0,1.7252944,0.0,0.650429,0.0,0.0,0.759567,0.0,0.0,-0.0,1,0,0,0,0,0
51467928,0.0,-0.0,1.7142775,0.0,0.6546032,0.0,0.0,0.7559727,0.0,0.0,-0.0,1,0,0,0,0,0
51567907,0.0,-0.0,1.6978407,0.0,0.6607939,0.0,0.0,0.75056744,0.0,0.0,-0.0,1,0,0,0,0,0
51671912,0.0,-0.0,1.6818072,0.0,0.6667897,0.0,0.0,0.74524593,0.0,0.0,-0.0,1,0,0,0,0,0
51771906,0.0,-0.0,1.6700016,0.0,0.6711771,0.0,0.0,0.74129707,0.0,0.0,-0.0,1,0,0,0,0,0
51871902,0.0,-0.0,1.6642182,0.0,0.6733179,0.0,0.0,0.73935306,0.0,0.0,-0.0,1,0,0,0,0,0
51975902,0.0,-0.0,1.6538738,0.0,0.67713296,0.0,0.0,0.7358607,0.0,0.0,-0.0,1,0,0,0,0,0
52076701,0.0,-0.0,1.6395551,0.0,0.68238384,0.0,0.0,0.73099405,0.0,0.0,-0.0,1,0,0,0,0,0
52176716,0.0,-0.0,1.6287401,0.0,0.6863267,0.0,0.0,0.7272934,0.0,0.0,-0.0,1,0,0,0,0,0
52280718,0.0,-0.0,1.6091912,0.0,0.6934027,0.0,0.0,0.72055024,0.0,0.0,-0.0,1,0,0,0,0,0
52380708,0.0,-0.0,1.6029297,0.0,0.6956551,0.0,0.0,0.7183759,0.0,0.0,-0.0,1,0,0,0,0,0
52480723,0.0,-0.0,1.6000043,0.0,0.69670516,0.0,0.0,0.71735764,0.0,0.0,-0.0,1,0,0,0,0,0
52585520,0.0,-0.0,1.58951,0.0,0.70045966,0.0,0.0,0.713692,0.0,0.0,-0.0,1,0,0,0,0,0
52685676,0.0,-0.0,1.5834572,0.0,0.70261633,0.0,0.0,0.7115689,0.0,0.0,-0.0,1,0,0,0,0,0
52785553,0.0,-0.0,1.5786933,0.0,0.7043093,0.0,0.0,0.7098932,0.0,0.0,-0.0,1,0,0,0,0,0
52890334,0.0,-0.0,1.5793759,0.0,0.70406693,0.0,0.0,0.71013355,0.0,0.0,-0.0,1,0,0,0,0,0
52990317,0.0,-0.0,1.576235,0.0,0.7051813,0.0,0.0,0.70902705,0.0,0.0,-0.0,1,0,0,0,0,0
53090305,0.0,-0.0,1.5805256,0.0,0.7036586,0.0,0.0,0.7105382,0.0,0.0,-0.0,1,0,0,0,0,0
53194327,0.0,-0.0,1.5655758,0.0,0.7089501,0.0,0.0,0.70525867,0.0,0.0,-0.0,1,0,0,0,0,0
53294329,0.0,-0.0,1.5612091,0.0,0.7104882,0.0,0.0,0.70370907,0.0,0.0,-0.0,1,0,0,0,0,0
53395103,0.0,-0.0,1.5570465,0.0,0.7119513,0.0,0.0,0.70222884,0.0,0.0,-0.0,1,0,0,0,0,0
53498329,0.0,-0.0,1.5484203,0.0,0.71497345,0.0,0.0,0.6991516,0.0,0.0,-0.0,1,0,0,0,0,0
53598356,0.0,-0.0,1.5409554,0.0,0.717578,0.0,0.0,0.6964781,0.0,0.0,-0.0,1,0,0,0,0,0
53699899,0.0,-0.0,1.5373331,0.0,0.71883833,0.0,0.0,0.6951773,0.0,0.0,-0.0,1,0,0,0,0,0
53803134,0.0,-0.0,1.534966,0.0,0.7196606,0.0,0.0,0.69432604,0.0,0.0,-0.0,1,0,0,0,0,0
53903927,0.0,-0.0,1.5231498,0.0,0.7237501,0.0,0.0,0.69006217,0.0,0.0,-0.0,1,0,0,0,0,0
54003104,0.0,-0.0,1.5175629,0.0,0.725675,0.0,0.0,0.6880377,0.0,0.0,-0.0,1,0,0,0,0,0
54107909,0.0,-0.0,1.513375,0.0,0.727114,0.0,0.0,0.68651664,0.0,0.0,-0.0,1,0,0,0,0,0
54207908,0.0,-0.0,1.5033516,0.0,0.7305455,0.0,0.0,0.68286395,0.0,0.0,-0.0,1,0,0,0,0,0
54308065,0.0,-0.0,1.4912394,0.0,0.7346676,0.0,0.0,0.6784272,0.0,0.0,-0.0,1,0,0,0,0,0
54411955,0.0,-0.0,1.485493,0.0,0.73661387,0.0,0.0,0.6763135,0.0,0.0,-0.0,1,0,0,0,0,0
54511906,0.0,-0.0,1.4751556,0.0,0.7400996,0.0,0.0,0.6724972,0.0,0.0,-0.0,1,0,0,0,0,0
54615906,0.0,-0.0,1.4667709,0.0,0.7429125,0.0,0.0,0.66938853,0.0,0.0,-0.0,1,0,0,0,0,0
54719912,0.0,-0.0,1.4595745,0.0,0.74531627,0.0,0.0,0.6667111,0.0,0.0,-0.0,1,0,0,0,0,0
54820714,0.0,-0.0,1.445596,0.0,0.74995786,0.0,0.0,0.6614856,0.0,0.0,-0.0,1,0,0,0,0,0
54920699,0.0,-0.0,1.4376285,0.0,0.752587,0.0,0.0,0.65849274,0.0,0.0,-0.0,1,0,0,0,0,0
55025706,0.0,-0.0,1.4222891,0.0,0.7576153,0.0,0.0,0.6527013,0.0,0.0,-0.0,1,0,0,0,0,0
55125553,0.0,-0.0,1.4132295,0.0,0.76056415,0.0,0.0,0.6492628,0.0,0.0,-0.0,1,0,0,0,0,0
55225541,0.0,-0.0,1.404102,0.0,0.7635193,0.0,0.0,0.64578503,0.0,0.0,-0.0,1,0,0,0,0,0
55329678,0.0,-0.0,1.3943613,0.0,0.7666554,0.0,0.0,0.64205873,0.0,0.0,-0.0,1,0,0,0,0,0
55433499,0.0,-0.0,1.3917698,0.0,0.76748675,0.0,0.0,0.6410648,0.0,0.0,-0.0,1,0,0,0,0,0
55533548,0.0,-0.0,1.3780644,0.0,0.77186173,0.0,0.0,0.63579047,0.0,0.0,-0.0,1,0,0,0,0,0
55634335,0.0,-0.0,1.3766778,0.0,0.7723023,0.0,0.0,0.63525516,0.0,0.0,-0.0,1,0,0,0,0,0
55737500,0.0,-0.0,1.3650132,0.0,0.7759942,0.0,0.0,0.6307401,0.0,0.0,-0.0,1,0,0,0,0,0
55838313,0.0,-0.0,1.3519311,0.0,0.7801032,0.0,0.0,0.6256508,0.0,0.0,-0.0,1,0,0,0,0,0
55942306,0.0,-0.0,1.3401363,0.0,0.7837793,0.0,0.0,0.6210394,0.0,0.0,-0.0,1,0,0,0,0,0
56042302,0.0,-0.0,1.335723,0.0,0.78514785,0.0,0.0,0.61930835,0.0,0.0,-0.0,1,0,0,0,0,0
56142324,0.0,-0.0,1.3242468,0.0,0.78868854,0.0,0.0,0.61479294,0.0,0.0,-0.0,1,0,0,0,0,0
56246338,0.0,-0.0,1.316095,0.0,0.7911878,0.0,0.0,0.6115732,0.0,0.0,-0.0,1,0,0,0,0,0
56346369,0.0,-0.0,1.3112717,0.0,0.7926604,0.0,0.0,0.60966337,0.0,0.0,-0.0,1,0,0,0,0,0
56447272,0.0,-0.0,1.313262,0.0,0.79205334,0.0,0.0,0.6104519,0.0,0.0,-0.0,1,0,0,0,0,0
56547132,0.0,-0.0,1.3096334,0.0,0.7931596,0.0,0.0,0.60901386,0.0,0.0,-0.0,1,0,0,0,0,0
56651115,0.0,-0.0,1.3116442,0.0,0.79254687,0.0,0.0,0.609811,0.0,0.0,-0.0,1,0,0,0,0,0
56751955,0.0,-0.0,1.305685,0.0,0.79436034,0.0,0.0,0.60744685,0.0,0.0,-0.0,1,0,0,0,0,0
56855939,0.0,-0.0,1.3068142,0.0,0.79401726,0.0,0.0,0.6078952,0.0,0.0,-0.0,1,0,0,0,0,0
56955908,0.0,-0.0,1.3108698,0.0,0.79278296,0.0,0.0,0.6095041,0.0,0.0,-0.0,1,0,0,0,0,0
57055913,0.0,-0.0,1.3139439,0.0,0.7918452,0.0,0.0,0.6107219,0.0,0.0,-0.0,1,0,0,0,0,0
57155900,0.0,-0.0,1.3034716,0.0,0.79503214,0.0,0.0,0.6065673,0.0,0.0,-0.0,1,0,0,0,0,0
57259904,0.0,-0.0,1.3010798,0.0,0.79575694,0.0,0.0,0.6056161,0.0,0.0,-0.0,1,0,0,0,0,0
57360719,0.0,-0.0,1.3045607,0.0,0.7947017,0.0,0.0,0.6070002,0.0,0.0,-0.0,1,0,0,0,0,0
57460724,0.0,-0.0,1.2967864,0.0,0.7970552,0.0,0.0,0.6039065,0.0,0.0,-0.0,1,0,0,0,0,0
57564706,0.0,-0.0,1.3017509,0.0,0.7955537,0.0,0.0,0.6058831,0.0,0.0,-0.0,1,0,0,0,0,0
57665665,0.0,-0.0,1.3048766,0.0,0.79460585,0.0,0.0,0.6071257,0.0,0.0,-0.0,1,0,0,0,0,0
57768710,0.0,-0.0,1.3087426,0.0,0.79343075,0.0,0.0,0.6086606,0.0,0.0,-0.0,1,0,0,0,0,0
57868748,0.0,-0.0,1.318011,0.0,0.79060155,0.0,0.0,0.6123309,0.0,0.0,-0.0,1,0,0,0,0,0
57968891,0.0,-0.0,1.3184574,0.0,0.7904649,0.0,0.0,0.61250734,0.0,0.0,-0.0,1,0,0,0,0,0
58073499,0.0,-0.0,1.3192213,0.0,0.7902309,0.0,0.0,0.6128092,0.0,0.0,-0.0,1,0,0,0,0,0
58174305,0.0,-0.0,1.3190534,0.0,0.7902823,0.0,0.0,0.6127429,0.0,0.0,-0.0,1,0,0,0,0,0
58273521,0.0,-0.0,1.3139892,0.0,0.7918313,0.0,0.0,0.6107398,0.0,0.0,-0.0,1,0,0,0,0,0
58373516,0.0,-0.0,1.3153161,0.0,0.79142594,0.0,0.0,0.61126506,0.0,0.0,-0.0,1,0,0,0,0,0
58477510,0.0,-0.0,1.3135364,0.0,0.79196954,0.0,0.0,0.61056054,0.0,0.0,-0.0,1,0,0,0,0,0
58581514,0.0,-0.0,1.3193187,0.0,0.79020107,0.0,0.0,0.6128477,0.0,0.0,-0.0,1,0,0,0,0,0
58678301,0.0,-0.0,1.3226289,0.0,0.78918564,0.0,0.0,0.6141547,0.0,0.0,-0.0,1,0,0,0,0,0
58782296,0.0,-0.0,1.3259699,0.0,0.7881586,0.0,0.0,0.6154722,0.0,0.0,-0.0,1,0,0,0,0,0
58882303,0.0,-0.0,1.3267195,0.0,0.78792787,0.0,0.0,0.6157676,0.0,0.0,-0.0,1,0,0,0,0,0
58986302,0.0,-0.0,1.3362,0.0,0.78500015,0.0,0.0,0.61949563,0.0,0.0,-0.0,1,0,0,0,0,0
59086296,0.0,-0.0,1.333599,0.0,0.7858051,0.0,0.0,0.6184742,0.0,0.0,-0.0,1,0,0,0,0,0
59187899,0.0,-0.0,1.3245528,0.0,0.78859454,0.0,0.0,0.6149136,0.0,0.0,-0.0,1,0,0,0,0,0
59291120,0.0,-0.0,1.3158151,0.0,0.7912734,0.0,0.0,0.6114625,0.0,0.0,-0.0,1,0,0,0,0,0
59391111,0.0,-0.0,1.3117585,0.0,0.792512,0.0,0.0,0.6098563,0.0,0.0,-0.0,1,0,0,0,0,0
59491906,0.0,-0.0,1.3101213,0.0,0.79301095,0.0,0.0,0.60920733,0.0,0.0,-0.0,1,0,0,0,0,0
59595946,0.0,-0.0,1.2965722,0.0,0.79711986,0.0,0.0,0.6038211,0.0,0.0,-0.0,1,0,0,0,0,0
59695900,0.0,-0.0,1.2909713,0.0,0.7988077,0.0,0.0,0.60158646,0.0,0.0,-0.0,1,0,0,0,0,0
59795904,0.0,-0.0,1.2852821,0.0,0.8005157,0.0,0.0,0.59931177,0.0,0.0,-0.0,1,0,0,0,0,0
59899907,0.0,-0.0,1.266803,0.0,0.8060189,0.0,0.0,0.59188986,0.0,0.0,-0.0,1,0,0,0,0,0
59999907,0.0,-0.0,1.2629217,0.0,0.807166,0.0,0.0,0.5903245,0.0,0.0,-0.0,1,0,0,0,0,0
60103924,0.0,-0.0,1.2540948,0.0,0.80976343,0.0,0.0,0.5867564,0.0,0.0,-0.0,1,0,0,0,0,0
60207920,0.0,-0.0,1.2355392,0.0,0.8151724,0.0,0.0,0.57921845,0.0,0.0,-0.0,1,0,0,0,0,0
60312700,0.0,-0.0,1.2298012,0.0,0.8168308,0.0,0.0,0.5768773,0.0,0.0,-0.0,1,0,0,0,0,0
60417506,0.0,-0.0,1.2176763,0.0,0.8203131,0.0,0.0,0.57191473,0.0,0.0,-0.0,1,0,0,0,0,0
60516890,0.0,-0.0,1.2170035,0.0,0.82050544,0.0,0.0,0.57163876,0.0,0.0,-0.0,1,0,0,0,0,0
60620880,0.0,-0.0,1.2028621,0.0,0.8245267,0.0,0.0,0.565823,0.0,0.0,-0.0,1,0,0,0,0,0
60720706,0.0,-0.0,1.1989123,0.0,0.8256426,0.0,0.0,0.5641935,0.0,0.0,-0.0,1,0,0,0,0,0
60821527,0.0,-0.0,1.2060641,0.0,0.8236198,0.0,0.0,0.5671423,0.0,0.0,-0.0,1,0,0,0,0,0
60925667,0.0,-0.0,1.1964977,0.0,0.8263231,0.0,0.0,0.5631963,0.0,0.0,-0.0,1,0,0,0,0,0
61025540,0.0,-0.0,1.2017609,0.0,0.82483816,0.0,0.0,0.5653689,0.0,0.0,-0.0,1,0,0,0,0,0
61129508,0.0,-0.0,1.2023791,0.0,0.82466334,0.0,0.0,0.5656239,0.0,0.0,-0.0,1,0,0,0,0,0
61233508,0.0,-0.0,1.2024844,0.0,0.8246336,0.0,0.0,0.5656673,0.0,0.0,-0.0,1,0,0,0,0,0
61338354,0.0,-0.0,1.2016358,0.0,0.8248735,0.0,0.0,0.56531733,0.0,0.0,-0.0,1,0,0,0,0,0
61442381,0.0,-0.0,1.1958275,0.0,0.8265118,0.0,0.0,0.5629194,0.0,0.0,-0.0,1,0,0,0,0,0
61542319,0.0,-0.0,1.1921834,0.0,0.8275361,0.0,0.0,0.5614125,0.0,0.0,-0.0,1,0,0,0,0,0
61646318,0.0,-0.0,1.1955261,0.0,0.8265966,0.0,0.0,0.56279486,0.0,0.0,-0.0,1,0,0,0,0,0
61746350,0.0,-0.0,1.1971431,0.0,0.82614136,0.0,0.0,0.5634629,0.0,0.0,-0.0,1,0,0,0,0,0
61847141,0.0,-0.0,1.1905452,0.0,0.8279957,0.0,0.0,0.5607345,0.0,0.0,-0.0,1,0,0,0,0,0
61951136,0.0,-0.0,1.1888244,0.0,0.8284778,0.0,0.0,0.5600219,0.0,0.0,-0.0,1,0,0,0,0,0
62051115,0.0,-0.0,1.1767265,0.0,0.83185023,0.0,0.0,0.55500025,0.0,0.0,-0.0,1,0,0,0,0,0
62151913,0.0,-0.0,1.16975,0.0,0.83378106,0.0,0.0,0.5520952,0.0,0.0,-0.0,1,0,0,0,0,0
62255124,0.0,-0.0,1.1705561,0.0,0.8335585,0.0,0.0,0.55243117,0.0,0.0,-0.0,1,0,0,0,0,0
62355900,0.0,-0.0,1.1624279,0.0,0.8357968,0.0,0.0,0.54903895,0.0,0.0,-0.0,1,0,0,0,0,0
62455902,0.0,-0.0,1.1531101,0.0,0.8383456,0.0,0.0,0.54513913,0.0,0.0,-0.0,1,0,0,0,0,0
62559904,0.0,-0.0,1.1541415,0.0,0.8380644,0.0,0.0,0.5455714,0.0,0.0,-0.0,1,0,0,0,0,0
62660703,0.0,-0.0,1.1584198,0.0,0.8368954,0.0,0.0,0.5473629,0.0,0.0,-0.0,1,0,0,0,0,0
62763910,0.0,-0.0,1.1511816,0.0,0.8388708,0.0,0.0,0.5443305,0.0,0.0,-0.0,1,0,0,0,0,0
62867899,0.0,-0.0,1.1541,0.0,0.8380757,0.0,0.0,0.545554,0.0,0.0,-0.0,1,0,0,0,0,0
62968705,0.0,-0.0,1.1515427,0.0,0.8387726,0.0,0.0,0.54448193,0.0,0.0,-0.0,1,0,0,0,0,0
63068705,0.0,-0.0,1.1485326,0.0,0.839591,0.0,0.0,0.5432189,0.0,0.0,-0.0,1,0,0,0,0,0
63172715,0.0,-0.0,1.1450845,0.0,0.8405264,0.0,0.0,0.54177064,0.0,0.0,-0.0,1,0,0,0,0,0
63272738,0.0,-0.0,1.1364655,0.0,0.8428533,0.0,0.0,0.5381434,0.0,0.0,-0.0,1,0,0,0,0,0
63372713,0.0,-0.0,1.1318661,0.0,0.8440887,0.0,0.0,0.5362036,0.0,0.0,-0.0,1,0,0,0,0,0
63476750,0.0,-0.0,1.1284692,0.0,0.8449981,0.0,0.0,0.53476924,0.0,0.0,-0.0,1,0,0,0,0,0
63577564,0.0,-0.0,1.1287104,0.0,0.8449337,0.0,0.0,0.5348711,0.0,0.0,-0.0,1,0,0,0,0,0
63677508,0.0,-0.0,1.1242335,0.0,0.8461289,0.0,0.0,0.5329784,0.0,0.0,-0.0,1,0,0,0,0,0
63781542,0.0,-0.0,1.1201451,0.0,0.8472166,0.0,0.0,0.5312477,0.0,0.0,-0.0,1,0,0,0,0,0
63885541,0.0,-0.0,1.1146814,0.0,0.8486647,0.0,0.0,0.5289312,0.0,0.0,-0.0,1,0,0,0,0,0
63985638,0.0,-0.0,1.111261,0.0,0.84956807,0.0,0.0,0.52747905,0.0,0.0,-0.0,1,0,0,0,0,0
64086302,0.0,-0.0,1.1054089,0.0,0.85110784,0.0,0.0,0.5249909,0.0,0.0,-0.0,1,0,0,0,0,0
64190302,0.0,-0.0,1.098579,0.0,0.8528957,0.0,0.0,0.5220814,0.0,0.0,-0.0,1,0,0,0,0,0
64290320,0.0,-0.0,1.0967264,0.0,0.8533789,0.0,0.0,0.52129114,0.0,0.0,-0.0,1,0,0,0,0,0
64394325,0.0,-0.0,1.1021949,0.0,0.8519504,0.0,0.0,0.5236225,0.0,0.0,-0.0,1,0,0,0,0,0
64494310,0.0,-0.0,1.0982747,0.0,0.85297513,0.0,0.0,0.5219516,0.0,0.0,-0.0,1,0,0,0,0,0
64595909,0.0,-0.0,1.1041911,0.0,0.8514274,0.0,0.0,0.5244726,0.0,0.0,-0.0,1,0,0,0,0,0
64695906,0.0,-0.0,1.116317,0.0,0.84823185,0.0,0.0,0.5296251,0.0,0.0,-0.0,1,0,0,0,0,0
64799902,0.0,-0.0,1.120335,0.0,0.8471661,0.0,0.0,0.5313281,0.0,0.0,-0.0,1,0,0,0,0,0
64899902,0.0,-0.0,1.1175314,0.0,0.8479101,0.0,0.0,0.53014004,0.0,0.0,-0.0,1,0,0,0,0,0
65003122,0.0,-0.0,1.1303054,0.0,0.84450686,0.0,0.0,0.53554475,0.0,0.0,-0.0,1,0,0,0,0,0
65104711,0.0,-0.0,1.130846,0.0,0.844362,0.0,0.0,0.53577304,0.0,0.0,-0.0,1,0,0,0,0,0
65203938,0.0,-0.0,1.1266336,0.0,0.8454886,0.0,0.0,0.5339935,0.0,0.0,-0.0,1,0,0,0,0,0
65303932,0.0,-0.0,1.1247994,0.0,0.845978,0.0,0.0,0.5332178,0.0,0.0,-0.0,1,0,0,0,0,0
65407917,0.0,-0.0,1.1284592,0.0,0.84500086,0.0,0.0,0.534765,0.0,0.0,-0.0,1,0,0,0,0,0
65507900,0.0,-0.0,1.125205,0.0,0.84586984,0.0,0.0,0.5333894,0.0,0.0,-0.0,1,0,0,0,0,0
65611903,0.0,-0.0,1.1168745,0.0,0.84808415,0.0,0.0,0.5298615,0.0,0.0,-0.0,1,0,0,0,0,0
65712710,0.0,-0.0,1.1164727,0.0,0.8481906,0.0,0.0,0.5296911,0.0,0.0,-0.0,1,0,0,0,0,0
65812702,0.0,-0.0,1.1122907,0.0,0.84929633,0.0,0.0,0.52791643,0.0,0.0,-0.0,1,0,0,0,0,0
65916722,0.0,-0.0,1.1091826,0.0,0.8501158,0.0,0.0,0.5265959,0.0,0.0,-0.0,1,0,0,0,0,0
66016869,0.0,-0.0,1.1054693,0.0,0.851092,0.0,0.0,0.52501667,0.0,0.0,-0.0,1,0,0,0,0,0
66116713,0.0,-0.0,1.0987616,0.0,0.852848,0.0,0.0,0.5221592,0.0,0.0,-0.0,1,0,0,0,0,0
66221534,0.0,-0.0,1.0915608,0.0,0.85472244,0.0,0.0,0.5190853,0.0,0.0,-0.0,1,0,0,0,0,0
66321499,0.0,-0.0,1.0894685,0.0,0.855265,0.0,0.0,0.5181908,0.0,0.0,-0.0,1,0,0,0,0,0
66421500,0.0,-0.0,1.0876939,0.0,0.85572445,0.0,0.0,0.51743174,0.0,0.0,-0.0,1,0,0,0,0,0
66525565,0.0,-0.0,1.0797201,0.0,0.85778064,0.0,0.0,0.514016,0.0,0.0,-0.0,1,0,0,0,0,0
66625544,0.0,-0.0,1.0786785,0.0,0.8580482,0.0,0.0,0.5135691,0.0,0.0,-0.0,1,0,0,0,0,0
66729521,0.0,-0.0,1.0696577,0.0,0.86035585,0.0,0.0,0.5096938,0.0,0.0,-0.0,1,0,0,0,0,0
66830311,0.0,-0.0,1.0607259,0.0,0.8626235,0.0,0.0,0.5058465,0.0,0.0,-0.0,1,0,0,0,0,0
66930333,0.0,-0.0,1.0613745,0.0,0.8624594,0.0,0.0,0.5061262,0.0,0.0,-0.0,1,0,0,0,0,0
67030319,0.0,-0.0,1.054326,0.0,0.8642378,0.0,0.0,0.5030835,0.0,0.0,-0.0,1,0,0,0,0,0
67134332,0.0,-0.0,1.0452299,0.0,0.8665169,0.0,0.0,0.49914774,0.0,0.0,-0.0,1,0,0,0,0,0
67234317,0.0,-0.0,1.0456039,0.0,0.86642355,0.0,0.0,0.49930975,0.0,0.0,-0.0,1,0,0,0,0,0
67335117,0.0,-0.0,1.0404513,0.0,0.8677071,0.0,0.0,0.49707595,0.0,0.0,-0.0,1,0,0,0,0,0
67439129,0.0,-0.0,1.0392444,0.0,0.8680068,0.0,0.0,0.49655226,0.0,0.0,-0.0,1,0,0,0,0,0
67539117,0.0,-0.0,1.0379994,0.0,0.8683158,0.0,0.0,0.4960118,0.0,0.0,-0.0,1,0,0,0,0,0
67639125,0.0,-0.0,1.0357349,0.0,0.8688768,0.0,0.0,0.49502835,0.0,0.0,-0.0,1,0,0,0,0,0
67743106,0.0,-0.0,1.0394583,0.0,0.8679537,0.0,0.0,0.49664506,0.0,0.0,-0.0,1,0,0,0,0,0
67843107,0.0,-0.0,1.0372596,0.0,0.8684992,0.0,0.0,0.49569058,0.0,0.0,-0.0,1,0,0,0,0,0
67944703,0.0,-0.0,1.0312451,0.0,0.86998594,0.0,0.0,0.49307656,0.0,0.0,-0.0,1,0,0,0,0,0
68047904,0.0,-0.0,1.0322046,0.0,0.86974925,0.0,0.0,0.49349388,0.0,0.0,-0.0,1,0,0,0,0,0
68147905,0.0,-0.0,1.03052,0.0,0.87016463,0.0,0.0,0.49276108,0.0,0.0,-0.0,1,0,0,0,0,0
68251899,0.0,-0.0,1.0298527,0.0,0.87032896,0.0,0.0,0.49247077,0.0,0.0,-0.0,1,0,0,0,0,0
68355909,0.0,-0.0,1.0360234,0.0,0.86880547,0.0,0.0,0.49515367,0.0,0.0,-0.0,1,0,0,0,0,0
68456705,0.0,-0.0,1.0352013,0.0,0.8690089,0.0,0.0,0.4947965,0.0,0.0,-0.0,1,0,0,0,0,0
68557499,0.0,-0.0,1.0279803,0.0,0.87078965,0.0,0.0,0.49165574,0.0,0.0,-0.0,1,0,0,0,0,0
68660716,0.0,-0.0,1.0331528,0.0,0.86951524,0.0,0.0,0.49390617,0.0,0.0,-0.0,1,0,0,0,0,0
68760724,0.0,-0.0,1.0304244,0.0,0.87018824,0.0,0.0,0.4927195,0.0,0.0,-0.0,1,0,0,0,0,0
68860713,0.0,-0.0,1.0349857,0.0,0.86906224,0.0,0.0,0.49470282,0.0,0.0,-0.0,1,0,0,0,0,0
68964714,0.0,-0.0,1.0277609,0.0,0.8708436,0.0,0.0,0.4915602,0.0,0.0,-0.0,1,0,0,0,0,0
69065656,0.0,-0.0,1.0304744,0.0,0.87017584,0.0,0.0,0.4927413,0.0,0.0,-0.0,1,0,0,0,0,0
69165542,0.0,-0.0,1.0339303,0.0,0.86932313,0.0,0.0,0.49424416,0.0,0.0,-0.0,1,0,0,0,0,0
69269519,0.0,-0.0,1.0314252,0.0,0.8699415,0.0,0.0,0.4931549,0.0,0.0,-0.0,1,0,0,0,0,0
69369503,0.0,-0.0,1.0386543,0.0,0.8681533,0.0,0.0,0.49629614,0.0,0.0,-0.0,1,0,0,0,0,0
69473507,0.0,-0.0,1.0418266,0.0,0.867365,0.0,0.0,0.4976725,0.0,0.0,-0.0,1,0,0,0,0,0
69574314,0.0,-0.0,1.0497415,0.0,0.8653887,0.0,0.0,0.50110114,0.0,0.0,-0.0,1,0,0,0,0,0
69678302,0.0,-0.0,1.0505494,0.0,0.8651862,0.0,0.0,0.50145066,0.0,0.0,-0.0,1,0,0,0,0,0
69778303,0.0,-0.0,1.0512592,0.0,0.86500823,0.0,0.0,0.5017577,0.0,0.0,-0.0,1,0,0,0,0,0
69878303,0.0,-0.0,1.0425954,0.0,0.8671737,0.0,0.0,0.4980059,0.0,0.0,-0.0,1,0,0,0,0,0
69982296,0.0,-0.0,1.0465559,0.0,0.8661858,0.0,0.0,0.49972212,0.0,0.0,-0.0,1,0,0,0,0,0
70083106,0.0,-0.0,1.04799,0.0,0.86582726,0.0,0.0,0.5003431,0.0,0.0,-0.0,1,0,0,0,0,0
70187105,0.0,-0.0,1.0481616,0.0,0.8657843,0.0,0.0,0.5004174,0.0,0.0,-0.0,1,0,0,0,0,0
70287109,0.0,-0.0,1.0480279,0.0,0.8658177,0.0,0.0,0.5003595,0.0,0.0,-0.0,1,0,0,0,0,0
70387108,0.0,-0.0,1.0504683,0.0,0.86520654,0.0,0.0,0.5014156,0.0,0.0,-0.0,1,0,0,0,0,0
70491909,0.0,-0.0,1.0571535,0.0,0.8635257,0.0,0.0,0.5043048,0.0,0.0,-0.0,1,0,0,0,0,0
70591913,0.0,-0.0,1.0578787,0.0,0.8633428,0.0,0.0,0.5046179,0.0,0.0,-0.0,1,0,0,0,0,0
70691899,0.0,-0.0,1.0568991,0.0,0.8635898,0.0,0.0,0.504195,0.0,0.0,-0.0,1,0,0,0,0,0
70795920,0.0,-0.0,1.0566096,0.0,0.8636628,0.0,0.0,0.50407,0.0,0.0,-0.0,1,0,0,0,0,0
70895964,0.0,-0.0,1.0581129,0.0,0.8632837,0.0,0.0,0.504719,0.0,0.0,-0.0,1,0,0,0,0,0
70995914,0.0,-0.0,1.0480337,0.0,0.8658163,0.0,0.0,0.50036204,0.0,0.0,-0.0,1,0,0,0,0,0
71099917,0.0,-0.0,1.0522007,0.0,0.8647719,0.0,0.0,0.50216484,0.0,0.0,-0.0,1,0,0,0,0,0
71200723,0.0,-0.0,1.0473461,0.0,0.86598825,0.0,0.0,0.5000643,0.0,0.0,-0.0,1,0,0,0,0,0
71300702,0.0,-0.0,1.0391991,0.0,0.8680181,0.0,0.0,0.4965326,0.0,0.0,-0.0,1,0,0,0,0,0
71400705,0.0,-0.0,1.0366809,0.0,0.86864257,0.0,0.0,0.4954393,0.0,0.0,-0.0,1,0,0,0,0,0
71505542,0.0,-0.0,1.0286618,0.0,0.8706221,0.0,0.0,0.49195245,0.0,0.0,-0.0,1,0,0,0,0,0
71604716,0.0,-0.0,1.0243208,0.0,0.8716878,0.0,0.0,0.4900616,0.0,0.0,-0.0,1,0,0,0,0,0
71709508,0.0,-0.0,1.0200478,0.0,0.8727329,0.0,0.0,0.4881981,0.0,0.0,-0.0,1,0,0,0,0,0
71809534,0.0,-0.0,1.0151001,0.0,0.8739379,0.0,0.0,0.4860376,0.0,0.0,-0.0,1,0,0,0,0,0
71909505,0.0,-0.0,1.0129966,0.0,0.8744486,0.0,0.0,0.48511815,0.0,0.0,-0.0,1,0,0,0,0,0
72013513,0.0,-0.0,1.0173194,0.0,0.873398,0.0,0.0,0.48700708,0.0,0.0,-0.0,1,0,0,0,0,0
72113505,0.0,-0.0,1.0213108,0.0,0.87242436,0.0,0.0,0.48874915,0.0,0.0,-0.0,1,0,0,0,0,0
72215104,0.0,-0.0,1.0192643,0.0,0.87292403,0.0,0.0,0.48785618,0.0,0.0,-0.0,1,0,0,0,0,0
72314315,0.0,-0.0,1.0242794,0.0,0.87169796,0.0,0.0,0.49004352,0.0,0.0,-0.0,1,0,0,0,0,0
72418315,0.0,-0.0,1.0250021,0.0,0.8715208,0.0,0.0,0.4903585,0.0,0.0,-0.0,1,0,0,0,0,0
72518361,0.0,-0.0,1.026452,0.0,0.8711651,0.0,0.0,0.49099016,0.0,0.0,-0.0,1,0,0,0,0,0
72622359,0.0,-0.0,1.025894,0.0,0.871302,0.0,0.0,0.49074712,0.0,0.0,-0.0,1,0,0,0,0,0
72722316,0.0,-0.0,1.0304972,0.0,0.8701703,0.0,0.0,0.49275118,0.0,0.0,-0.0,1,0,0,0,0,0
72823115,0.0,-0.0,1.0324804,0.0,0.86968124,0.0,0.0,0.49361378,0.0,0.0,-0.0,1,0,0,0,0,0
72927129,0.0,-0.0,1.0358709,0.0,0.86884314,0.0,0.0,0.49508741,0.0,0.0,-0.0,1,0,0,0,0,0
73027110,0.0,-0.0,1.0422063,0.0,0.8672705,0.0,0.0,0.49783716,0.0,0.0,-0.0,1,0,0,0,0,0
73127113,0.0,-0.0,1.0470289,0.0,0.8660675,0.0,0.0,0.49992695,0.0,0.0,-0.0,1,0,0,0,0,0
73231111,0.0,-0.0,1.0494574,0.0,0.86545986,0.0,0.0,0.50097823,0.0,0.0,-0.0,1,0,0,0,0,0
73331929,0.0,-0.0,1.054354,0.0,0.8642308,0.0,0.0,0.5030956,0.0,0.0,-0.0,1,0,0,0,0,0
73431901,0.0,-0.0,1.0575745,0.0,0.86341953,0.0,0.0,0.5044866,0.0,0.0,-0.0,1,0,0,0,0,0
73535899,0.0,-0.0,1.0573746,0.0,0.86346996,0.0,0.0,0.5044003,0.0,0.0,-0.0,1,0,0,0,0,0
73635909,0.0,-0.0,1.0559118,0.0,0.8638386,0.0,0.0,0.5037686,0.0,0.0,-0.0,1,0,0,0,0,0
73739905,0.0,-0.0,1.049315,0.0,0.86549556,0.0,0.0,0.5009166,0.0,0.0,-0.0,1,0,0,0,0,0
73843910,0.0,-0.0,1.0531739,0.0,0.86452746,0.0,0.0,0.5025856,0.0,0.0,-0.0,1,0,0,0,0,0
73945546,0.0,-0.0,1.0521404,0.0,0.8647871,0.0,0.0,0.5021388,0.0,0.0,-0.0,1,0,0,0,0,0
74045534,0.0,-0.0,1.0490689,0.0,0.8655572,0.0,0.0,0.5008101,0.0,0.0,-0.0,1,0,0,0,0,0
74148717,0.0,-0.0,1.0430083,0.0,0.8670708,0.0,0.0,0.49818492,0.0,0.0,-0.0,1,0,0,0,0,0
74252705,0.0,-0.0,1.0390383,0.0,0.868058,0.0,0.0,0.4964628,0.0,0.0,-0.0,1,0,0,0,0,0
74352705,0.0,-0.0,1.0375615,0.0,0.86842436,0.0,0.0,0.49582168,0.0,0.0,-0.0,1,0,0,0,0,0
74456733,0.0,-0.0,1.0311966,0.0,0.86999786,0.0,0.0,0.49305546,0.0,0.0,-0.0,1,0,0,0,0,0
74557505,0.0,-0.0,1.0251397,0.0,0.8714871,0.0,0.0,0.49041843,0.0,0.0,-0.0,1,0,0,0,0,0
74657549,0.0,-0.0,1.0233421,0.0,0.8719275,0.0,0.0,0.489635,0.0,0.0,-0.0,1,0,0,0,0,0
74761541,0.0,-0.0,1.020855,0.0,0.87253577,0.0,0.0,0.48855028,0.0,0.0,-0.0,1,0,0,0,0,0
74861515,0.0,-0.0,1.019939,0.0,0.8727594,0.0,0.0,0.4881506,0.0,0.0,-0.0,1,0,0,0,0,0
74961519,0.0,-0.0,1.017725,0.0,0.87329924,0.0,0.0,0.48718417,0.0,0.0,-0.0,1,0,0,0,0,0
75066347,0.0,-0.0,1.022542,0.0,0.8721233,0.0,0.0,0.48928612,0.0,0.0,-0.0,1,0,0,0,0,0
75166316,0.0,-0.0,1.0263752,0.0,0.87118393,0.0,0.0,0.49095672,0.0,0.0,-0.0,1,0,0,0,0,0
75266316,0.0,-0.0,1.0268947,0.0,0.87105644,0.0,0.0,0.49118298,0.0,0.0,-0.0,1,0,0,0,0,0
75370299,0.0,-0.0,1.0292742,0.0,0.8704714,0.0,0.0,0.492219,0.0,0.0,-0.0,1,0,0,0,0,0
75470300,0.0,-0.0,1.0292666,0.0,0.8704733,0.0,0.0,0.49221566,0.0,0.0,-0.0,1,0,0,0,0,0
75571102,0.0,-0.0,1.0239869,0.0,0.8717696,0.0,0.0,0.48991606,0.0,0.0,-0.0,1,0,0,0,0,0
75671109,0.0,-0.0,1.0208433,0.0,0.87253857,0.0,0.0,0.48854518,0.0,0.0,-0.0,1,0,0,0,0,0
75775108,0.0,-0.0,1.0153799,0.0,0.8738699,0.0,0.0,0.48615986,0.0,0.0,-0.0,1,0,0,0,0,0
75875142,0.0,-0.0,1.0122594,0.0,0.87462735,0.0,0.0,0.4847958,0.0,0.0,-0.0,1,0,0,0,0,0
75979142,0.0,-0.0,1.0109856,0.0,0.874936,0.0,0.0,0.48423868,0.0,0.0,-0.0,1,0,0,0,0,0
76080711,0.0,-0.0,1.0072247,0.0,0.875845,0.0,0.0,0.48259252,0.0,0.0,-0.0,1,0,0,0,0,0
76179906,0.0,-0.0,0.9997279,0.0,0.8776478,0.0,0.0,0.47930613,0.0,0.0,-0.0,1,0,0,0,0,0
76279920,0.0,-0.0,0.9987148,0.0,0.87789047,0.0,0.0,0.4788615,0.0,0.0,-0.0,1,0,0,0,0,0
76383926,0.0,-0.0,1.0009284,0.0,0.8773599,0.0,0.0,0.47983286,0.0,0.0,-0.0,1,0,0,0,0,0
76483930,0.0,-0.0,0.9967123,0.0,0.8783695,0.0,0.0,0.47798228,0.0,0.0,-0.0,1,0,0,0,0,0
76587914,0.0,-0.0,0.9977178,0.0,0.87812907,0.0,0.0,0.4784238,0.0,0.0,-0.0,1,0,0,0,0,0
76688740,0.0,-0.0,0.99948186,0.0,0.87770677,0.0,0.0,0.47919816,0.0,0.0,-0.0,1,0,0,0,0,0
76788711,0.0,-0.0,1.0027579,0.0,0.8769206,0.0,0.0,0.48063523,0.0,0.0,-0.0,1,0,0,0,0,0
76892722,0.0,-0.0,1.0083681,0.0,0.875569,0.0,0.0,0.4830932,0.0,0.0,-0.0,1,0,0,0,0,0
76992705,0.0,-0.0,1.0068289,0.0,0.8759405,0.0,0.0,0.4824192,0.0,0.0,-0.0,1,0,0,0,0,0
77092724,0.0,-0.0,1.0161216,0.0,0.87368953,0.0,0.0,0.4864839,0.0,0.0,-0.0,1,0,0,0,0,0
77196701,0.0,-0.0,1.0261316,0.0,0.8712438,0.0,0.0,0.49085063,0.0,0.0,-0.0,1,0,0,0,0,0
77297504,0.0,-0.0,1.0236403,0.0,0.87185454,0.0,0.0,0.48976496,0.0,0.0,-0.0,1,0,0,0,0,0
77397557,0.0,-0.0,1.0362493,0.0,0.8687495,0.0,0.0,0.4952518,0.0,0.0,-0.0,1,0,0,0,0,0
77501518,0.0,-0.0,1.0431807,0.0,0.8670279,0.0,0.0,0.49825963,0.0,0.0,-0.0,1,0,0,0,0,0
77601505,0.0,-0.0,1.039033,0.0,0.86805934,0.0,0.0,0.4964605,0.0,0.0,-0.0,1,0,0,0,0,0
77702298,0.0,-0.0,1.0372027,0.0,0.8685133,0.0,0.0,0.49566588,0.0,0.0,-0.0,1,0,0,0,0,0
77806299,0.0,-0.0,1.0375323,0.0,0.86843157,0.0,0.0,0.49580902,0.0,0.0,-0.0,1,0,0,0,0,0
77906316,0.0,-0.0,1.0393817,0.0,0.86797273,0.0,0.0,0.49661183,0.0,0.0,-0.0,1,0,0,0,0,0
78006325,0.0,-0.0,1.0441214,0.0,0.86679345,0.0,0.0,0.4986674,0.0,0.0,-0.0,1,0,0,0,0,0
78110327,0.0,-0.0,1.041779,0.0,0.86737686,0.0,0.0,0.49765188,0.0,0.0,-0.0,1,0,0,0,0,0
78210365,0.0,-0.0,1.0439372,0.0,0.86683935,0.0,0.0,0.49858755,0.0,0.0,-0.0,1,0,0,0,0,0
78311330,0.0,-0.0,1.0356824,0.0,0.86888975,0.0,0.0,0.49500555,0.0,0.0,-0.0,1,0,0,0,0,0
78411110,0.0,-0.0,1.0392268,0.0,0.86801124,0.0,0.0,0.4965446,0.0,0.0,-0.0,1,0,0,0,0,0
78515134,0.0,-0.0,1.0386113,0.0,0.86816394,0.0,0.0,0.49627745,0.0,0.0,-0.0,1,0,0,0,0,0
78615909,0.0,-0.0,1.0410485,0.0,0.86755854,0.0,0.0,0.49733505,0.0,0.0,-0.0,1,0,0,0,0,0
78719108,0.0,-0.0,1.0449743,0.0,0.86658067,0.0,0.0,0.499037,0.0,0.0,-0.0,1,0,0,0,0,0
78819112,0.0,-0.0,1.0427005,0.0,0.86714745,0.0,0.0,0.49805146,0.0,0.0,-0.0,1,0,0,0,0,0
78919907,0.0,-0.0,1.0491252,0.0,0.86554307,0.0,0.0,0.50083447,0.0,0.0,-0.0,1,0,0,0,0,0
79023918,0.0,-0.0,1.0473756,0.0,0.86598086,0.0,0.0,0.50007707,0.0,0.0,-0.0,1,0,0,0,0,0
79123920,0.0,-0.0,1.0590625,0.0,0.86304396,0.0,0.0,0.50512886,0.0,0.0,-0.0,1,0,0,0,0,0
79227914,0.0,-0.0,1.0621803,0.0,0.8622554,0.0,0.0,0.5064736,0.0,0.0,-0.0,1,0,0,0,0,0
79327908,0.0,-0.0,1.065241,0.0,0.8614794,0.0,0.0,0.5077926,0.0,0.0,-0.0,1,0,0,0,0,0
79428700,0.0,-0.0,1.0716032,0.0,0.85985965,0.0,0.0,0.5105305,0.0,0.0,-0.0,1,0,0,0,0,0
79528713,0.0,-0.0,1.064794,0.0,0.8615928,0.0,0.0,0.5076,0.0,0.0,-0.0,1,0,0,0,0,0
79632702,0.0,-0.0,1.0681427,0.0,0.8607417,0.0,0.0,0.5090419,0.0,0.0,-0.0,1,0,0,0,0,0
79732717,0.0,-0.0,1.0699421,0.0,0.8602834,0.0,0.0,0.50981617,0.0,0.0,-0.0,1,0,0,0,0,0
79836712,0.0,-0.0,1.0626546,0.0,0.86213535,0.0,0.0,0.5066781,0.0,0.0,-0.0,1,0,0,0,0,0
79940857,0.0,-0.0,1.0565902,0.0,0.8636677,0.0,0.0,0.5040616,0.0,0.0,-0.0,1,0,0,0,0,0
80041687,0.0,-0.0,1.0571783,0.0,0.86351943,0.0,0.0,0.50431556,0.0,0.0,-0.0,1,0,0,0,0,0
80141553,0.0,-0.0,1.0485976,0.0,0.8656752,0.0,0.0,0.5006061,0.0,0.0,-0.0,1,0,0,0,0,0
80245700,0.0,-0.0,1.0490456,0.0,0.86556304,0.0,0.0,0.5008,0.0,0.0,-0.0,1,0,0,0,0,0
80345520,0.0,-0.0,1.0504205,0.0,0.8652185,0.0,0.0,0.5013949,0.0,0.0,-0.0,1,0,0,0,0,0
80449508,0.0,-0.0,1.045436,0.0,0.86646545,0.0,0.0,0.49923703,0.0,0.0,-0.0,1,0,0,0,0,0
80549506,0.0,-0.0,1.0422865,0.0,0.86725056,0.0,0.0,0.49787197,0.0,0.0,-0.0,1,0,0,0,0,0
80650320,0.0,-0.0,1.0430065,0.0,0.8670713,0.0,0.0,0.49818414,0.0,0.0,-0.0,1,0,0,0,0,0
80750328,0.0,-0.0,1.0423613,0.0,0.86723197,0.0,0.0,0.49790436,0.0,0.0,-0.0,1,0,0,0,0,0
80855112,0.0,-0.0,1.0443041,0.0,0.86674786,0.0,0.0,0.49874657,0.0,0.0,-0.0,1,0,0,0,0,0
80955124,0.0,-0.0,1.0437808,0.0,0.86687833,0.0,0.0,0.49851978,0.0,0.0,-0.0,1,0,0,0,0,0
81055899,0.0,-0.0,1.0438061,0.0,0.866872,0.0,0.0,0.49853072,0.0,0.0,-0.0,1,0,0,0,0,0
81159108,0.0,-0.0,1.0477118,0.0,0.8658968,0.0,0.0,0.5002227,0.0,0.0,-0.0,1,0,0,0,0,0
81259899,0.0,-0.0,1.0456007,0.0,0.8664243,0.0,0.0,0.49930838,0.0,0.0,-0.0,1,0,0,0,0,0
81359111,0.0,-0.0,1.0476718,0.0,0.86590683,0.0,0.0,0.50020534,0.0,0.0,-0.0,1,0,0,0,0,0
81463112,0.0,-0.0,1.0472571,0.0,0.86601055,0.0,0.0,0.50002575,0.0,0.0,-0.0,1,0,0,0,0,0
81563917,0.0,-0.0,1.0488323,0.0,0.86561644,0.0,0.0,0.5007077,0.0,0.0,-0.0,1,0,0,0,0,0
81663960,0.0,-0.0,1.0499814,0.0,0.86532867,0.0,0.0,0.50120497,0.0,0.0,-0.0,1,0,0,0,0,0
81767910,0.0,-0.0,1.049863,0.0,0.8653583,0.0,0.0,0.5011537,0.0,0.0,-0.0,1,0,0,0,0,0
81871899,0.0,-0.0,1.0495434,0.0,0.86543834,0.0,0.0,0.5010154,0.0,0.0,-0.0,1,0,0,0,0,0
81971945,0.0,-0.0,1.0502101,0.0,0.8652713,0.0,0.0,0.5013039,0.0,0.0,-0.0,1,0,0,0,0,0
82075939,0.0,-0.0,1.0516784,0.0,0.864903,0.0,0.0,0.501939,0.0,0.0,-0.0,1,0,0,0,0,0
82177503,0.0,-0.0,1.0520896,0.0,0.8647998,0.0,0.0,0.5021168,0.0,0.0,-0.0,1,0,0,0,0,0
82276707,0.0,-0.0,1.0523101,0.0,0.8647444,0.0,0.0,0.50221217,0.0,0.0,-0.0,1,0,0,0,0,0
82380713,0.0,-0.0,1.0524994,0.0,0.8646969,0.0,0.0,0.502294,0.0,0.0,-0.0,1,0,0,0,0,0
82480716,0.0,-0.0,1.0531133,0.0,0.86454266,0.0,0.0,0.5025594,0.0,0.0,-0.0,1,0,0,0,0,0
82581567,0.0,-0.0,1.0537684,0.0,0.86437804,0.0,0.0,0.50284255,0.0,0.0,-0.0,1,0,0,0,0,0
82681500,0.0,-0.0,1.054098,0.0,0.8642951,0.0,0.0,0.502985,0.0,0.0,-0.0,1,0,0,0,0,0
