timestamp,timestamp_sample,control[0],control[1],control[2],control[3],control[4],control[5],control[6],control[7]
6695896,6695768,-0.016440758,-0.006786642,-0.0020289605,0.0,0.0,0.0,0.0,0.0
6799084,6798959,0.008850718,-0.017887423,-0.010119126,0.0,0.0,0.0,0.0,0.0
6899877,6899751,-0.0058260234,-0.017464615,0.010439391,0.0,0.0,0.0,0.0,0.0
6999888,6999759,0.015341131,-0.017396765,0.008826724,0.0,0.0,0.0,0.0,0.0
7100685,7100546,0.0032872774,-0.0016866201,0.006519988,0.0,0.0,0.0,0.0,0.0
7203876,7203744,-0.014985774,0.0010504387,0.008365969,0.0,0.0,0.0,0.0,0.0
7304840,7304546,0.003587232,0.005478418,0.006854298,0.0,0.0,0.0,0.0,0.0
7407875,7407746,0.030955922,-0.0011203983,0.018580334,0.0,0.0,0.0,0.0,0.0
7508682,7508544,0.01571409,-0.012106246,0.012079977,0.0,0.0,0.0,0.0,0.0
7608682,7608551,-0.021422647,-0.00460396,0.012470552,0.0,0.0,0.0,0.0,0.0
7711867,7711744,0.015975894,-0.0063698394,0.009354889,0.0,0.0,0.0,0.0,0.0
7813486,7813359,0.0003102133,-0.012206497,0.017223554,0.0,0.0,0.0,0.0,0.0
7913519,7913394,-0.0025663427,0.0141144255,0.014039558,0.0,0.0,0.0,0.0,0.0
8015064,8014945,0.0062854784,-0.0018563734,-0.0011117656,0.0,0.0,0.0,0.0,0.0
8117482,8117351,-0.013629306,-0.0027458244,-0.00046341243,0.0,0.0,0.0,0.0,0.0
8218275,8218143,0.010472167,0.014905683,-2.0670705e-06,0.0,0.0,0.0,0.0,0.0
8320681,8320545,-0.025273304,-0.012376221,0.030830452,0.0,0.0,0.0,0.0,0.0
8422276,8422151,-0.0109635545,-0.004404655,-0.00036322075,0.0,0.0,0.0,0.0,0.0
8522267,8522145,-0.04251915,0.009494998,-0.020637034,0.0,0.0,0.0,0.0,0.0
8624831,8624590,-0.013618408,-0.0077564134,0.007213261,0.0,0.0,0.0,0.0,0.0
8726277,8726146,0.01864883,0.0029681711,-0.02019402,0.0,0.0,0.0,0.0,0.0
8827080,8826946,0.0004392895,-0.0024731848,-0.00907356,0.0,0.0,0.0,0.0,0.0
8929512,8929377,-0.00048119342,-0.003704675,0.019036187,0.0,0.0,0.0,0.0,0.0
9031095,9030963,-0.00024148356,-0.00091102184,0.006773042,0.0,0.0,0.0,0.0,0.0
9134274,9134144,0.004446473,-0.0010549823,-0.005677653,0.0,0.0,0.0,0.0,0.0
9238266,9238144,0.0004059933,-0.004482853,0.0012002011,0.0,0.0,0.0,0.0,0.0
9339083,9338957,0.009820569,-0.010784553,0.006207905,0.0,0.0,0.0,0.0,0.0
9439862,9439747,0.0037035972,-0.010914216,0.019882238,0.0,0.0,0.0,0.0,0.0
9542269,9542144,0.019319674,0.0007231358,0.004179009,0.0,0.0,0.0,0.0,0.0
9643077,9642946,-0.0016530226,-2.0071748e-05,5.103266e-05,0.0,0.0,0.0,0.0,0.0
9743916,9743779,0.011441603,0.0055224975,-0.0018054104,0.0,0.0,0.0,0.0,0.0
9847913,9847778,-0.0034587795,-0.009164222,0.03423539,0.0,0.0,0.0,0.0,0.0
9951062,9950944,0.0034939677,-0.0027347237,0.0017675853,0.0,0.0,0.0,0.0,0.0
10052797,10052601,-0.00035503297,-0.0014083819,-0.00063531223,0.0,0.0,0.0,0.0,0.0
10155077,10154952,0.016627539,0.0006437677,0.00048508277,0.0,0.0,0.0,0.0,0.0
10255876,10255745,-0.012702487,0.0028531975,0.03139982,0.0,0.0,0.0,0.0,0.0
10357637,10357403,0.008299695,0.0063431924,-0.0003165621,0.0,0.0,0.0,0.0,0.0
10459883,10459752,0.012568615,-0.006738932,0.0046173027,0.0,0.0,0.0,0.0,0.0
10560693,10560567,-0.01744725,-0.009245069,0.009634138,0.0,0.0,0.0,0.0,0.0
10661461,10661346,0.0068179625,0.009917037,0.01492584,0.0,0.0,0.0,0.0,0.0
10763126,10762994,-0.010205988,0.0067666396,0.012717828,0.0,0.0,0.0,0.0,0.0
10865465,10865348,0.014716335,-0.010319604,-0.00026990645,0.0,0.0,0.0,0.0,0.0
10966291,10966152,-0.0029250574,-0.0029679602,0.0004857231,0.0,0.0,0.0,0.0,0.0
11067884,11067743,0.0021051127,-0.0055670533,0.02001517,0.0,0.0,0.0,0.0,0.0
11169460,11169344,0.023327423,0.0036685842,0.013781878,0.0,0.0,0.0,0.0,0.0
11270268,11270146,-0.028569039,-0.0014054412,-0.002974968,0.0,0.0,0.0,0.0,0.0
11370266,11370144,-0.0005671587,0.029526226,-0.69889206,-0.0,0.0,0.0,0.0,-1.0
11475065,11474946,0.02430197,-0.0018527452,-0.6856043,-0.0,0.0,0.0,0.0,-1.0
11575071,11574946,-0.0090434905,0.0043295436,-0.6878833,-0.0,0.0,0.0,0.0,-1.0
11677460,11677345,-0.0013861954,0.005579696,-0.70620453,-0.0,0.0,0.0,0.0,-1.0
11778271,11778147,0.0022738616,-0.01174759,-0.6602048,-0.0,0.0,0.0,0.0,-1.0
11879084,11878943,0.03678931,0.031815488,-0.68079114,-0.0,0.0,0.0,0.0,-1.0
11981496,11981349,0.026529996,0.010168804,-0.71810824,-0.0,0.0,0.0,0.0,-1.0
12083087,12082946,-0.016747449,0.028950345,-0.68549055,-0.0,0.0,0.0,0.0,-1.0
12183878,12183752,-0.0082822535,0.0045417678,-0.7044596,-0.0,0.0,0.0,0.0,-1.0
12286266,12286144,0.016647838,0.0059724627,-0.6897842,-0.0,0.0,0.0,0.0,-1.0
12387914,12387789,0.01664491,0.008603907,-0.68885595,-0.0,0.0,0.0,0.0,-1.0
12488827,12488594,0.011911283,0.024654252,-0.71064156,-0.0,0.0,0.0,0.0,-1.0
12588663,12588544,0.02404078,-0.013354402,-0.66936284,-0.0,0.0,0.0,0.0,-1.0
12692663,12692545,0.03261809,0.011291288,-0.6560441,-0.0,0.0,0.0,0.0,-1.0
12792683,12792558,0.0083438605,0.011767324,-0.673949,-0.0,0.0,0.0,0.0,-1.0
12895161,12895020,0.01810886,0.01992073,-0.68451697,-0.0,0.0,0.0,0.0,-1.0
12996684,12996544,0.019619333,-0.008508056,-0.6948669,-0.0,0.0,0.0,0.0,-1.0
13096712,13096588,-0.02923264,0.031140305,-0.665624,-0.0,0.0,0.0,0.0,-1.0
13199084,13198943,0.025320778,0.035729587,-0.7192442,-0.0,0.0,0.0,0.0,-1.0
13301459,13301344,-0.011019874,0.0049427664,-0.7246619,-0.0,0.0,0.0,0.0,-1.0
13401593,13401390,0.043227464,0.01034942,-0.7043059,-0.0,0.0,0.0,0.0,-1.0
13504674,13504544,0.0100969635,0.012172806,-0.6819242,-0.0,0.0,0.0,0.0,-1.0
13605512,13605379,-0.0081078075,0.022313658,-0.6869185,-0.0,0.0,0.0,0.0,-1.0
13706330,13706199,0.009661835,0.0053705326,-0.6914273,-0.0,0.0,0.0,0.0,-1.0
13808692,13808548,0.014577229,-0.015857931,-0.69642293,-0.0,0.0,0.0,0.0,-1.0
13909460,13909344,0.017354298,0.030111412,-0.6816002,-0.0,0.0,0.0,0.0,-1.0
14010271,14010145,-0.0035976933,0.0056071095,-0.7114126,-0.0,0.0,0.0,0.0,-1.0
14113460,14113344,0.0194042,0.008654022,-0.7155638,-0.0,0.0,0.0,0.0,-1.0
14214275,14214144,0.022110265,0.013142382,-0.69012415,-0.0,0.0,0.0,0.0,-1.0
14315063,14314946,0.009896901,0.025463229,-0.70980966,-0.0,0.0,0.0,0.0,-1.0
14417490,14417357,-0.03917921,0.039390463,-0.738669,-0.0,0.0,0.0,0.0,-1.0
14519087,14518946,0.035249636,0.010979356,-0.6779577,-0.0,0.0,0.0,0.0,-1.0
14622324,14622192,0.026809199,0.04413358,-0.6669689,-0.0,0.0,0.0,0.0,-1.0
14727078,14726944,0.012998822,0.008618835,-0.70120496,-0.0,0.0,0.0,0.0,-1.0
14831888,14831745,0.017746773,0.02060334,-0.712267,-0.0,0.0,0.0,0.0,-1.0
14935077,14934944,-0.020309746,0.017237622,-0.6822123,-0.0,0.0,0.0,0.0,-1.0
15035866,15035743,-0.007108952,0.012641029,-0.69422054,-0.0,0.0,0.0,0.0,-1.0
15138288,15138157,0.0005970206,0.011661233,-0.7245454,-0.0,0.0,0.0,0.0,-1.0
15239861,15239744,-0.005928444,0.0032714815,-0.6820715,-0.0,0.0,0.0,0.0,-1.0
15340658,15340543,0.0301182,0.026710557,-0.6941509,-0.0,0.0,0.0,0.0,-1.0
15443270,15443067,0.017341945,0.0063836332,-0.6571171,-0.0,0.0,0.0,0.0,-1.0
15544682,15544546,0.015895752,0.013609723,-0.6506895,-0.0,0.0,0.0,0.0,-1.0
15644698,15644572,-0.00963404,0.031828053,-0.6980815,-0.0,0.0,0.0,0.0,-1.0
15747080,15746943,0.010109061,-0.018991355,-0.6702525,-0.0,0.0,0.0,0.0,-1.0
15848858,15848627,0.030115534,0.022576066,-0.6171609,-0.0,0.0,0.0,0.0,-1.0
15949668,15949445,-0.010609712,0.0120819025,-0.68592036,-0.0,0.0,0.0,0.0,-1.0
16051862,16051745,0.014508266,-0.0067304787,-0.68663996,-0.0,0.0,0.0,0.0,-1.0
16153482,16153345,0.015378887,-0.002985885,-0.715785,-0.0,0.0,0.0,0.0,-1.0
16254453,16254216,-0.051505383,0.025871187,-0.67206067,-0.0,0.0,0.0,0.0,-1.0
16356682,16356546,0.02774201,0.010683687,-0.7018799,-0.0,0.0,0.0,0.0,-1.0
16457482,16457348,0.02248524,0.019301087,-0.7100802,-0.0,0.0,0.0,0.0,-1.0
16558286,16558146,0.036183596,0.026188219,-0.7064864,-0.0,0.0,0.0,0.0,-1.0
16660677,16660552,-0.008058459,0.023032147,-0.7370539,-0.0,0.0,0.0,0.0,-1.0
16762271,16762149,0.021324001,-0.031558897,-0.7080442,-0.0,0.0,0.0,0.0,-1.0
16863866,16863743,0.018976305,0.010662627,-0.7278986,-0.0,0.0,0.0,0.0,-1.0
16965514,16965383,-0.0077190623,-0.011875136,-0.7047256,-0.0,0.0,0.0,0.0,-1.0
17067086,17066958,-0.0064496174,0.0013916809,-0.6933612,-0.0,0.0,0.0,0.0,-1.0
17169509,17169378,-0.020275895,0.033543367,-0.71247303,-0.0,0.0,0.0,0.0,-1.0
17269469,17269346,0.04282021,0.023276234,-0.6976691,-0.0,0.0,0.0,0.0,-1.0
17371083,17370943,-0.016585471,-0.0046584317,-0.69047445,-0.0,0.0,0.0,0.0,-1.0
17472658,17472543,0.019425485,0.0016300792,-0.7095041,-0.0,0.0,0.0,0.0,-1.0
17574282,17574143,-0.01470452,-0.00931336,-0.67550796,-0.0,0.0,0.0,0.0,-1.0
17675864,17675747,0.01625914,0.010414245,-0.66756916,-0.0,0.0,0.0,0.0,-1.0
17779884,17779758,-0.007863058,0.028075932,-0.71377236,-0.0,0.0,0.0,0.0,-1.0
17883887,17883760,-0.015030632,0.010960562,-0.6610969,-0.0,0.0,0.0,0.0,-1.0
17987895,17987762,-0.020618498,0.027171398,-0.663786,-0.0,0.0,0.0,0.0,-1.0
18088661,18088545,0.01788276,-0.01876851,-0.7042377,-0.0,0.0,0.0,0.0,-1.0
18191065,18190945,0.000563696,0.018302735,-0.6819822,-0.0,0.0,0.0,0.0,-1.0
18292840,18292608,0.015109321,0.023718698,-0.68614596,-0.0,0.0,0.0,0.0,-1.0
18392671,18392543,-0.028682807,0.00764154,-0.68738335,-0.0,0.0,0.0,0.0,-1.0
18495148,18494943,-0.0058771307,0.029990189,-0.7198736,-0.0,0.0,0.0,0.0,-1.0
18597487,18597354,0.034662288,0.0018611678,-0.7039761,-0.0,0.0,0.0,0.0,-1.0
18697465,18697346,0.032822326,0.007568859,-0.66216695,-0.0,0.0,0.0,0.0,-1.0
18799104,18798962,-0.0062526055,0.004031391,-0.7460205,-0.0,0.0,0.0,0.0,-1.0
18900663,18900546,0.13288517,-0.040948227,-0.6844108,-0.0,0.0,0.0,0.0,-1.0
19001461,19001346,0.03603661,0.0005647596,-0.6872347,-0.0,0.0,0.0,0.0,-1.0
19104678,19104545,0.006350668,0.020592298,-0.72823834,-0.0,0.0,0.0,0.0,-1.0
19205515,19205381,-0.019774532,0.008080157,-0.63974106,-0.0,0.0,0.0,0.0,-1.0
19306307,19306165,0.029353235,0.00093608536,-0.7100422,-0.0,0.0,0.0,0.0,-1.0
19408683,19408543,-0.017003074,0.01841751,-0.6877652,-0.0,0.0,0.0,0.0,-1.0
19509612,19509414,0.0552155,-0.0076488517,-0.72414404,-0.0,0.0,0.0,0.0,-1.0
19610275,19610153,0.044746853,0.006780679,-0.6861644,-0.0,0.0,0.0,0.0,-1.0
19713475,19713347,0.011120277,0.02930573,-0.680494,-0.0,0.0,0.0,0.0,-1.0
19815108,19814980,0.047025286,0.020397985,-0.702648,-0.0,0.0,0.0,0.0,-1.0
19919065,19918946,0.018231805,0.02343613,-0.68023616,-0.0,0.0,0.0,0.0,-1.0
20020685,20020560,-0.009688264,0.02642756,-0.68749654,-0.0,0.0,0.0,0.0,-1.0
20122271,20122145,-0.014958512,0.016403852,-0.69752705,-0.0,0.0,0.0,0.0,-1.0
20223071,20222945,0.014096053,0.014500322,-0.6821715,-0.0,0.0,0.0,0.0,-1.0
20327072,20326944,0.014141053,0.018543445,-0.67375094,-0.0,0.0,0.0,0.0,-1.0
20431888,20431755,-0.019357588,0.017102508,-0.6920671,-0.0,0.0,0.0,0.0,-1.0
20535098,20534958,-0.0041422676,0.008705194,-0.6774878,-0.0,0.0,0.0,0.0,-1.0
20635878,20635745,0.0074249785,0.019804783,-0.6797213,-0.0,0.0,0.0,0.0,-1.0
20736703,20736578,-0.013867421,0.010611945,-0.69491416,-0.0,0.0,0.0,0.0,-1.0
20839881,20839746,0.003383319,0.010534246,-0.68877834,-0.0,0.0,0.0,0.0,-1.0
20940668,20940546,0.012344839,-0.017794576,-0.69810104,-0.0,0.0,0.0,0.0,-1.0
21043112,21042976,0.0018865047,-0.0029024463,-0.7069003,-0.0,0.0,0.0,0.0,-1.0
21144682,21144544,0.039523546,0.022459723,-0.67089766,-0.0,0.0,0.0,0.0,-1.0
21245522,21245393,-0.03525694,0.016506858,-0.7244239,-0.0,0.0,0.0,0.0,-1.0
21345513,21345389,0.009895438,0.011123451,-0.7429197,-0.0,0.0,0.0,0.0,-1.0
21448663,21448546,0.05612846,0.012151274,-0.69647783,-0.0,0.0,0.0,0.0,-1.0
21549461,21549345,0.02073017,-0.019887432,-0.6700987,-0.0,0.0,0.0,0.0,-1.0
21651919,21651792,-0.026491981,0.012629511,-0.6478078,-0.0,0.0,0.0,0.0,-1.0
21753465,21753349,0.038168892,-0.0043867584,-0.73331136,-0.0,0.0,0.0,0.0,-1.0
21855071,21854943,0.017915145,-0.006456772,-0.68663174,-0.0,0.0,0.0,0.0,-1.0
21956689,21956546,0.03635821,0.018000178,-0.6813383,-0.0,0.0,0.0,0.0,-1.0
22058267,22058144,0.0053808372,-0.010718808,-0.6915625,-0.0,0.0,0.0,0.0,-1.0
22158283,22158157,0.029760526,0.019749807,-0.6688642,-0.0,0.0,0.0,0.0,-1.0
22260677,22260545,0.008053013,0.012816028,-0.68300414,-0.0,0.0,0.0,0.0,-1.0
22362417,22362155,-0.00037212297,0.017178394,-0.6918823,-0.0,0.0,0.0,0.0,-1.0
22463276,22463038,0.009738656,0.025444143,-0.735045,-0.0,0.0,0.0,0.0,-1.0
22565605,22565394,-0.0029719067,0.029252939,-0.7089064,-0.0,0.0,0.0,0.0,-1.0
22667077,22666944,-0.011300534,0.012216071,-0.66511613,-0.0,0.0,0.0,0.0,-1.0
22770320,22770189,0.012911003,0.004124632,-0.6903501,-0.0,0.0,0.0,0.0,-1.0
22875071,22874944,0.004613137,0.029879326,-0.7295844,-0.0,0.0,0.0,0.0,-1.0
22978266,22978144,-0.016180297,0.02014748,-0.6921801,-0.0,0.0,0.0,0.0,-1.0
23079876,23079743,0.03509461,0.014791718,-0.663383,-0.0,0.0,0.0,0.0,-1.0
23182275,23182146,-0.018531783,-0.012489635,-0.6768229,-0.0,0.0,0.0,0.0,-1.0
23283081,23282945,-0.01527135,-0.00037866458,-0.7232653,-0.0,0.0,0.0,0.0,-1.0
23383872,23383746,0.04187826,-6.1175786e-05,-0.72234863,-0.0,0.0,0.0,0.0,-1.0
23485621,23485393,0.024791768,-0.006526643,-0.68465537,-0.0,0.0,0.0,0.0,-1.0
23588678,23588545,0.008065028,-0.012393871,-0.662395,-0.0,0.0,0.0,0.0,-1.0
23688662,23688543,0.009854002,-0.030946858,-0.6835851,-0.0,0.0,0.0,0.0,-1.0
23791097,23790972,0.032474212,-0.0002878958,-0.69168943,-0.0,0.0,0.0,0.0,-1.0
23891875,23891744,0.017353188,-0.0253083,-0.7168723,-0.0,0.0,0.0,0.0,-1.0
23992663,23992546,0.015792165,-0.016162775,-0.6599835,-0.0,0.0,0.0,0.0,-1.0
24095079,24094944,0.019864086,0.016803285,-0.65007603,-0.0,0.0,0.0,0.0,-1.0
24196687,24196562,0.017823823,0.02031905,-0.6803427,-0.0,0.0,0.0,0.0,-1.0
24297498,24297368,-0.009183984,-0.019076642,-0.69500893,-0.0,0.0,0.0,0.0,-1.0
24397503,24397378,0.02781224,0.024810823,-0.70085716,-0.0,0.0,0.0,0.0,-1.0
24500716,24500589,0.0037147943,-0.0033678291,-0.6689586,-0.0,0.0,0.0,0.0,-1.0
24601637,24601408,-0.02516264,0.024588784,-0.68571156,-0.0,0.0,0.0,0.0,-1.0
24704660,24704545,-0.009698679,0.021635905,-0.6789424,-0.0,0.0,0.0,0.0,-1.0
24805505,24805379,-0.001100516,0.010028508,-0.67213345,-0.0,0.0,0.0,0.0,-1.0
24906276,24906143,0.090510234,0.012640912,-0.6474259,-0.0,0.0,0.0,0.0,-1.0
25008680,25008544,0.009011838,-0.014354123,-0.6588844,-0.0,0.0,0.0,0.0,-1.0
25109486,25109353,0.04917933,0.067098245,-0.7315107,-0.0,0.0,0.0,0.0,-1.0
25210267,25210146,0.05873281,-0.007817434,-0.6775138,-0.0,0.0,0.0,0.0,-1.0
25313486,25313348,-0.032700382,-0.02998661,-0.6700222,-0.0,0.0,0.0,0.0,-1.0
25414278,25414144,-0.005316129,0.025392674,-0.7258451,-0.0,0.0,0.0,0.0,-1.0
25515063,25514945,0.053093567,-0.013804074,-0.6769411,-0.0,0.0,0.0,0.0,-1.0
25617476,25617343,-0.0032967152,0.005038264,-0.66268003,-0.0,0.0,0.0,0.0,-1.0
25719085,25718948,-0.0073178243,0.030097041,-0.69085264,-0.0,0.0,0.0,0.0,-1.0
25819859,25819743,0.011555636,0.034404486,-0.7147135,-0.0,0.0,0.0,0.0,-1.0
25922280,25922145,-0.007537905,0.037903327,-0.6864646,-0.0,0.0,0.0,0.0,-1.0
26023878,26023744,-0.043075208,0.02048753,-0.68541193,-0.0,0.0,0.0,0.0,-1.0
26123915,26123777,0.0029980084,0.034650024,-0.6942815,-0.0,0.0,0.0,0.0,-1.0
26227064,26226944,-0.048811153,0.03185766,-0.6800378,-0.0,0.0,0.0,0.0,-1.0
26327867,26327744,0.002658356,0.028040053,-0.72780174,-0.0,0.0,0.0,0.0,-1.0
26428688,26428555,0.0052556563,0.009596104,-0.69097644,-0.0,0.0,0.0,0.0,-1.0
26531073,26530944,0.048189294,0.0054381066,-0.6552914,-0.0,0.0,0.0,0.0,-1.0
26632696,26632545,0.006231294,0.015570547,-0.6760344,-0.0,0.0,0.0,0.0,-1.0
26732688,26732555,0.033609327,0.019271037,-0.69568807,-0.0,0.0,0.0,0.0,-1.0
26835914,26835789,0.023944002,0.014291357,-0.68087703,-0.0,0.0,0.0,0.0,-1.0
26936718,26936593,-0.028939564,-0.00040502567,-0.68557554,-0.0,0.0,0.0,0.0,-1.0
27037515,27037390,0.012814045,0.013727786,-0.7303836,-0.0,0.0,0.0,0.0,-1.0
27139894,27139769,0.017267404,-0.004409932,-0.6907607,-0.0,0.0,0.0,0.0,-1.0
27241464,27241347,0.027662244,0.015911238,-0.6843279,-0.0,0.0,0.0,0.0,-1.0
27343087,27342961,0.012484515,-0.004329476,-0.68884563,-0.0,0.0,0.0,0.0,-1.0
27444834,27444604,0.008987912,0.009560991,-0.690242,-0.0,0.0,0.0,0.0,-1.0
27545518,27545389,-0.04533671,0.026827622,-0.7187443,-0.0,0.0,0.0,0.0,-1.0
27646267,27646146,0.010288723,0.011547792,-0.6945185,-0.0,0.0,0.0,0.0,-1.0
27748659,27748543,-0.02493732,0.013823105,-0.677225,-0.0,0.0,0.0,0.0,-1.0
27850328,27850197,0.025557322,0.0057704006,-0.7601018,-0.0,0.0,0.0,0.0,-1.0
27951095,27950970,-0.012331705,-0.03983095,-0.6904025,-0.0,0.0,0.0,0.0,-1.0
28053483,28053358,0.032698683,-0.08024941,-0.6285176,-0.0,0.0,0.0,0.0,-1.0
28155086,28154944,0.06401731,0.039664473,-0.712732,-0.0,0.0,0.0,0.0,-1.0
28259098,28258959,0.037892036,0.002160749,-0.7609047,-0.0,0.0,0.0,0.0,-1.0
28362282,28362147,-0.006989156,0.026769053,-0.67840236,-0.0,0.0,0.0,0.0,-1.0
28463095,28462954,-0.00048433617,0.02085482,-0.7001455,-0.0,0.0,0.0,0.0,-1.0
28563869,28563746,-0.0019792542,-0.010146199,-0.68527836,-0.0,0.0,0.0,0.0,-1.0
28665489,28665364,0.022250224,-0.0063943136,-0.6505355,-0.0,0.0,0.0,0.0,-1.0
28767062,28766944,0.016045138,0.0303007,-0.70273286,-0.0,0.0,0.0,0.0,-1.0
28868877,28868590,0.0069460897,-0.013529182,-0.70142287,-0.0,0.0,0.0,0.0,-1.0
28971860,28971744,-0.010445684,0.005192327,-0.6929013,-0.0,0.0,0.0,0.0,-1.0
29075881,29075750,0.015401517,-0.003152875,-0.6811916,-0.0,0.0,0.0,0.0,-1.0
29176659,29176543,0.009993424,-0.0136581175,-0.6937987,-0.0,0.0,0.0,0.0,-1.0
29279076,29278951,0.022390686,-0.012847803,-0.70192647,-0.0,0.0,0.0,0.0,-1.0
29379879,29379746,0.02859444,0.0026171578,-0.6930156,-0.0,0.0,0.0,0.0,-1.0
29480659,29480543,0.011297142,0.0115034925,-0.66322416,-0.0,0.0,0.0,0.0,-1.0
29583927,29583791,-0.008961502,0.0064188247,-0.68472606,-0.0,0.0,0.0,0.0,-1.0
29684718,29684581,0.0048320536,0.024133319,-0.71126175,-0.0,0.0,0.0,0.0,-1.0
29785511,29785386,0.011832324,0.00017273892,-0.6896526,-0.0,0.0,0.0,0.0,-1.0
29887097,29886956,0.010170398,0.002091816,-0.6656251,-0.0,0.0,0.0,0.0,-1.0
29988692,29988557,0.013795445,0.0201661,-0.7190314,-0.0,0.0,0.0,0.0,-1.0
30089475,30089343,-0.009414455,-0.002836255,-0.73266304,-0.0,0.0,0.0,0.0,-1.0
30190306,30190178,0.01272732,-0.0077562677,-0.69043833,-0.0,0.0,0.0,0.0,-1.0
30293478,30293344,0.008621392,-0.0061370824,-0.68147224,-0.0,0.0,0.0,0.0,-1.0
30394282,30394143,0.009744719,-0.008895964,-0.69410956,-0.0,0.0,0.0,0.0,-1.0
30496682,30496546,0.023165574,-0.0011799072,-0.7085448,-0.0,0.0,0.0,0.0,-1.0
30597488,30597360,0.021211619,-0.0006972365,-0.7007813,-0.0,0.0,0.0,0.0,-1.0
30698269,30698143,0.0026566517,0.012621457,-0.69021225,-0.0,0.0,0.0,0.0,-1.0
30801465,30801347,0.011281994,-0.0014296938,-0.6979417,-0.0,0.0,0.0,0.0,-1.0
30902271,30902144,0.03273937,-0.0011998013,-0.7075008,-0.0,0.0,0.0,0.0,-1.0
31003088,31002960,0.01936727,0.014381302,-0.6738474,-0.0,0.0,0.0,0.0,-1.0
31106296,31106174,-0.020444948,0.001072248,-0.69919914,-0.0,0.0,0.0,0.0,-1.0
31207111,31206979,0.0055453796,0.0030374376,-0.6934621,-0.0,0.0,0.0,0.0,-1.0
31307884,31307758,0.010956736,0.011120258,-0.7054395,-0.0,0.0,0.0,0.0,-1.0
31410279,31410149,-0.00074630696,0.0027167895,-0.7031015,-0.0,0.0,0.0,0.0,-1.0
31511860,31511744,0.017012617,0.030097056,-0.7133731,-0.0,0.0,0.0,0.0,-1.0
31611888,31611753,-0.0069260206,-0.0077275247,-0.677099,-0.0,0.0,0.0,0.0,-1.0
31715072,31714947,0.02851388,-0.014366031,-0.71989053,-0.0,0.0,0.0,0.0,-1.0
31815877,31815744,0.007855806,-0.006794662,-0.71040267,-0.0,0.0,0.0,0.0,-1.0
31916702,31916577,0.046844676,0.0050170342,-0.68590075,-0.0,0.0,0.0,0.0,-1.0
32019072,32018943,0.0058824047,-0.0018278394,-0.69940794,-0.0,0.0,0.0,0.0,-1.0
32120681,32120545,0.015399387,-0.0045845807,-0.69392395,-0.0,0.0,0.0,0.0,-1.0
32220689,32220552,0.012089974,-0.0043897093,-0.72013104,-0.0,0.0,0.0,0.0,-1.0
32323880,32323754,0.008544656,0.010506115,-0.67760825,-0.0,0.0,0.0,0.0,-1.0
32424660,32424544,0.020823415,0.02558848,-0.686763,-0.0,0.0,0.0,0.0,-1.0
32525507,32525382,0.015252444,-0.005365847,-0.7016346,-0.0,0.0,0.0,0.0,-1.0
32627882,32627752,0.00810561,0.0048926924,-0.70270985,-0.0,0.0,0.0,0.0,-1.0
32729482,32729345,0.00418148,0.0025349967,-0.70241594,-0.0,0.0,0.0,0.0,-1.0
32831075,32830943,0.027094651,-0.0126823755,-0.6692113,-0.0,0.0,0.0,0.0,-1.0
32932689,32932553,0.023862015,-0.009344352,-0.68939734,-0.0,0.0,0.0,0.0,-1.0
33033494,33033360,-0.022122093,-0.011832914,-0.7190504,-0.0,0.0,0.0,0.0,-1.0
33134284,33134146,0.013026046,0.0023647696,-0.67765754,-0.0,0.0,0.0,0.0,-1.0
33236712,33236578,0.025652375,0.005413344,-0.69297063,-0.0,0.0,0.0,0.0,-1.0
33338303,33338155,-0.013478166,0.008958417,-0.7033519,-0.0,0.0,0.0,0.0,-1.0
33439076,33438946,0.01632556,0.008093845,-0.69498825,-0.0,0.0,0.0,0.0,-1.0
33541459,33541343,0.01806057,0.008570275,-0.71232784,-0.0,0.0,0.0,0.0,-1.0
33643158,33643018,0.017025942,0.0054221535,-0.7022749,-0.0,0.0,0.0,0.0,-1.0
33746269,33746144,0.003928383,0.0030431817,-0.66458124,-0.0,0.0,0.0,0.0,-1.0
33851105,33850981,0.01111614,0.0045402492,-0.69249564,-0.0,0.0,0.0,0.0,-1.0
33955105,33954981,-0.004425565,0.0057448433,-0.7266232,-0.0,0.0,0.0,0.0,-1.0
34059111,34058984,0.0057771667,0.0028380575,-0.73063594,-0.0,0.0,0.0,0.0,-1.0
34159913,34159781,0.023528043,0.002279054,-0.71060604,-0.0,0.0,0.0,0.0,-1.0
34262272,34262145,0.021166038,-0.0023312015,-0.6763136,-0.0,0.0,0.0,0.0,-1.0
34363881,34363743,0.029515615,-0.014548139,-0.68329704,-0.0,0.0,0.0,0.0,-1.0
34464846,34464601,0.01584844,-0.0006405865,-0.69376975,-0.0,0.0,0.0,0.0,-1.0
34567084,34566957,0.01216086,0.004926039,-0.69855016,-0.0,0.0,0.0,0.0,-1.0
34668678,34668543,0.006505591,-0.00059659814,-0.69304335,-0.0,0.0,0.0,0.0,-1.0
34768702,34768577,0.01861114,0.003118797,-0.7017948,-0.0,0.0,0.0,0.0,-1.0
34871892,34871763,0.009221952,7.248114e-05,-0.69710076,-0.0,0.0,0.0,0.0,-1.0
34972662,34972545,0.010495452,0.0019053714,-0.7015533,-0.0,0.0,0.0,0.0,-1.0
35073486,35073351,0.006338356,3.432983e-05,-0.6969151,-0.0,0.0,0.0,0.0,-1.0
35175861,35175746,0.011256594,0.0006381957,-0.6967785,-0.0,0.0,0.0,0.0,-1.0
35277465,35277343,0.00847017,0.0012563206,-0.7021422,-0.0,0.0,0.0,0.0,-1.0
35380667,35380544,0.0056014787,-0.0006769021,-0.70223117,-0.0,0.0,0.0,0.0,-1.0
35485513,35485386,0.008064738,-0.0007307811,-0.6956796,-0.0,0.0,0.0,0.0,-1.0
35589460,35589344,0.012384625,0.00014085969,-0.69862026,-0.0,0.0,0.0,0.0,-1.0
35690268,35690146,0.009841695,0.002530978,-0.69811386,-0.0,0.0,0.0,0.0,-1.0
35790327,35790194,0.010150446,-0.0007490896,-0.6940465,-0.0,0.0,0.0,0.0,-1.0
35894298,35894161,0.019050635,0.0010468089,-0.69395655,-0.0,0.0,0.0,0.0,-1.0
35994294,35994146,0.010604092,0.00093740545,-0.6961566,-0.0,0.0,0.0,0.0,-1.0
36097508,36097379,0.01018857,0.00020747964,-0.6931809,-0.0,0.0,0.0,0.0,-1.0
36198323,36198190,0.015416334,-0.00047212292,-0.6940205,-0.0,0.0,0.0,0.0,-1.0
36299061,36298943,0.013389295,0.001526102,-0.697097,-0.0,0.0,0.0,0.0,-1.0
36401494,36401362,0.013969756,0.0005571947,-0.6940079,-0.0,0.0,0.0,0.0,-1.0
36502269,36502144,0.014685285,-0.00017604721,-0.6954237,-0.0,0.0,0.0,0.0,-1.0
36603079,36602946,0.016302098,0.00016486703,-0.6948771,-0.0,0.0,0.0,0.0,-1.0
36706266,36706145,0.016050208,0.0009973983,-0.6931,-0.0,0.0,0.0,0.0,-1.0
36807877,36807744,0.01639935,0.004323045,-0.6958844,-0.0,0.0,0.0,0.0,-1.0
36907890,36907743,0.01687083,0.0020087564,-0.6966904,-0.0,0.0,0.0,0.0,-1.0
37009519,37009382,0.014278244,0.0010100466,-0.69375676,-0.0,0.0,0.0,0.0,-1.0
37111098,37110962,0.017914837,0.0016902097,-0.69390255,-0.0,0.0,0.0,0.0,-1.0
37211869,37211746,0.017107403,0.0006744026,-0.69552976,-0.0,0.0,0.0,0.0,-1.0
37315062,37314944,0.01621948,0.00091685634,-0.6955976,-0.0,0.0,0.0,0.0,-1.0
37415862,37415744,0.019457933,0.0022991886,-0.6955736,-0.0,0.0,0.0,0.0,-1.0
37516663,37516543,0.018210405,0.0015421802,-0.69556844,-0.0,0.0,0.0,0.0,-1.0
37619084,37618947,0.016556809,0.0005649758,-0.69604415,-0.0,0.0,0.0,0.0,-1.0
37720683,37720545,0.015335984,0.000359032,-0.6960331,-0.0,0.0,0.0,0.0,-1.0
37821512,37821352,0.015604661,0.0009986327,-0.6943209,-0.0,0.0,0.0,0.0,-1.0
37923100,37922956,0.015731815,0.00022075874,-0.6957696,-0.0,0.0,0.0,0.0,-1.0
38024793,38024589,0.016845284,0.0011930753,-0.6974632,-0.0,0.0,0.0,0.0,-1.0
38125701,38125586,0.015350542,-0.0006055996,-0.696427,-0.0,0.0,0.0,0.0,-1.0
38227860,38227745,0.01582019,0.0006985125,-0.6962068,-0.0,0.0,0.0,0.0,-1.0
38329469,38329345,0.01588929,0.00015597558,-0.6953215,-0.0,0.0,0.0,0.0,-1.0
38430275,38430146,0.01580622,0.0003011878,-0.69745064,-0.0,0.0,0.0,0.0,-1.0
38532680,38532543,0.013850646,-0.00050829485,-0.6966755,-0.0,0.0,0.0,0.0,-1.0
38633460,38633344,0.015162662,0.00044299045,-0.6971442,-0.0,0.0,0.0,0.0,-1.0
38734281,38734143,0.013034611,0.00021579371,-0.6965864,-0.0,0.0,0.0,0.0,-1.0
38836678,38836543,0.014937207,0.0001277852,-0.6964399,-0.0,0.0,0.0,0.0,-1.0
38939062,38938944,0.012584449,0.0004851115,-0.6974602,-0.0,0.0,0.0,0.0,-1.0
39039082,39038943,0.012150526,0.0006072849,-0.6983368,-0.0,0.0,0.0,0.0,-1.0
39141505,39141377,0.012427177,9.6502685e-05,-0.69783807,-0.0,0.0,0.0,0.0,-1.0
39243143,39243007,0.011617526,0.00039346085,-0.69723153,-0.0,0.0,0.0,0.0,-1.0
39344683,39344543,0.011874897,0.0002516465,-0.697794,-0.0,0.0,0.0,0.0,-1.0
39445522,39445394,0.011827646,-0.0006023559,-0.69849485,-0.0,0.0,0.0,0.0,-1.0
39547864,39547746,0.011039817,-0.0016512674,-0.69874835,-0.0,0.0,0.0,0.0,-1.0
39647878,39647746,0.010707308,0.00027767202,-0.69848216,-0.0,0.0,0.0,0.0,-1.0
39750265,39750143,0.009276596,-0.0007464951,-0.69866806,-0.0,0.0,0.0,0.0,-1.0
39851903,39851778,0.009884843,-0.0010105394,-0.6980321,-0.0,0.0,0.0,0.0,-1.0
39953482,39953346,0.011189446,0.0003903371,-0.69802064,-0.0,0.0,0.0,0.0,-1.0
40055869,40055746,0.008113363,-0.0016955544,-0.69944316,-0.0,0.0,0.0,0.0,-1.0
40156689,40156548,0.009546999,-0.00069411774,-0.69858867,-0.0,0.0,0.0,0.0,-1.0
40256658,40256543,0.008289088,-0.0005615198,-0.6983528,-0.0,0.0,0.0,0.0,-1.0
40359914,40359789,0.007357193,-0.000656134,-0.6993589,-0.0,0.0,0.0,0.0,-1.0
40460704,40460579,0.007235856,-0.0007777418,-0.69758075,-0.0,0.0,0.0,0.0,-1.0
40561604,40561402,0.010225039,0.0006283093,-0.69840074,-0.0,0.0,0.0,0.0,-1.0
40663880,40663754,0.006903333,-0.0007409794,-0.69821244,-0.0,0.0,0.0,0.0,-1.0
40765505,40765379,0.008212724,-0.00039970572,-0.6983661,-0.0,0.0,0.0,0.0,-1.0
40869465,40869346,0.009854577,0.00020584516,-0.69685626,-0.0,0.0,0.0,0.0,-1.0
40973476,40973346,0.0057082092,0.00036150485,-0.69673246,-0.0,0.0,0.0,0.0,-1.0
41077464,41077344,0.008008611,-0.0007138164,-0.69889385,-0.0,0.0,0.0,0.0,-1.0
41178265,41178143,0.009398119,0.0012317601,-0.6976674,-0.0,0.0,0.0,0.0,-1.0
41280689,41280557,0.0072446386,0.00015147356,-0.6973535,-0.0,0.0,0.0,0.0,-1.0
41382269,41382144,0.009179626,0.003690126,-0.69798183,-0.0,0.0,0.0,0.0,-1.0
41482280,41482143,0.014280905,0.0014094432,-0.70150936,-0.0,0.0,0.0,0.0,-1.0
41582266,41582144,0.011101399,0.005944388,-0.70784587,-0.0,0.0,0.0,0.0,-1.0
41686291,41686167,-0.010424763,0.00900967,-0.7052027,-0.0,0.0,0.0,0.0,-1.0
41787065,41786946,-0.005252083,-0.01456312,-0.6966245,-0.0,0.0,0.0,0.0,-1.0
41889491,41889353,0.02580037,-0.025675401,-0.6987282,-0.0,0.0,0.0,0.0,-1.0
41990270,41990145,0.017499927,0.0019842773,-0.702797,-0.0,0.0,0.0,0.0,-1.0
42091077,42090943,0.022613708,0.005818504,-0.70598614,-0.0,0.0,0.0,0.0,-1.0
42194473,42194240,0.0065263845,-0.0008247271,-0.6872365,-0.0,0.0,0.0,0.0,-1.0
42295909,42295783,0.0050878143,0.0065913144,-0.6945883,-0.0,0.0,0.0,0.0,-1.0
42396037,42395803,0.00415813,0.0032837465,-0.6991585,-0.0,0.0,0.0,0.0,-1.0
42497497,42497359,0.008778951,0.0010049988,-0.70104665,-0.0,0.0,0.0,0.0,-1.0
42599875,42599747,0.007717152,0.0014758438,-0.69224566,-0.0,0.0,0.0,0.0,-1.0
42699880,42699743,0.0025567552,0.0027362641,-0.69363964,-0.0,0.0,0.0,0.0,-1.0
42802317,42802172,0.0057735518,0.0010256817,-0.69575197,-0.0,0.0,0.0,0.0,-1.0
42903885,42903758,0.009197257,0.0025844502,-0.6985437,-0.0,0.0,0.0,0.0,-1.0
43004686,43004552,0.0059214896,0.0032526993,-0.69623584,-0.0,0.0,0.0,0.0,-1.0
43107110,43106979,0.008198413,0.002542852,-0.6942181,-0.0,0.0,0.0,0.0,-1.0
43208683,43208546,0.0058599496,0.0011819102,-0.69547457,-0.0,0.0,0.0,0.0,-1.0
43308660,43308544,0.007964377,0.003207813,-0.6985029,-0.0,0.0,0.0,0.0,-1.0
43411068,43410943,0.0023672339,0.0003736826,-0.69443387,-0.0,0.0,0.0,0.0,-1.0
43513460,43513344,0.009272998,0.0029035865,-0.70303845,-0.0,0.0,0.0,0.0,-1.0
43613500,43613375,0.006688545,0.0039325077,-0.6972818,-0.0,0.0,0.0,0.0,-1.0
43713474,43713344,0.007489622,0.005388583,-0.6939217,-0.0,0.0,0.0,0.0,-1.0
43817484,43817346,0.0049155247,0.0019763173,-0.6929955,-0.0,0.0,0.0,0.0,-1.0
43918441,43918191,0.011427712,0.0025569883,-0.6960993,-0.0,0.0,0.0,0.0,-1.0
44020681,44020544,0.008971367,0.0017624202,-0.69532293,-0.0,0.0,0.0,0.0,-1.0
44121463,44121346,0.009184584,0.0031530035,-0.69776076,-0.0,0.0,0.0,0.0,-1.0
44222275,44222148,0.008316499,0.0012519604,-0.6953233,-0.0,0.0,0.0,0.0,-1.0
44325503,44325378,0.011524965,0.0007193438,-0.6964181,-0.0,0.0,0.0,0.0,-1.0
44426274,44426143,0.008643874,0.0023450672,-0.6970754,-0.0,0.0,0.0,0.0,-1.0
44527080,44526943,0.010975363,0.010812762,-0.7008865,-0.0,0.0,0.0,0.0,-1.0
44629496,44629360,0.0076115537,0.004013358,-0.6967314,-0.0,0.0,0.0,0.0,-1.0
44731112,44730974,0.010084141,0.002309794,-0.6934495,-0.0,0.0,0.0,0.0,-1.0
44834282,44834151,0.008352536,0.0024808773,-0.69804233,-0.0,0.0,0.0,0.0,-1.0
44934510,44934395,0.008924884,0.0011475106,-0.69548404,-0.0,0.0,0.0,0.0,-1.0
45035209,45035011,0.010895085,0.0024530813,-0.6953842,-0.0,0.0,0.0,0.0,-1.0
45135865,45135743,0.0094001945,0.0027440803,-0.69545674,-0.0,0.0,0.0,0.0,-1.0
45238267,45238145,-0.0020735385,0.005844939,-0.70846325,-0.0,0.0,0.0,0.0,-1.0
45339885,45339758,-0.0024594544,0.0064373165,-0.7076622,-0.0,0.0,0.0,0.0,-1.0
45441462,45441343,0.000659707,0.0026154534,-0.7028054,-0.0,0.0,0.0,0.0,-1.0
45543086,45542952,0.0097355,0.0038648178,-0.7137526,-0.0,0.0,0.0,0.0,-1.0
45644716,45644580,0.008535734,0.0025035422,-0.7065863,-0.0,0.0,0.0,0.0,-1.0
45744666,45744543,0.0009996179,0.0033557354,-0.70960003,-0.0,0.0,0.0,0.0,-1.0
45847076,45846946,0.022699548,0.004348019,-0.69939786,-0.0,0.0,0.0,0.0,-1.0
45948663,45948546,0.050347786,-0.0010664735,-0.6661896,-0.0,0.0,0.0,0.0,-1.0
46050305,46050177,0.027875375,-0.0072009806,-0.669795,-0.0,0.0,0.0,0.0,-1.0
46151875,46151744,0.016332865,0.028492182,-0.68431264,-0.0,0.0,0.0,0.0,-1.0
46253492,46253345,0.0067770043,0.025732642,-0.7139939,-0.0,0.0,0.0,0.0,-1.0
46356662,46356546,-0.009664415,-0.014785632,-0.7107459,-0.0,0.0,0.0,0.0,-1.0
46460689,46460561,-0.015331197,-0.0027444446,-0.6851613,-0.0,0.0,0.0,0.0,-1.0
46561477,46561348,-0.018505251,0.00091158086,-0.7269005,-0.0,0.0,0.0,0.0,-1.0
46662279,46662154,0.022963384,-0.015266251,-0.6552006,-0.0,0.0,0.0,0.0,-1.0
46766266,46766144,0.0008429587,-0.0050045038,-0.7114806,-0.0,0.0,0.0,0.0,-1.0
46869463,46869346,-0.016612919,0.01303716,-0.70960444,-0.0,0.0,0.0,0.0,-1.0
46970278,46970152,-0.014985516,0.022463724,-0.69925046,-0.0,0.0,0.0,0.0,-1.0
47073525,47073379,0.026320362,-0.04059886,-0.6820905,-0.0,0.0,0.0,0.0,-1.0
47174287,47174145,0.0028889729,-0.009942397,-0.6937826,-0.0,0.0,0.0,0.0,-1.0
47275079,47274956,0.016465811,-0.0036694673,-0.69790787,-0.0,0.0,0.0,0.0,-1.0
47376682,47376543,0.00645099,0.0035411748,-0.678344,-0.0,0.0,0.0,0.0,-1.0
47478278,47478146,0.013075663,0.0009663686,-0.6752609,-0.0,0.0,0.0,0.0,-1.0
47579194,47578993,-0.0001727927,0.010530361,-0.6803617,-0.0,0.0,0.0,0.0,-1.0
47681485,47681343,-0.024429496,0.0055036666,-0.7085842,-0.0,0.0,0.0,0.0,-1.0
47783104,47782960,-0.015554341,0.008264081,-0.70352906,-0.0,0.0,0.0,0.0,-1.0
47883877,47883743,-0.004431987,-0.0008323067,-0.6468523,-0.0,0.0,0.0,0.0,-1.0
47986269,47986144,0.022270747,-0.006177362,-0.7072645,-0.0,0.0,0.0,0.0,-1.0
48087077,48086945,4.8289075e-05,-0.025857678,-0.67926353,-0.0,0.0,0.0,0.0,-1.0
48188866,48188604,0.03249667,0.007311403,-0.6569599,-0.0,0.0,0.0,0.0,-1.0
48291062,48290944,-0.0093993815,-0.008598717,-0.6817543,-0.0,0.0,0.0,0.0,-1.0
48392686,48392558,-0.010720903,-0.019408584,-0.6862059,-0.0,0.0,0.0,0.0,-1.0
48492665,48492543,0.0011315402,0.053216677,-0.6852893,-0.0,0.0,0.0,0.0,-1.0
48595133,48594997,-0.029258618,-0.020612534,-0.67311364,-0.0,0.0,0.0,0.0,-1.0
48696681,48696544,-0.00771629,-0.026538854,-0.6775023,-0.0,0.0,0.0,0.0,-1.0
48796705,48796576,-0.04140907,-0.0014544022,-0.68245137,-0.0,0.0,0.0,0.0,-1.0
48899080,48898943,0.0076143215,0.0035689345,-0.6755919,-0.0,0.0,0.0,0.0,-1.0
49000682,49000555,0.014796344,0.00345913,-0.701733,-0.0,0.0,0.0,0.0,-1.0
49101495,49101364,0.0027863458,-0.007989423,-0.67668265,-0.0,0.0,0.0,0.0,-1.0
49203869,49203743,-0.05964914,0.01796825,-0.6869645,-0.0,0.0,0.0,0.0,-1.0
49305685,49305387,-0.018974736,0.062758654,-0.6997339,-0.0,0.0,0.0,0.0,-1.0
49406272,49406150,-0.018534744,-0.0044898707,-0.66403574,-0.0,0.0,0.0,0.0,-1.0
49508685,49508544,0.00810537,-0.011356014,-0.68547577,-0.0,0.0,0.0,0.0,-1.0
49609460,49609344,0.008591652,0.03200543,-0.69384986,-0.0,0.0,0.0,0.0,-1.0
49710265,49710143,-0.029788468,0.04895433,-0.6726777,-0.0,0.0,0.0,0.0,-1.0
49813460,49813344,0.0021693846,-0.023972379,-0.6939786,-0.0,0.0,0.0,0.0,-1.0
49914276,49914144,0.063095815,-0.017065346,-0.70897186,-0.0,0.0,0.0,0.0,-1.0
50015062,50014943,-0.0008636005,-0.016144749,-0.6668981,-0.0,0.0,0.0,0.0,-1.0
50117479,50117345,0.06278704,-0.024254784,-0.656632,-0.0,0.0,0.0,0.0,-1.0
50219082,50218946,-0.043678463,0.013254938,-0.6696331,-0.0,0.0,0.0,0.0,-1.0
50320704,50320546,-0.008381135,-0.0039576003,-0.6930032,-0.0,0.0,0.0,0.0,-1.0
50422293,50422165,0.017192101,-0.009831564,-0.68890303,-0.0,0.0,0.0,0.0,-1.0
50523062,50522944,0.007059673,0.0027027493,-0.66647524,-0.0,0.0,0.0,0.0,-1.0
50623870,50623744,-0.0062968037,0.010871661,-0.68528086,-0.0,0.0,0.0,0.0,-1.0
50726267,50726144,-0.0630033,0.029167045,-0.67227536,-0.0,0.0,0.0,0.0,-1.0
50827863,50827744,0.02045537,0.02263898,-0.7070336,-0.0,0.0,0.0,0.0,-1.0
50929465,50929343,-0.01456431,0.006304776,-0.694987,-0.0,0.0,0.0,0.0,-1.0
51031105,51030969,0.056066185,0.0039296234,-0.67517185,-0.0,0.0,0.0,0.0,-1.0
51132689,51132562,-0.044311218,-0.018740946,-0.70600176,-0.0,0.0,0.0,0.0,-1.0
51232710,51232575,0.0022687889,0.032779597,-0.668487,-0.0,0.0,0.0,0.0,-1.0
51335865,51335750,-0.019588575,0.01875526,-0.6647609,-0.0,0.0,0.0,0.0,-1.0
51437606,51437405,0.016508514,0.0013029887,-0.671091,-0.0,0.0,0.0,0.0,-1.0
51537494,51537353,0.004595712,0.01368583,-0.6658315,-0.0,0.0,0.0,0.0,-1.0
51639881,51639749,-0.032992154,0.021413751,-0.6547444,-0.0,0.0,0.0,0.0,-1.0
51741463,51741346,-0.02545308,-0.015915077,-0.66311353,-0.0,0.0,0.0,0.0,-1.0
51845520,51845389,0.009097379,-0.00018283399,-0.68834895,-0.0,0.0,0.0,0.0,-1.0
51949482,51949354,-0.011183698,0.023115784,-0.6945397,-0.0,0.0,0.0,0.0,-1.0
52052704,52052579,0.026977802,0.0021643257,-0.6441001,-0.0,0.0,0.0,0.0,-1.0
52154282,52154143,-0.05783578,0.009003721,-0.655317,-0.0,0.0,0.0,0.0,-1.0
52256680,52256555,0.032765336,-0.039619662,-0.6650478,-0.0,0.0,0.0,0.0,-1.0
52357490,52357362,0.00095512136,-0.028697643,-0.7102473,-0.0,0.0,0.0,0.0,-1.0
52458268,52458143,0.032248963,-0.032433018,-0.724216,-0.0,0.0,0.0,0.0,-1.0
52558266,52558144,-0.061474092,0.025408085,-0.66687196,-0.0,0.0,0.0,0.0,-1.0
52662266,52662144,0.03881383,0.00873835,-0.6648261,-0.0,0.0,0.0,0.0,-1.0
52763075,52762943,0.023549058,-0.009537214,-0.66836786,-0.0,0.0,0.0,0.0,-1.0
52863062,52862944,0.044907708,0.006068913,-0.71267563,-0.0,0.0,0.0,0.0,-1.0
52967062,52966944,0.0010042926,-0.003236527,-0.6937799,-0.0,0.0,0.0,0.0,-1.0
53067195,53066999,-0.053473763,0.01822083,-0.75765944,-0.0,0.0,0.0,0.0,-1.0
53167082,53166944,-0.026429042,0.004811138,-0.67581624,-0.0,0.0,0.0,0.0,-1.0
53271092,53270946,0.015037138,-0.011567595,-0.69256425,-0.0,0.0,0.0,0.0,-1.0
53372022,53371797,-0.002966201,-0.0026732907,-0.69458073,-0.0,0.0,0.0,0.0,-1.0
53474289,53474144,0.03388971,-0.031410094,-0.67985797,-0.0,0.0,0.0,0.0,-1.0
53575075,53574946,0.018733522,-0.012462592,-0.6613618,-0.0,0.0,0.0,0.0,-1.0
53675869,53675746,-0.021931337,-0.038500145,-0.70208067,-0.0,0.0,0.0,0.0,-1.0
53779073,53778944,0.023200046,-0.025349123,-0.7376712,-0.0,0.0,0.0,0.0,-1.0
53879860,53879744,-0.055542693,-0.018181833,-0.676883,-0.0,0.0,0.0,0.0,-1.0
53980665,53980549,-0.020356048,-0.03507919,-0.6745086,-0.0,0.0,0.0,0.0,-1.0
54083074,54082945,-0.008267229,0.025941616,-0.69897956,-0.0,0.0,0.0,0.0,-1.0
54184681,54184544,-0.03211853,0.013930231,-0.6973215,-0.0,0.0,0.0,0.0,-1.0
54285618,54285390,0.053616516,0.034827814,-0.6790325,-0.0,0.0,0.0,0.0,-1.0
54388040,54387807,-0.06876221,-0.032905214,-0.7137985,-0.0,0.0,0.0,0.0,-1.0
54488793,54488592,0.09110185,0.023333035,-0.6807284,-0.0,0.0,0.0,0.0,-1.0
54589515,54589390,-0.056922838,0.012680084,-0.687644,-0.0,0.0,0.0,0.0,-1.0
54691865,54691749,0.012427944,0.00031870976,-0.70614,-0.0,0.0,0.0,0.0,-1.0
54793508,54793381,0.07634431,-0.02703132,-0.6670171,-0.0,0.0,0.0,0.0,-1.0
54894282,54894143,0.0558776,0.033626,-0.6692519,-0.0,0.0,0.0,0.0,-1.0
54996689,54996546,0.043669537,-0.039425947,-0.6678074,-0.0,0.0,0.0,0.0,-1.0
55097460,55097344,0.028251506,-0.0022956654,-0.6715319,-0.0,0.0,0.0,0.0,-1.0
55198266,55198143,0.03672245,-0.059413657,-0.6971657,-0.0,0.0,0.0,0.0,-1.0
55301490,55301365,0.07775314,-0.0065137395,-0.690613,-0.0,0.0,0.0,0.0,-1.0
55403084,55402944,-0.06267769,-0.03399962,-0.69742936,-0.0,0.0,0.0,0.0,-1.0
55503081,55502943,-0.06828536,-0.013543326,-0.675368,-0.0,0.0,0.0,0.0,-1.0
55605509,55605384,-0.04626307,-0.04935853,-0.735317,-0.0,0.0,0.0,0.0,-1.0
55707073,55706944,0.015468292,0.038091995,-0.70874375,-0.0,0.0,0.0,0.0,-1.0
55810270,55810144,0.06579932,0.025133125,-0.64984816,-0.0,0.0,0.0,0.0,-1.0
55915077,55914946,-0.02640516,-0.031026097,-0.6333934,-0.0,0.0,0.0,0.0,-1.0
56019076,56018944,0.04110262,0.041557748,-0.6749525,-0.0,0.0,0.0,0.0,-1.0
56119878,56119743,0.056858517,-0.03286837,-0.6847514,-0.0,0.0,0.0,0.0,-1.0
56219861,56219744,-0.020934531,0.016509268,-0.6621671,-0.0,0.0,0.0,0.0,-1.0
56323891,56323755,0.023380492,-0.005530635,-0.68590164,-0.0,0.0,0.0,0.0,-1.0
56423910,56423764,0.092741005,-0.022107696,-0.72741103,-0.0,0.0,0.0,0.0,-1.0
56524710,56524580,-0.06844137,0.012196195,-0.7152318,-0.0,0.0,0.0,0.0,-1.0
56628661,56628544,0.121358395,0.039182734,-0.70773023,-0.0,0.0,0.0,0.0,-1.0
56728664,56728546,0.0136885345,-0.05265733,-0.6799648,-0.0,0.0,0.0,0.0,-1.0
56830279,56830151,-0.0054875854,-0.024016462,-0.679663,-0.0,0.0,0.0,0.0,-1.0
56931877,56931744,0.03150696,-0.058779124,-0.70611787,-0.0,0.0,0.0,0.0,-1.0
57033459,57033343,0.045156118,0.027219918,-0.72415537,-0.0,0.0,0.0,0.0,-1.0
57135863,57135748,0.019630782,-0.03361252,-0.6934568,-0.0,0.0,0.0,0.0,-1.0
57236684,57236545,0.021217786,-0.009488941,-0.67243844,-0.0,0.0,0.0,0.0,-1.0
57337482,57337349,0.024176177,-0.02090376,-0.7136773,-0.0,0.0,0.0,0.0,-1.0
57438347,57438210,0.022435589,-0.02740662,-0.68845254,-0.0,0.0,0.0,0.0,-1.0
57540676,57540544,0.058031794,-0.015159411,-0.71306527,-0.0,0.0,0.0,0.0,-1.0
57642279,57642153,0.003221687,0.00035534427,-0.70121306,-0.0,0.0,0.0,0.0,-1.0
57744678,57744544,-0.027773552,0.016528044,-0.7052519,-0.0,0.0,0.0,0.0,-1.0
57845657,57845402,-0.006195288,-0.008626424,-0.7291295,-0.0,0.0,0.0,0.0,-1.0
57946284,57946148,-0.057107173,0.023559207,-0.70376515,-0.0,0.0,0.0,0.0,-1.0
58049482,58049355,0.03190806,-0.011727661,-0.66821826,-0.0,0.0,0.0,0.0,-1.0
58151118,58150991,-0.02403241,-0.005916508,-0.7050153,-0.0,0.0,0.0,0.0,-1.0
58251063,58250943,0.071616285,-0.019041412,-0.6844426,-0.0,0.0,0.0,0.0,-1.0
58351081,58350944,0.0061071184,0.014676448,-0.68126214,-0.0,0.0,0.0,0.0,-1.0
58454303,58454163,0.027310487,-0.017341178,-0.7014176,-0.0,0.0,0.0,0.0,-1.0
58555063,58554946,0.014632903,-0.008119773,-0.7093266,-0.0,0.0,0.0,0.0,-1.0
58658295,58658165,0.030328695,-0.0043478496,-0.7453499,-0.0,0.0,0.0,0.0,-1.0
58759164,58759016,-0.0065927766,-0.049639538,-0.7105746,-0.0,0.0,0.0,0.0,-1.0
58859890,58859765,-0.004788013,-0.03539003,-0.67064506,-0.0,0.0,0.0,0.0,-1.0
58962288,58962159,0.0015466698,-0.04263166,-0.7243792,-0.0,0.0,0.0,0.0,-1.0
59063062,59062944,-0.045204964,-0.0029441733,-0.70688885,-0.0,0.0,0.0,0.0,-1.0
59164717,59164592,-0.014241811,-0.026481938,-0.70979947,-0.0,0.0,0.0,0.0,-1.0
59267063,59266945,0.018193461,-0.0035170894,-0.6690322,-0.0,0.0,0.0,0.0,-1.0
59367861,59367744,0.021893067,-0.01665457,-0.6888091,-0.0,0.0,0.0,0.0,-1.0
59468659,59468543,0.050926287,-0.009849649,-0.7122156,-0.0,0.0,0.0,0.0,-1.0
59571860,59571744,-0.0029390976,-0.02977224,-0.67973346,-0.0,0.0,0.0,0.0,-1.0
59672685,59672544,-0.0050525498,-0.03542054,-0.69539577,-0.0,0.0,0.0,0.0,-1.0
59772658,59772543,0.0515784,-0.05337949,-0.7020576,-0.0,0.0,0.0,0.0,-1.0
59875860,59875745,0.06532789,-0.05986557,-0.66939646,-0.0,0.0,0.0,0.0,-1.0
59976663,59976546,-0.0122175515,-0.02105128,-0.6900529,-0.0,0.0,0.0,0.0,-1.0
60077462,60077346,0.0420687,0.02187042,-0.6980334,-0.0,0.0,0.0,0.0,-1.0
60179868,60179745,-0.066352524,-0.042919565,-0.64154476,-0.0,0.0,0.0,0.0,-1.0
60281500,60281365,-0.015830616,-0.0039636036,-0.68733746,-0.0,0.0,0.0,0.0,-1.0
60382282,60382146,-0.016310478,-0.061606094,-0.6543715,-0.0,0.0,0.0,0.0,-1.0
60484696,60484547,0.0062309094,-0.007707948,-0.7086767,-0.0,0.0,0.0,0.0,-1.0
60586319,60586185,0.063623995,-0.0019547297,-0.64705527,-0.0,0.0,0.0,0.0,-1.0
60686275,60686145,0.02118411,-0.015415932,-0.6493447,-0.0,0.0,0.0,0.0,-1.0
60789483,60789356,0.013936155,0.02037809,-0.7022987,-0.0,0.0,0.0,0.0,-1.0
60890268,60890145,-0.049906977,-0.0013699718,-0.6488295,-0.0,0.0,0.0,0.0,-1.0
60991071,60990946,0.0986606,-0.006822842,-0.6893134,-0.0,0.0,0.0,0.0,-1.0
61093484,61093359,0.020959647,-0.030385457,-0.70118827,-0.0,0.0,0.0,0.0,-1.0
61195081,61194954,0.027155837,-0.06334013,-0.6998811,-0.0,0.0,0.0,0.0,-1.0
61296717,61296577,0.057229836,-0.04334109,-0.66022915,-0.0,0.0,0.0,0.0,-1.0
61398270,61398149,0.04959051,-0.043410853,-0.6203287,-0.0,0.0,0.0,0.0,-1.0
61499082,61498947,0.045870103,-0.023196748,-0.63248855,-0.0,0.0,0.0,0.0,-1.0
61599880,61599746,-0.01316356,0.02843241,-0.69671243,-0.0,0.0,0.0,0.0,-1.0
61702302,61702180,0.029598847,-0.023717975,-0.6662585,-0.0,0.0,0.0,0.0,-1.0
61803881,61803747,0.099427074,-0.08770741,-0.62300867,-0.0,0.0,0.0,0.0,-1.0
61905507,61905382,0.015958272,0.0112287495,-0.6492161,-0.0,0.0,0.0,0.0,-1.0
62007097,62006962,-0.008278443,0.06673209,-0.5899918,-0.0,0.0,0.0,0.0,-1.0
62108684,62108544,-0.024539955,-0.07127948,-0.63921773,-0.0,0.0,0.0,0.0,-1.0
62208799,62208546,0.017179225,-0.032116666,-0.6774349,-0.0,0.0,0.0,0.0,-1.0
62311890,62311758,0.030943897,0.0075459983,-0.6253466,-0.0,0.0,0.0,0.0,-1.0
62412680,62412546,0.05265306,0.011852013,-0.5998637,-0.0,0.0,0.0,0.0,-1.0
62513637,62513414,-0.043008056,0.02195425,-0.64499795,-0.0,0.0,0.0,0.0,-1.0
62615859,62615743,0.0058273934,0.00067841035,-0.6654202,-0.0,0.0,0.0,0.0,-1.0
62717484,62717352,-0.0042702868,0.0070721395,-0.6559533,-0.0,0.0,0.0,0.0,-1.0
62820676,62820546,0.006207139,-0.005523615,-0.6584121,-0.0,0.0,0.0,0.0,-1.0
62927079,62926947,0.022957765,0.018856432,-0.6200146,-0.0,0.0,0.0,0.0,-1.0
63029501,63029365,0.023999529,-0.018078996,-0.6346218,-0.0,0.0,0.0,0.0,-1.0
63134437,63134186,0.0059516868,0.041497048,-0.6377616,-0.0,0.0,0.0,0.0,-1.0
63234282,63234145,0.08543975,-0.0027789185,-0.601655,-0.0,0.0,0.0,0.0,-1.0
63336674,63336544,-0.009816176,-0.014983723,-0.6134498,-0.0,0.0,0.0,0.0,-1.0
63438285,63438152,0.024874149,-0.04816981,-0.61929387,-0.0,0.0,0.0,0.0,-1.0
63539877,63539752,-0.0016710125,-0.020915503,-0.6501469,-0.0,0.0,0.0,0.0,-1.0
63641479,63641346,0.037349556,-0.056055296,-0.6271822,-0.0,0.0,0.0,0.0,-1.0
63743083,63742948,0.059491728,-0.028060947,-0.60161793,-0.0,0.0,0.0,0.0,-1.0
63847065,63846946,0.02287702,-0.055888362,-0.5901355,-0.0,0.0,0.0,0.0,-1.0
63950283,63950161,0.017173175,-0.048380744,-0.617133,-0.0,0.0,0.0,0.0,-1.0
64051086,64050959,0.08354469,-0.06354027,-0.59084713,-0.0,0.0,0.0,0.0,-1.0
64151901,64151768,0.024628924,-0.044217266,-0.57825655,-0.0,0.0,0.0,0.0,-1.0
64255861,64255744,0.0697475,-0.05236236,-0.5946447,-0.0,0.0,0.0,0.0,-1.0
64359075,64358944,-0.010969957,-0.014169642,-0.6164543,-0.0,0.0,0.0,0.0,-1.0
64459875,64459745,0.062461812,-0.021761669,-0.5842193,-0.0,0.0,0.0,0.0,-1.0
64561482,64561343,0.0066922745,-0.01878893,-0.60656595,-0.0,0.0,0.0,0.0,-1.0
64663098,64662960,0.021472055,-0.009104377,-0.6687292,-0.0,0.0,0.0,0.0,-1.0
64764661,64764546,0.08137453,-0.0027790829,-0.6287127,-0.0,0.0,0.0,0.0,-1.0
64866274,64866143,0.026337711,0.0073003406,-0.5913492,-0.0,0.0,0.0,0.0,-1.0
64968002,64967793,0.047128458,0.020285346,-0.66941714,-0.0,0.0,0.0,0.0,-1.0
65068678,65068553,-0.030070504,-0.020339688,-0.6532395,-0.0,0.0,0.0,0.0,-1.0
65171873,65171750,0.051909648,0.0022636112,-0.60484725,-0.0,0.0,0.0,0.0,-1.0
65273501,65273372,0.011802612,-0.011925229,-0.6008896,-0.0,0.0,0.0,0.0,-1.0
65373517,65373392,0.023628127,0.010217397,-0.65333766,-0.0,0.0,0.0,0.0,-1.0
65475080,65474943,0.011565014,-0.0029868344,-0.6325809,-0.0,0.0,0.0,0.0,-1.0
65576827,65576590,0.050299875,-0.049908206,-0.58680534,-0.0,0.0,0.0,0.0,-1.0
65677516,65677391,-0.03472989,-0.0101377135,-0.61710906,-0.0,0.0,0.0,0.0,-1.0
65778333,65778189,0.060405858,-0.052982274,-0.61264956,-0.0,0.0,0.0,0.0,-1.0
65882284,65882161,0.035898894,-0.024869952,-0.6203224,-0.0,0.0,0.0,0.0,-1.0
65982277,65982151,-0.039232086,0.041731283,-0.63199896,-0.0,0.0,0.0,0.0,-1.0
66084681,66084544,0.039272077,-0.002397835,-0.6050522,-0.0,0.0,0.0,0.0,-1.0
66185514,66185388,-0.024014771,-0.00764729,-0.5822918,-0.0,0.0,0.0,0.0,-1.0
66286268,66286146,0.081529215,-0.07193354,-0.5944478,-0.0,0.0,0.0,0.0,-1.0
66389508,66389383,0.050197028,-0.07419092,-0.60060805,-0.0,0.0,0.0,0.0,-1.0
66490268,66490146,0.07414131,-0.02587504,-0.5700237,-0.0,0.0,0.0,0.0,-1.0
66591062,66590943,0.007957855,0.0025149276,-0.5919456,-0.0,0.0,0.0,0.0,-1.0
66693465,66693345,0.03061666,0.026256975,-0.5705556,-0.0,0.0,0.0,0.0,-1.0
66795088,66794957,0.00047293305,-0.009121259,-0.5589525,-0.0,0.0,0.0,0.0,-1.0
66896679,66896543,-0.002537516,0.004499109,-0.60485333,-0.0,0.0,0.0,0.0,-1.0
66998279,66998156,0.009433072,-0.025783483,-0.5768818,-0.0,0.0,0.0,0.0,-1.0
67100028,67099797,0.0056410194,-0.00951634,-0.55372703,-0.0,0.0,0.0,0.0,-1.0
67199868,67199743,0.08409339,-0.023174852,-0.57858616,-0.0,0.0,0.0,0.0,-1.0
67303082,67302957,-0.042864136,0.008044631,-0.5614752,-0.0,0.0,0.0,0.0,-1.0
67403871,67403743,-0.041607272,0.028815787,-0.5897591,-0.0,0.0,0.0,0.0,-1.0
67504688,67504546,-0.05723976,-0.024857927,-0.58584005,-0.0,0.0,0.0,0.0,-1.0
67607077,67606951,-0.07289795,0.008974701,-0.5801441,-0.0,0.0,0.0,0.0,-1.0
67708708,67708576,0.008875368,0.01522891,-0.6076755,-0.0,0.0,0.0,0.0,-1.0
67808659,67808543,0.013861151,-0.008241589,-0.57830524,-0.0,0.0,0.0,0.0,-1.0
67912023,67911789,-0.0023517553,0.00012188032,-0.55541396,-0.0,0.0,0.0,0.0,-1.0
68013464,68013345,0.04457681,-0.015850805,-0.5784051,-0.0,0.0,0.0,0.0,-1.0
68113630,68113404,0.037271522,0.00354766,-0.5588049,-0.0,0.0,0.0,0.0,-1.0
68215876,68215743,0.039051365,-0.025822513,-0.56816643,-0.0,0.0,0.0,0.0,-1.0
68317478,68317346,-0.014243899,-0.011301241,-0.6058493,-0.0,0.0,0.0,0.0,-1.0
68419860,68419744,-0.025090933,0.001860857,-0.5838985,-0.0,0.0,0.0,0.0,-1.0
68520693,68520552,0.006674179,-0.013814483,-0.5505004,-0.0,0.0,0.0,0.0,-1.0
68621517,68621392,-0.02392021,-0.055588502,-0.57595456,-0.0,0.0,0.0,0.0,-1.0
68722351,68722201,0.08120114,0.012436136,-0.5878193,-0.0,0.0,0.0,0.0,-1.0
68824678,68824545,0.09070302,0.06245228,-0.5967989,-0.0,0.0,0.0,0.0,-1.0
68926267,68926144,-0.034802128,0.039408192,-0.55419296,-0.0,0.0,0.0,0.0,-1.0
69027112,69026982,0.013734221,-0.040131815,-0.57200205,-0.0,0.0,0.0,0.0,-1.0
69129460,69129345,0.03764016,-0.0056320224,-0.5909701,-0.0,0.0,0.0,0.0,-1.0
69231075,69230944,0.009577326,0.019355848,-0.5564685,-0.0,0.0,0.0,0.0,-1.0
69334284,69334145,0.030913938,-0.013811911,-0.57681197,-0.0,0.0,0.0,0.0,-1.0
69437477,69437344,0.0056403475,-0.017153066,-0.5820083,-0.0,0.0,0.0,0.0,-1.0
69539080,69538943,0.028226195,0.004831912,-0.6053912,-0.0,0.0,0.0,0.0,-1.0
69639893,69639761,0.012610136,-0.0036446627,-0.5819895,-0.0,0.0,0.0,0.0,-1.0
69742266,69742144,0.034857046,-0.05069846,-0.57097936,-0.0,0.0,0.0,0.0,-1.0
69843063,69842943,-0.06809247,0.010512639,-0.55966705,-0.0,0.0,0.0,0.0,-1.0
69943064,69942944,0.009701544,0.010354101,-0.59708995,-0.0,0.0,0.0,0.0,-1.0
70047860,70047744,-0.0038964474,-0.000916,-0.58131117,-0.0,0.0,0.0,0.0,-1.0
70151860,70151744,-0.0097122155,-0.0026412276,-0.5745585,-0.0,0.0,0.0,0.0,-1.0
70252659,70252543,0.040355243,0.0062828064,-0.56922805,-0.0,0.0,0.0,0.0,-1.0
70355193,70354995,0.042950056,0.018727068,-0.57434934,-0.0,0.0,0.0,0.0,-1.0
70456680,70456547,-0.016732946,-0.028110957,-0.6050789,-0.0,0.0,0.0,0.0,-1.0
70556690,70556552,0.059199937,-0.053010147,-0.5956591,-0.0,0.0,0.0,0.0,-1.0
70656703,70656578,0.030363632,-0.027767232,-0.5736599,-0.0,0.0,0.0,0.0,-1.0
70761475,70761351,-0.017783457,0.0155504905,-0.582971,-0.0,0.0,0.0,0.0,-1.0
70861676,70861447,0.0132012665,0.00060914084,-0.6008297,-0.0,0.0,0.0,0.0,-1.0
70963874,70963746,0.020943474,-0.005352689,-0.5586287,-0.0,0.0,0.0,0.0,-1.0
71065517,71065391,0.02107352,-0.068458825,-0.60235155,-0.0,0.0,0.0,0.0,-1.0
71165513,71165385,0.07417031,-0.06820777,-0.58108187,-0.0,0.0,0.0,0.0,-1.0
71265515,71265378,0.0374873,0.00616467,-0.5525909,-0.0,0.0,0.0,0.0,-1.0
71369477,71369344,-0.031175032,-0.02117633,-0.57176274,-0.0,0.0,0.0,0.0,-1.0
71470291,71470158,0.07251366,-0.012428549,-0.55430967,-0.0,0.0,0.0,0.0,-1.0
71572685,71572549,-0.009284815,0.0150080295,-0.5590214,-0.0,0.0,0.0,0.0,-1.0
71673477,71673346,0.046000935,0.018023886,-0.5570512,-0.0,0.0,0.0,0.0,-1.0
71774288,71774148,0.015301977,-0.02294239,-0.5424549,-0.0,0.0,0.0,0.0,-1.0
71877501,71877372,0.034549594,-0.01823189,-0.5448672,-0.0,0.0,0.0,0.0,-1.0
71978266,71978144,-0.011992278,-0.033088997,-0.5827285,-0.0,0.0,0.0,0.0,-1.0
72079075,72078943,0.10309857,-0.060785733,-0.5862632,-0.0,0.0,0.0,0.0,-1.0
72181474,72181344,-0.0018580705,-0.012701301,-0.55469745,-0.0,0.0,0.0,0.0,-1.0
72283096,72282970,0.015785454,-0.0012438111,-0.5796687,-0.0,0.0,0.0,0.0,-1.0
72383884,72383759,0.0024160254,-0.0049685817,-0.57545346,-0.0,0.0,0.0,0.0,-1.0
72485516,72485382,0.00805907,0.004957929,-0.5850684,-0.0,0.0,0.0,0.0,-1.0
72587070,72586944,-0.010778695,-0.004504308,-0.573208,-0.0,0.0,0.0,0.0,-1.0
72687897,72687746,0.03668864,-0.0030212281,-0.5928329,-0.0,0.0,0.0,0.0,-1.0
72791086,72790961,-0.011870539,0.008997586,-0.5899994,-0.0,0.0,0.0,0.0,-1.0
72891860,72891744,-0.04602675,0.013508845,-0.58346826,-0.0,0.0,0.0,0.0,-1.0
72992666,72992543,0.014080195,-0.024613157,-0.5951276,-0.0,0.0,0.0,0.0,-1.0
73095080,73094945,-0.020474222,-0.02840951,-0.59055644,-0.0,0.0,0.0,0.0,-1.0
73196690,73196545,-0.04527174,-0.003638167,-0.57935786,-0.0,0.0,0.0,0.0,-1.0
73296658,73296543,0.013999602,-0.02162169,-0.588524,-0.0,0.0,0.0,0.0,-1.0
73399882,73399757,0.017938666,-0.025375944,-0.5930516,-0.0,0.0,0.0,0.0,-1.0
73500664,73500544,0.011343201,-0.03797631,-0.5840454,-0.0,0.0,0.0,0.0,-1.0
73601461,73601345,1.3037585e-05,-0.015742488,-0.5779688,-0.0,0.0,0.0,0.0,-1.0
73703928,73703792,0.025066651,-0.020507386,-0.56168693,-0.0,0.0,0.0,0.0,-1.0
73805516,73805391,0.02372373,-0.007868577,-0.6083965,-0.0,0.0,0.0,0.0,-1.0
73908685,73908554,-0.036105335,-0.028381504,-0.6125443,-0.0,0.0,0.0,0.0,-1.0
74008685,74008546,0.06367907,-0.044758037,-0.5767712,-0.0,0.0,0.0,0.0,-1.0
74109596,74109398,0.03862207,-0.005919953,-0.5482368,-0.0,0.0,0.0,0.0,-1.0
74210293,74210172,0.0056505646,0.006332442,-0.56917924,-0.0,0.0,0.0,0.0,-1.0
74312703,74312578,0.011064082,-0.025281027,-0.59126484,-0.0,0.0,0.0,0.0,-1.0
74414287,74414149,-0.010463036,-0.019939398,-0.5582225,-0.0,0.0,0.0,0.0,-1.0
74515274,74515023,0.0627472,-0.05735789,-0.54459095,-0.0,0.0,0.0,0.0,-1.0
74617484,74617346,0.041224234,-0.008115577,-0.5677678,-0.0,0.0,0.0,0.0,-1.0
74719114,74718966,0.011928882,-0.009297823,-0.5673756,-0.0,0.0,0.0,0.0,-1.0
74823069,74822944,-0.007639978,-0.0050899778,-0.5785522,-0.0,0.0,0.0,0.0,-1.0
74927080,74926945,-0.012111653,-0.039828673,-0.56870484,-0.0,0.0,0.0,0.0,-1.0
75031092,75030952,0.03707166,-0.009962754,-0.57489777,-0.0,0.0,0.0,0.0,-1.0
75131063,75130943,0.023180002,-0.021685688,-0.5760479,-0.0,0.0,0.0,0.0,-1.0
75234287,75234149,-0.022761256,-0.023094313,-0.57384634,-0.0,0.0,0.0,0.0,-1.0
75335073,75334944,-0.027381625,-0.008419494,-0.57631814,-0.0,0.0,0.0,0.0,-1.0
75435886,75435752,-0.00040858984,0.00947647,-0.60544026,-0.0,0.0,0.0,0.0,-1.0
75538294,75538165,-0.0060880966,-0.031529576,-0.57246846,-0.0,0.0,0.0,0.0,-1.0
75640031,75639802,0.010883274,-0.027213048,-0.5214054,-0.0,0.0,0.0,0.0,-1.0
75740837,75740600,0.013909496,-0.02107886,-0.5431589,-0.0,0.0,0.0,0.0,-1.0
75842275,75842143,0.0058004847,-0.018937264,-0.57154983,-0.0,0.0,0.0,0.0,-1.0
75943878,75943743,0.029717717,0.001186097,-0.5838821,-0.0,0.0,0.0,0.0,-1.0
76044681,76044556,0.019416263,-0.017895197,-0.5664545,-0.0,0.0,0.0,0.0,-1.0
76145524,76145391,0.031701505,-0.045135014,-0.5271733,-0.0,0.0,0.0,0.0,-1.0
76248691,76248565,0.03551481,-0.03633075,-0.5436579,-0.0,0.0,0.0,0.0,-1.0
76349492,76349367,0.047009204,-0.04637946,-0.5642667,-0.0,0.0,0.0,0.0,-1.0
76451860,76451744,0.025025498,-0.026329348,-0.5399163,-0.0,0.0,0.0,0.0,-1.0
76552691,76552563,0.062037595,-0.020738889,-0.54953116,-0.0,0.0,0.0,0.0,-1.0
76653478,76653346,0.021201018,-0.002096463,-0.55270284,-0.0,0.0,0.0,0.0,-1.0
76753460,76753344,0.015320411,-0.03240264,-0.5750574,-0.0,0.0,0.0,0.0,-1.0
76857480,76857346,0.06466271,-0.0072912294,-0.56237173,-0.0,0.0,0.0,0.0,-1.0
76958298,76958160,0.013874668,-0.048408166,-0.53838843,-0.0,0.0,0.0,0.0,-1.0
77060681,77060545,-0.013097485,0.011198709,-0.5868075,-0.0,0.0,0.0,0.0,-1.0
77161485,77161356,0.027674694,-0.024618015,-0.58547395,-0.0,0.0,0.0,0.0,-1.0
77262274,77262145,0.035915084,-0.0028747255,-0.5421265,-0.0,0.0,0.0,0.0,-1.0
77365504,77365380,0.04137453,-0.018774107,-0.5787404,-0.0,0.0,0.0,0.0,-1.0
77467083,77466955,0.010728717,0.01088267,-0.60974693,-0.0,0.0,0.0,0.0,-1.0
77567060,77566943,0.017324477,0.02815951,-0.5565256,-0.0,0.0,0.0,0.0,-1.0
77667062,77666944,-0.000716215,-0.05366677,-0.5489886,-0.0,0.0,0.0,0.0,-1.0
77771076,77770944,0.014761534,-0.021744093,-0.5526584,-0.0,0.0,0.0,0.0,-1.0
77872683,77872543,0.014140203,0.012209559,-0.57075393,-0.0,0.0,0.0,0.0,-1.0
77974286,77974145,-0.010270119,-0.013584523,-0.61428034,-0.0,0.0,0.0,0.0,-1.0
78075080,78074944,0.015400442,-0.07093172,-0.5966277,-0.0,0.0,0.0,0.0,-1.0
78175904,78175777,0.021187913,-0.01224414,-0.5907753,-0.0,0.0,0.0,0.0,-1.0
78278269,78278143,0.0437771,-0.02567363,-0.52976716,-0.0,0.0,0.0,0.0,-1.0
78379869,78379744,0.035554104,-0.008537648,-0.56802326,-0.0,0.0,0.0,0.0,-1.0
78480681,78480546,0.060244434,-0.02039881,-0.5714757,-0.0,0.0,0.0,0.0,-1.0
78583091,78582961,0.019480009,-0.008235715,-0.58940184,-0.0,0.0,0.0,0.0,-1.0
78684690,78684552,0.06470899,-0.03340473,-0.58349097,-0.0,0.0,0.0,0.0,-1.0
78784698,78784573,0.0036406936,-0.027055087,-0.5600397,-0.0,0.0,0.0,0.0,-1.0
78887090,78886946,0.04714285,-0.00033846917,-0.60874057,-0.0,0.0,0.0,0.0,-1.0
78988660,78988544,0.02090722,0.0013254993,-0.5666857,-0.0,0.0,0.0,0.0,-1.0
79089458,79089343,-0.0063731708,0.012711899,-0.6110113,-0.0,0.0,0.0,0.0,-1.0
79191888,79191759,0.034060232,-0.021392953,-0.5879603,-0.0,0.0,0.0,0.0,-1.0
79293478,79293348,0.035697266,0.007763069,-0.59643173,-0.0,0.0,0.0,0.0,-1.0
79395086,79394943,-0.009718873,0.0035841633,-0.61287206,-0.0,0.0,0.0,0.0,-1.0
79496825,79496629,0.059763346,-0.048783273,-0.5531204,-0.0,0.0,0.0,0.0,-1.0
79597650,79597409,-0.0013708435,-0.0048392094,-0.59256166,-0.0,0.0,0.0,0.0,-1.0
79698277,79698151,0.0043307263,-0.016904848,-0.6123078,-0.0,0.0,0.0,0.0,-1.0
79800662,79800547,0.0032265373,0.01866927,-0.58347666,-0.0,0.0,0.0,0.0,-1.0
79902334,79902194,0.03550992,0.010419466,-0.57394904,-0.0,0.0,0.0,0.0,-1.0
80003097,80002972,-0.002351055,0.008012798,-0.57948434,-0.0,0.0,0.0,0.0,-1.0
80105652,80105405,-0.0059985314,-0.017550914,-0.54172784,-0.0,0.0,0.0,0.0,-1.0
80207085,80206945,0.015626144,0.017127182,-0.584584,-0.0,0.0,0.0,0.0,-1.0
80310320,80310189,-0.005562801,-0.018090723,-0.5899153,-0.0,0.0,0.0,0.0,-1.0
80414297,80414161,0.00037996098,-0.013524192,-0.5558564,-0.0,0.0,0.0,0.0,-1.0
80515093,80514967,-0.0048354287,-0.0069290036,-0.5617004,-0.0,0.0,0.0,0.0,-1.0
80615907,80615763,0.016551927,-0.003875751,-0.5856418,-0.0,0.0,0.0,0.0,-1.0
80719064,80718944,-0.0019288486,-0.015284744,-0.57819486,-0.0,0.0,0.0,0.0,-1.0
80819076,80818943,0.028276412,-0.0035130861,-0.57959074,-0.0,0.0,0.0,0.0,-1.0
80919906,80919758,0.012947796,-0.022379048,-0.5759163,-0.0,0.0,0.0,0.0,-1.0
81023078,81022944,0.028629433,-0.017710181,-0.5759552,-0.0,0.0,0.0,0.0,-1.0
81123874,81123743,0.020436252,-0.011772295,-0.5872366,-0.0,0.0,0.0,0.0,-1.0
81224688,81224544,0.021930708,-0.012401373,-0.5677352,-0.0,0.0,0.0,0.0,-1.0
81328667,81328544,0.02054067,-0.009757893,-0.5735479,-0.0,0.0,0.0,0.0,-1.0
81431860,81431744,0.0090412535,-0.012551827,-0.5707566,-0.0,0.0,0.0,0.0,-1.0
81532663,81532543,0.017304426,-0.008976954,-0.5860826,-0.0,0.0,0.0,0.0,-1.0
81635880,81635755,0.020013353,-0.009736278,-0.58836883,-0.0,0.0,0.0,0.0,-1.0
81736685,81736544,0.014458141,-0.011191793,-0.579426,-0.0,0.0,0.0,0.0,-1.0
81837459,81837343,0.02111802,-0.010170989,-0.5757429,-0.0,0.0,0.0,0.0,-1.0
81939103,81938957,0.018578634,-0.01081771,-0.5803959,-0.0,0.0,0.0,0.0,-1.0
82040711,82040579,0.01796035,-0.011036343,-0.58849496,-0.0,0.0,0.0,0.0,-1.0
82141627,82141391,0.018349068,-0.0116272485,-0.5849032,-0.0,0.0,0.0,0.0,-1.0
82242356,82242225,0.019153763,-0.010868982,-0.5816645,-0.0,0.0,0.0,0.0,-1.0
82346346,82346206,0.015315819,-0.011621857,-0.5817215,-0.0,0.0,0.0,0.0,-1.0
82446266,82446143,0.014816734,-0.012653779,-0.58378047,-0.0,0.0,0.0,0.0,-1.0
82548679,82548543,0.01500394,-0.010967452,-0.58602315,-0.0,0.0,0.0,0.0,-1.0
82650282,82650158,0.0139060775,-0.015061005,-0.58590823,-0.0,0.0,0.0,0.0,-1.0
82750273,82750145,0.018791378,-0.012126698,-0.58520275,-0.0,0.0,0.0,0.0,-1.0
82852680,82852553,0.015472372,-0.013437954,-0.58288014,-0.0,0.0,0.0,0.0,-1.0
82954284,82954146,0.012161315,-0.016111715,-0.5874184,-0.0,0.0,0.0,0.0,-1.0
83055248,83054979,0.019225959,-0.017203348,-0.58553916,-0.0,0.0,0.0,0.0,-1.0
83157631,83157395,0.017370641,-0.013120763,-0.5900421,-0.0,0.0,0.0,0.0,-1.0
83259096,83258943,0.014956324,-0.015518778,-0.5880148,-0.0,0.0,0.0,0.0,-1.0
83360693,83360543,0.018585201,-0.014561855,-0.5856306,-0.0,0.0,0.0,0.0,-1.0
83463076,83462945,0.017898584,-0.015298951,-0.58472574,-0.0,0.0,0.0,0.0,-1.0
83563291,83562986,0.014512478,-0.015230765,-0.5883743,-0.0,0.0,0.0,0.0,-1.0
83664055,83663811,0.017386025,-0.014151647,-0.5897441,-0.0,0.0,0.0,0.0,-1.0
83767069,83766944,0.015177971,-0.014749113,-0.587846,-0.0,0.0,0.0,0.0,-1.0
83867876,83867743,0.015362596,-0.016891334,-0.58753854,-0.0,0.0,0.0,0.0,-1.0
83968703,83968578,0.01668735,-0.015550113,-0.5876125,-0.0,0.0,0.0,0.0,-1.0
84072795,84072597,0.015875738,-0.015964858,-0.5882444,-0.0,0.0,0.0,0.0,-1.0
84175865,84175744,0.015542614,-0.015635611,-0.58896244,-0.0,0.0,0.0,0.0,-1.0
84276672,84276543,0.017423894,-0.014945153,-0.58861274,-0.0,0.0,0.0,0.0,-1.0
84379875,84379746,0.015863376,-0.016370278,-0.5881142,-0.0,0.0,0.0,0.0,-1.0
84480692,84480548,0.016490456,-0.015905306,-0.58803576,-0.0,0.0,0.0,0.0,-1.0
84581459,84581343,0.016026033,-0.015013721,-0.5886301,-0.0,0.0,0.0,0.0,-1.0
84683870,84683744,0.01694209,-0.015407097,-0.58816284,-0.0,0.0,0.0,0.0,-1.0
84784662,84784544,0.01723906,-0.015401189,-0.58919424,-0.0,0.0,0.0,0.0,-1.0
84885508,84885383,0.016944464,-0.014963541,-0.5885343,-0.0,0.0,0.0,0.0,-1.0
84987063,84986944,0.017197704,-0.015099341,-0.5888297,-0.0,0.0,0.0,0.0,-1.0
85090270,85090145,0.01812019,-0.014824724,-0.58753115,-0.0,0.0,0.0,0.0,-1.0
85190267,85190143,0.018241912,-0.015080078,-0.5881709,-0.0,0.0,0.0,0.0,-1.0
85292685,85292546,0.018264843,-0.014374263,-0.58995515,-0.0,0.0,0.0,0.0,-1.0
85393520,85393393,0.017986458,-0.014895535,-0.58971626,-0.0,0.0,0.0,0.0,-1.0
85494291,85494153,0.017666988,-0.01413309,-0.5889186,-0.0,0.0,0.0,0.0,-1.0
85597471,85597346,0.017780622,-0.014373627,-0.58866614,-0.0,0.0,0.0,0.0,-1.0
85698290,85698158,0.018425189,-0.01362132,-0.5894499,-0.0,0.0,0.0,0.0,-1.0
85799218,85798995,0.017434644,-0.014120828,-0.5904558,-0.0,0.0,0.0,0.0,-1.0
85902269,85902145,0.01972148,-0.013041792,-0.59008735,-0.0,0.0,0.0,0.0,-1.0
86003072,86002944,0.020008536,-0.013020716,-0.589639,-0.0,0.0,0.0,0.0,-1.0
86104691,86104553,0.018896438,-0.013581738,-0.5906723,-0.0,0.0,0.0,0.0,-1.0
86206277,86206144,0.020206558,-0.0116609065,-0.59075063,-0.0,0.0,0.0,0.0,-1.0
86307062,86306944,0.020104952,-0.014237792,-0.5908809,-0.0,0.0,0.0,0.0,-1.0
86407864,86407746,0.019570602,-0.012623919,-0.5915991,-0.0,0.0,0.0,0.0,-1.0
86510266,86510144,0.019213412,-0.011287655,-0.5922565,-0.0,0.0,0.0,0.0,-1.0
